{"1655":{"hospitals":[{"place_id":"ChIJazVpqxOrEmsRhFrnttejQP8","rating":3.8,"name":"Manly Hospital","geo":{"location":{"lat":-33.805435,"lng":151.2948677},"viewport":{"northeast":{"lat":-33.8042088697085,"lng":151.29641475},"southwest":{"lat":-33.8069068302915,"lng":151.29275975}}}},{"place_id":"ChIJS0sQqhOrEmsR9AzjQ9fgF7A","rating":5,"name":"Maternity Unit, Manly Hospital","geo":{"location":{"lat":-33.8060477,"lng":151.295085},"viewport":{"northeast":{"lat":-33.8046987197085,"lng":151.2964339802915},"southwest":{"lat":-33.8073966802915,"lng":151.2937360197085}}}},{"place_id":"ChIJ32oCDBKrEmsRHsRS2LlSrVc","rating":4.7,"name":"Bear Cottage","geo":{"location":{"lat":-33.8036669,"lng":151.2920425},"viewport":{"northeast":{"lat":-33.8024155697085,"lng":151.2932537802915},"southwest":{"lat":-33.8051135302915,"lng":151.2905558197085}}}},{"place_id":"ChIJJbsQFg-rEmsRNF8b1i6zsjo","name":"Rialto Square Medical Practice","geo":{"location":{"lat":-33.7984736,"lng":151.2875908},"viewport":{"northeast":{"lat":-33.79712461970851,"lng":151.2889397802915},"southwest":{"lat":-33.7998225802915,"lng":151.2862418197085}}}}],"dentist":[{"place_id":"ChIJSbFQuAirEmsRmOUpY8uEuto","rating":5,"name":"Sydney Road Dental Care","geo":{"location":{"lat":-33.797058,"lng":151.28518},"viewport":{"northeast":{"lat":-33.79569326970851,"lng":151.2864295802915},"southwest":{"lat":-33.79839123029151,"lng":151.2837316197085}}}},{"place_id":"ChIJk881NQmrEmsRDNwJshE0iuo","name":"Geoff Thomas Dental","geo":{"location":{"lat":-33.799867,"lng":151.286011},"viewport":{"northeast":{"lat":-33.7986239697085,"lng":151.2872481802915},"southwest":{"lat":-33.8013219302915,"lng":151.2845502197085}}}},{"place_id":"ChIJRdjYtA6rEmsRQ4-f7XBm_EA","rating":3,"name":"Manly Smiles - General & Emergency 7 Day 24 Hour Dentist","geo":{"location":{"lat":-33.8001747,"lng":151.2863267},"viewport":{"northeast":{"lat":-33.79891486970851,"lng":151.2875426802915},"southwest":{"lat":-33.8016128302915,"lng":151.2848447197085}}}},{"place_id":"ChIJHXkVPAmrEmsRjqUMp1UEBD0","rating":4,"name":"Manly Dental Care","geo":{"location":{"lat":-33.79928269999999,"lng":151.2848132},"viewport":{"northeast":{"lat":-33.7979869697085,"lng":151.2861153802915},"southwest":{"lat":-33.8006849302915,"lng":151.2834174197085}}}},{"place_id":"ChIJqw9xNg-rEmsR4JYjDB5QJHE","rating":4.6,"name":"Manly Dentistry","geo":{"location":{"lat":-33.79773529999999,"lng":151.2865315},"viewport":{"northeast":{"lat":-33.79645566970849,"lng":151.2879414802915},"southwest":{"lat":-33.79915363029149,"lng":151.2852435197085}}}},{"place_id":"ChIJxY5-SAGrEmsRuPZ7tSQ6KNg","rating":5,"name":"The Friendly Dentist","geo":{"location":{"lat":-33.7900287,"lng":151.2848983},"viewport":{"northeast":{"lat":-33.7886657197085,"lng":151.2863239302915},"southwest":{"lat":-33.7913636802915,"lng":151.2836259697085}}}},{"place_id":"ChIJXxjJPQmrEmsRERzW_mYAkdM","rating":5,"name":"Manly Wharf Dental","geo":{"location":{"lat":-33.7992162,"lng":151.2847514},"viewport":{"northeast":{"lat":-33.7979634697085,"lng":151.2861265802915},"southwest":{"lat":-33.80066143029149,"lng":151.2834286197085}}}},{"place_id":"ChIJXxjJPQmrEmsR2k1ARf_o1W4","rating":5,"name":"Manly Family & General Dental Practice","geo":{"location":{"lat":-33.7997883,"lng":151.2868458},"viewport":{"northeast":{"lat":-33.7983569197085,"lng":151.2883095802915},"southwest":{"lat":-33.8010548802915,"lng":151.2856116197085}}}},{"place_id":"ChIJ2w9rxA6rEmsRxE17-dDts8s","rating":5,"name":"Dentaland - Dental Implants - All On 4 Manly","geo":{"location":{"lat":-33.7997821,"lng":151.2868924},"viewport":{"northeast":{"lat":-33.7984114197085,"lng":151.2883806302915},"southwest":{"lat":-33.8011093802915,"lng":151.2856826697085}}}},{"place_id":"ChIJvYkWPAmrEmsR5omG6k3lv90","name":"Manly Active Dental","geo":{"location":{"lat":-33.799286,"lng":151.284858},"viewport":{"northeast":{"lat":-33.7979370197085,"lng":151.2862069802915},"southwest":{"lat":-33.8006349802915,"lng":151.2835090197085}}}},{"place_id":"ChIJvYkWPAmrEmsRpKBbeWGWARs","name":"Peter Heyworth & Associates","geo":{"location":{"lat":-33.797138,"lng":151.28804},"viewport":{"northeast":{"lat":-33.7957890197085,"lng":151.2893889802915},"southwest":{"lat":-33.79848698029149,"lng":151.2866910197085}}}},{"place_id":"ChIJC3zySgmrEmsRg7n-PbpNhZw","name":"Dr Geoffrey Thomas","geo":{"location":{"lat":-33.79985120000001,"lng":151.2860761},"viewport":{"northeast":{"lat":-33.7986204197085,"lng":151.2872866802915},"southwest":{"lat":-33.8013183802915,"lng":151.2845887197085}}}},{"place_id":"ChIJC3zySgmrEmsRON7lE9FSu6I","rating":5,"name":"Exceldent","geo":{"location":{"lat":-33.7998384,"lng":151.2860246},"viewport":{"northeast":{"lat":-33.79860176970849,"lng":151.2872328802915},"southwest":{"lat":-33.80129973029149,"lng":151.2845349197085}}}},{"place_id":"ChIJAQqhxgirEmsRnVzpCMwFAKY","name":"Pilatos Dimitrios","geo":{"location":{"lat":-33.7974854,"lng":151.2851878},"viewport":{"northeast":{"lat":-33.7960203697085,"lng":151.2863998802915},"southwest":{"lat":-33.7987183302915,"lng":151.2837019197085}}}},{"place_id":"ChIJKaD2DwarEmsRRl1kcjeyE3w","rating":5,"name":"Dr Daniel Pechar","geo":{"location":{"lat":-33.7952954,"lng":151.2853694},"viewport":{"northeast":{"lat":-33.7939464197085,"lng":151.2867183802915},"southwest":{"lat":-33.7966443802915,"lng":151.2840204197085}}}},{"place_id":"ChIJyXFfwQ6rEmsRrwp6sPI9Sa0","name":"DR RICHARD JANUSIC DR ELIZABETH GLUHIN","geo":{"location":{"lat":-33.7997883,"lng":151.2868458},"viewport":{"northeast":{"lat":-33.7983569197085,"lng":151.2883095802915},"southwest":{"lat":-33.8010548802915,"lng":151.2856116197085}}}},{"place_id":"ChIJv1-1BgarEmsRqet0Ui84I80","rating":5,"name":"Dr Abraham Elbouch","geo":{"location":{"lat":-33.79572400000001,"lng":151.2857568},"viewport":{"northeast":{"lat":-33.7943953197085,"lng":151.2868479302915},"southwest":{"lat":-33.7970932802915,"lng":151.2841499697085}}}},{"place_id":"ChIJxY5-SAGrEmsRjh9jmyxvMj8","rating":5,"name":"Dr Anthony Cassimaty","geo":{"location":{"lat":-33.790046,"lng":151.2847355},"viewport":{"northeast":{"lat":-33.7886743697085,"lng":151.2862425302915},"southwest":{"lat":-33.79137233029149,"lng":151.2835445697085}}}},{"place_id":"ChIJHxJPuAirEmsRw6oVGobt7Sg","name":"Dr Ben Chuang","geo":{"location":{"lat":-33.7970569,"lng":151.2851796},"viewport":{"northeast":{"lat":-33.79569326970851,"lng":151.2864294802915},"southwest":{"lat":-33.79839123029151,"lng":151.2837315197085}}}},{"place_id":"ChIJJxNPuAirEmsRL7GgB2im3jU","name":"Dr Fay Callaghan","geo":{"location":{"lat":-33.797058,"lng":151.28518},"viewport":{"northeast":{"lat":-33.79569326970851,"lng":151.2864295802915},"southwest":{"lat":-33.79839123029151,"lng":151.2837316197085}}}},{"place_id":"ChIJC3zySgmrEmsRXshiLM9Gpl4","name":"Dr Brown, Denis","geo":{"location":{"lat":-33.7998281,"lng":151.285985},"viewport":{"northeast":{"lat":-33.7986045197085,"lng":151.2872351802915},"southwest":{"lat":-33.8013024802915,"lng":151.2845372197085}}}},{"place_id":"ChIJJxNPuAirEmsR6FPC_UckmZw","name":"Dr Jamie Jones","geo":{"location":{"lat":-33.7970569,"lng":151.2851796},"viewport":{"northeast":{"lat":-33.79569326970851,"lng":151.2864294802915},"southwest":{"lat":-33.79839123029151,"lng":151.2837315197085}}}},{"place_id":"ChIJ59bftQ6rEmsR5hJmvbho3-A","name":"Dr Steven Shi BDSc Hons (Melb)","geo":{"location":{"lat":-33.8001305,"lng":151.2863856},"viewport":{"northeast":{"lat":-33.79878151970851,"lng":151.2877345802915},"southwest":{"lat":-33.8014794802915,"lng":151.2850366197085}}}},{"place_id":"ChIJk881NQmrEmsRmfzAelmfYk0","rating":5,"name":"Manly Orthodontics","geo":{"location":{"lat":-33.7998384,"lng":151.2860246},"viewport":{"northeast":{"lat":-33.7986096697085,"lng":151.2872549802915},"southwest":{"lat":-33.8013076302915,"lng":151.2845570197085}}}},{"place_id":"ChIJC3zySgmrEmsRWE5BvrsLUmc","rating":5,"name":"Manly Orthodontics","geo":{"location":{"lat":-33.799867,"lng":151.286011},"viewport":{"northeast":{"lat":-33.7986239697085,"lng":151.2872481802915},"southwest":{"lat":-33.8013219302915,"lng":151.2845502197085}}}}],"physiotherapist":[{"place_id":"ChIJ6ZLfww6rEmsRdFzRJ3XzrgQ","rating":5,"name":"In Balance Physio and Pilates","geo":{"location":{"lat":-33.7997883,"lng":151.2868458},"viewport":{"northeast":{"lat":-33.7984292697085,"lng":151.2883663302915},"southwest":{"lat":-33.8011272302915,"lng":151.2856683697085}}}},{"place_id":"ChIJfXMtUWurEmsRV-IFML5RDnY","rating":5,"name":"React Physiotherapy & Rehabilitation","geo":{"location":{"lat":-33.8097311,"lng":151.298016},"viewport":{"northeast":{"lat":-33.8084973197085,"lng":151.2993928302915},"southwest":{"lat":-33.8111952802915,"lng":151.2966948697085}}}},{"place_id":"ChIJx5_nUGurEmsRFrQ30huw3oM","name":"Ora Studios: Pre and Post Natal Physiotherapy | Exercise | Yoga | Health","geo":{"location":{"lat":-33.8097268,"lng":151.2980208},"viewport":{"northeast":{"lat":-33.8084894197085,"lng":151.2994368302915},"southwest":{"lat":-33.8111873802915,"lng":151.2967388697085}}}},{"place_id":"ChIJC3zySgmrEmsRXqj_rCVK5fY","rating":4.8,"name":"MGS Physiotherapy","geo":{"location":{"lat":-33.7976279,"lng":151.2853007},"viewport":{"northeast":{"lat":-33.7962854197085,"lng":151.2866900302915},"southwest":{"lat":-33.7989833802915,"lng":151.2839920697085}}}},{"place_id":"ChIJbdS7kgirEmsRDeOAMwntk2U","rating":4.9,"name":"Bioathletic","geo":{"location":{"lat":-33.796811,"lng":151.283911},"viewport":{"northeast":{"lat":-33.7954014197085,"lng":151.2852740302915},"southwest":{"lat":-33.7980993802915,"lng":151.2825760697085}}}},{"place_id":"ChIJu30MrQirEmsR5ibLelz3pSc","rating":5,"name":"pH Clinic","geo":{"location":{"lat":-33.796628,"lng":151.285873},"viewport":{"northeast":{"lat":-33.7953919697085,"lng":151.2867961802915},"southwest":{"lat":-33.79808993029149,"lng":151.2840982197085}}}},{"place_id":"ChIJpdpL0BGrEmsRJmg-Zy139cY","name":"Women Worth their Weight","geo":{"location":{"lat":-33.7976091,"lng":151.2839178},"viewport":{"northeast":{"lat":-33.79626011970849,"lng":151.2852667802915},"southwest":{"lat":-33.79895808029149,"lng":151.2825688197085}}}},{"place_id":"ChIJS9CtigyrEmsRnxaG8c_Vow0","name":"Knee Pain Relief - Knee Pain Brace | Knee Pain Support | Knee Pain Guar","geo":{"location":{"lat":-33.8041974,"lng":151.2874686},"viewport":{"northeast":{"lat":-33.8027325197085,"lng":151.2887181802915},"southwest":{"lat":-33.8054304802915,"lng":151.2860202197085}}}},{"place_id":"ChIJPcbDVmurEmsReg4btrIJ1tg","name":"React Fit Club","geo":{"location":{"lat":-33.809812,"lng":151.297981},"viewport":{"northeast":{"lat":-33.8084522697085,"lng":151.2992437802915},"southwest":{"lat":-33.8111502302915,"lng":151.2965458197085}}}}],"fitness":[{"place_id":"ChIJVYfQ1girEmsRnzkqp9pGyL8","rating":5,"name":"Fight Gym","geo":{"location":{"lat":-33.7988893,"lng":151.2854383},"viewport":{"northeast":{"lat":-33.79758896970851,"lng":151.2864782802915},"southwest":{"lat":-33.80028693029151,"lng":151.2837803197085}}}},{"place_id":"ChIJsW7_bAarEmsRiavIhaPgg84","rating":4.7,"name":"Plus Fitness Manly Gym","geo":{"location":{"lat":-33.794508,"lng":151.285061},"viewport":{"northeast":{"lat":-33.7931756197085,"lng":151.2865155802915},"southwest":{"lat":-33.7958735802915,"lng":151.2838176197085}}}},{"place_id":"ChIJm6HuGQarEmsRltlmeSPo-58","rating":3.8,"name":"Anytime Fitness Manly","geo":{"location":{"lat":-33.7951859,"lng":151.2849952},"viewport":{"northeast":{"lat":-33.7938330197085,"lng":151.2864235802915},"southwest":{"lat":-33.7965309802915,"lng":151.2837256197085}}}},{"place_id":"ChIJCQ7nUw-rEmsRNI_qljEUfI0","rating":4.8,"name":"F45 Training Manly","geo":{"location":{"lat":-33.7965963,"lng":151.2863635},"viewport":{"northeast":{"lat":-33.7952616197085,"lng":151.2878136302915},"southwest":{"lat":-33.7979595802915,"lng":151.2851156697085}}}},{"place_id":"ChIJo4SK7wWrEmsRE4FCG6vEjHM","rating":4.2,"name":"Manly Beach Health Club","geo":{"location":{"lat":-33.7956706,"lng":151.2868653},"viewport":{"northeast":{"lat":-33.7943696197085,"lng":151.2882045802915},"southwest":{"lat":-33.7970675802915,"lng":151.2855066197085}}}},{"place_id":"ChIJXYR6QAGrEmsRg6L-TDaBjOg","rating":5,"name":"38X Fitness","geo":{"location":{"lat":-33.78939769999999,"lng":151.2846183},"viewport":{"northeast":{"lat":-33.78807026970851,"lng":151.2861234302915},"southwest":{"lat":-33.7907682302915,"lng":151.2834254697085}}}},{"place_id":"ChIJ52eNxgOrEmsRLyhw6V4u4Dg","rating":5,"name":"Pure Fitness Manly","geo":{"location":{"lat":-33.7950037,"lng":151.2876543},"viewport":{"northeast":{"lat":-33.7936815697085,"lng":151.2888368802915},"southwest":{"lat":-33.7963795302915,"lng":151.2861389197085}}}},{"place_id":"ChIJbdS7kgirEmsRDeOAMwntk2U","rating":4.9,"name":"Bioathletic","geo":{"location":{"lat":-33.796811,"lng":151.283911},"viewport":{"northeast":{"lat":-33.7954014197085,"lng":151.2852740302915},"southwest":{"lat":-33.7980993802915,"lng":151.2825760697085}}}},{"place_id":"ChIJ84JGOwmrEmsRDtEIes7f8aI","rating":5,"name":"Manly BJJ","geo":{"location":{"lat":-33.7990929,"lng":151.2851003},"viewport":{"northeast":{"lat":-33.7975815197085,"lng":151.2865066802915},"southwest":{"lat":-33.8002794802915,"lng":151.2838087197085}}}},{"place_id":"ChIJf-q2RQGrEmsRqb1T5v3f7ns","rating":5,"name":"Karmea Fitness","geo":{"location":{"lat":-33.80959199999999,"lng":151.298307},"viewport":{"northeast":{"lat":-33.80841346970849,"lng":151.2996855302915},"southwest":{"lat":-33.81111143029149,"lng":151.2969875697085}}}},{"place_id":"ChIJ14FEOQmrEmsRz38Q1aX4kHQ","rating":5,"name":"Xtend Barre Manly","geo":{"location":{"lat":-33.799431,"lng":151.285211},"viewport":{"northeast":{"lat":-33.7981696197085,"lng":151.2864868302915},"southwest":{"lat":-33.8008675802915,"lng":151.2837888697085}}}},{"place_id":"ChIJc5Kb2AmrEmsRGMWyjxAIxm0","rating":5,"name":"Manly Beach Running Club","geo":{"location":{"lat":-33.7980998,"lng":151.2802163},"viewport":{"northeast":{"lat":-33.7967508197085,"lng":151.2815652802915},"southwest":{"lat":-33.7994487802915,"lng":151.2788673197085}}}},{"place_id":"ChIJk4FO9AWrEmsRNu2PiK7q2Pk","rating":5,"name":"100Strong","geo":{"location":{"lat":-33.796246,"lng":151.287248},"viewport":{"northeast":{"lat":-33.79489701970849,"lng":151.2885969802915},"southwest":{"lat":-33.79759498029149,"lng":151.2858990197085}}}},{"place_id":"ChIJMSI7GwCrEmsR-PC0bVym3hA","rating":5,"name":"OzSquad","geo":{"location":{"lat":-33.79005,"lng":151.287147},"viewport":{"northeast":{"lat":-33.7886988697085,"lng":151.2884149302915},"southwest":{"lat":-33.7913968302915,"lng":151.2857169697085}}}},{"place_id":"ChIJ-W8zNwmrEmsRxlCysNyHq1A","rating":5,"name":"The Healthy Mummy","geo":{"location":{"lat":-33.7994919,"lng":151.2854185},"viewport":{"northeast":{"lat":-33.7981429197085,"lng":151.2867674802915},"southwest":{"lat":-33.8008408802915,"lng":151.2840695197085}}}},{"place_id":"ChIJowHREgarEmsRw1-pb7qjXqM","rating":5,"name":"Manly Yoga & Meditation Centre","geo":{"location":{"lat":-33.7883694,"lng":151.2849828},"viewport":{"northeast":{"lat":-33.78704731970851,"lng":151.2861624802915},"southwest":{"lat":-33.78974528029151,"lng":151.2834645197085}}}},{"place_id":"ChIJoZalyQWrEmsRs3bfgH9XSA8","name":"Pure Fitness Manly Beach Training","geo":{"location":{"lat":-33.7943238,"lng":151.2873361},"viewport":{"northeast":{"lat":-33.7929748197085,"lng":151.2886850802915},"southwest":{"lat":-33.7956727802915,"lng":151.2859871197085}}}},{"place_id":"ChIJGa-0fA-rEmsRiXKNvxmQnFM","name":"Battle at the Beaches","geo":{"location":{"lat":-33.79669619999999,"lng":151.2876022},"viewport":{"northeast":{"lat":-33.7953128197085,"lng":151.2890810302915},"southwest":{"lat":-33.79801078029149,"lng":151.2863830697085}}}},{"place_id":"ChIJ3wMiKw-rEmsRuhhmXN7MhLI","name":"flow mOcean","geo":{"location":{"lat":-33.7985209,"lng":151.2861202},"viewport":{"northeast":{"lat":-33.79750361970851,"lng":151.2870138},"southwest":{"lat":-33.80020158029151,"lng":151.2834394}}}},{"place_id":"ChIJrTL92QirEmsRF8tmKBdq5JA","rating":3.7,"name":"Qi Health & Yoga","geo":{"location":{"lat":-33.798313,"lng":151.285465},"viewport":{"northeast":{"lat":-33.7970552197085,"lng":151.2868921802915},"southwest":{"lat":-33.7997531802915,"lng":151.2841942197085}}}},{"place_id":"ChIJKfMEngGrEmsRuUctt8V5kbw","rating":5,"name":"The Yoga Space","geo":{"location":{"lat":-33.7881235,"lng":151.284901},"viewport":{"northeast":{"lat":-33.7867994697085,"lng":151.2860928302915},"southwest":{"lat":-33.7894974302915,"lng":151.2833948697085}}}},{"place_id":"ChIJ6ZLfww6rEmsRdFzRJ3XzrgQ","rating":5,"name":"In Balance Physio and Pilates","geo":{"location":{"lat":-33.7997883,"lng":151.2868458},"viewport":{"northeast":{"lat":-33.7984292697085,"lng":151.2883663302915},"southwest":{"lat":-33.8011272302915,"lng":151.2856683697085}}}},{"place_id":"ChIJaS61JAmrEmsRZGSFHWCPdbM","rating":5,"name":"Manly Brazilia Jiu-jitsu","geo":{"location":{"lat":-33.7990618,"lng":151.2850193},"viewport":{"northeast":{"lat":-33.79756396970849,"lng":151.2864604802915},"southwest":{"lat":-33.80026193029149,"lng":151.2837625197085}}}},{"place_id":"ChIJ3UysDwarEmsR4_gjn7Dc8UA","name":"Manly Rush","geo":{"location":{"lat":-33.795184,"lng":151.28545},"viewport":{"northeast":{"lat":-33.7938470197085,"lng":151.2866504302915},"southwest":{"lat":-33.7965449802915,"lng":151.2839524697085}}}},{"place_id":"ChIJDcKun2yrEmsR_LwijX08eU8","rating":5,"name":"Strider 10k North Head","geo":{"location":{"lat":-33.8106899,"lng":151.2975393},"viewport":{"northeast":{"lat":-33.80931561970849,"lng":151.2991041802915},"southwest":{"lat":-33.81201358029149,"lng":151.2964062197085}}}},{"place_id":"ChIJC3zySgmrEmsRXqj_rCVK5fY","rating":4.8,"name":"MGS Physiotherapy","geo":{"location":{"lat":-33.7976279,"lng":151.2853007},"viewport":{"northeast":{"lat":-33.7962854197085,"lng":151.2866900302915},"southwest":{"lat":-33.7989833802915,"lng":151.2839920697085}}}},{"place_id":"ChIJ35-YDqOrEmsRrbI_nRdRxyY","rating":1,"name":"Super Mario Surf Ski","geo":{"location":{"lat":-33.7990581,"lng":151.2709979},"viewport":{"northeast":{"lat":-33.7977091197085,"lng":151.2723468802915},"southwest":{"lat":-33.8004070802915,"lng":151.2696489197085}}}},{"place_id":"ChIJVwIIbQarEmsR2eC1A_Xx3RI","rating":5,"name":"Dynamic Pilates Manly","geo":{"location":{"lat":-33.79444550000001,"lng":151.2851048},"viewport":{"northeast":{"lat":-33.7930620697085,"lng":151.2864591302915},"southwest":{"lat":-33.7957600302915,"lng":151.2837611697085}}}},{"place_id":"ChIJkR8NSQ-rEmsRSHD9m0ne5wQ","rating":4.8,"name":"Power Living Australia Yoga - Manly","geo":{"location":{"lat":-33.7973092,"lng":151.286529},"viewport":{"northeast":{"lat":-33.79573256970851,"lng":151.28729005},"southwest":{"lat":-33.7984305302915,"lng":151.28424585}}}}],"doctors":[{"place_id":"ChIJzcbeAwarEmsRM4tVjkEd4Ls","rating":5,"name":"Raglan Street Family Medical Centre - Dr. Ly Lin","geo":{"location":{"lat":-33.79572539999999,"lng":151.2855067},"viewport":{"northeast":{"lat":-33.7944177697085,"lng":151.2867212302915},"southwest":{"lat":-33.7971157302915,"lng":151.2840232697085}}}},{"place_id":"ChIJk881NQmrEmsR6VtIAtfBy9M","rating":2,"name":"Dr Bannister Mike","geo":{"location":{"lat":-33.799867,"lng":151.286011},"viewport":{"northeast":{"lat":-33.7986239697085,"lng":151.2872481802915},"southwest":{"lat":-33.8013219302915,"lng":151.2845502197085}}}},{"place_id":"ChIJe66iUqarEmsRypYTrk7_OK4","rating":5,"name":"Williams Gavin DR","geo":{"location":{"lat":-33.79584,"lng":151.277195},"viewport":{"northeast":{"lat":-33.7945571197085,"lng":151.2785363302915},"southwest":{"lat":-33.79725508029149,"lng":151.2758383697085}}}},{"place_id":"ChIJu30MrQirEmsRfKoK1Z-3pK0","name":"Dr Hon Chan","geo":{"location":{"lat":-33.79661230000001,"lng":151.2858617},"viewport":{"northeast":{"lat":-33.7952633197085,"lng":151.2872106802915},"southwest":{"lat":-33.7979612802915,"lng":151.2845127197085}}}},{"place_id":"ChIJWeXzEA-rEmsR44oNTleSrfw","name":"Dr Efstathios","geo":{"location":{"lat":-33.79838890000001,"lng":151.2879744},"viewport":{"northeast":{"lat":-33.7970754197085,"lng":151.2893511302915},"southwest":{"lat":-33.7997733802915,"lng":151.2866531697085}}}},{"place_id":"ChIJyXFfwQ6rEmsRZI9SxG07XH8","name":"Dr Paul Fowler","geo":{"location":{"lat":-33.799788,"lng":151.286846},"viewport":{"northeast":{"lat":-33.7984143697085,"lng":151.2883574302915},"southwest":{"lat":-33.8011123302915,"lng":151.2856594697085}}}},{"place_id":"ChIJcS1qxA6rEmsRCesDgrm6Mhg","name":"Dr Kate Hale","geo":{"location":{"lat":-33.7997883,"lng":151.2868458},"viewport":{"northeast":{"lat":-33.7984100197085,"lng":151.2883535802915},"southwest":{"lat":-33.8011079802915,"lng":151.2856556197085}}}},{"place_id":"ChIJu_hxfvKuEmsRjPGzJTY81nQ","rating":1,"name":"Dr Warwick Harper","geo":{"location":{"lat":-33.797253,"lng":151.28413},"viewport":{"northeast":{"lat":-33.7959207197085,"lng":151.2855843302915},"southwest":{"lat":-33.7986186802915,"lng":151.2828863697085}}}},{"place_id":"ChIJUdrOww6rEmsRjyfWY7LrDPs","rating":5,"name":"Dr James Ferry","geo":{"location":{"lat":-33.7997883,"lng":151.2868458},"viewport":{"northeast":{"lat":-33.7983676697085,"lng":151.2883174802915},"southwest":{"lat":-33.8010656302915,"lng":151.2856195197085}}}},{"place_id":"ChIJ3wMiKw-rEmsRexvzNGGISCQ","name":"Dr Nigel Ackroyd Vascular & Endovascular Surgeon","geo":{"location":{"lat":-33.79985120000001,"lng":151.2860761},"viewport":{"northeast":{"lat":-33.79842301970851,"lng":151.2873546302915},"southwest":{"lat":-33.8011209802915,"lng":151.2846566697085}}}},{"place_id":"ChIJfaDOww6rEmsRtWJG1jOF7DA","name":"Dr Sarah Woodbury","geo":{"location":{"lat":-33.7997883,"lng":151.2868458},"viewport":{"northeast":{"lat":-33.7984393197085,"lng":151.2881947802915},"southwest":{"lat":-33.8011372802915,"lng":151.2854968197085}}}},{"place_id":"ChIJWeXzEA-rEmsRvbXoHNZtuo4","name":"Dr.Jonathan Page","geo":{"location":{"lat":-33.7982431,"lng":151.2876889},"viewport":{"northeast":{"lat":-33.7970350697085,"lng":151.2891480802915},"southwest":{"lat":-33.7997330302915,"lng":151.2864501197085}}}},{"place_id":"ChIJLzxVrwirEmsRnJ6qWlpkqD0","rating":3,"name":"Dr Gabrielle Howard","geo":{"location":{"lat":-33.796349,"lng":151.28542},"viewport":{"northeast":{"lat":-33.7949791197085,"lng":151.2866313802915},"southwest":{"lat":-33.7976770802915,"lng":151.2839334197085}}}},{"place_id":"ChIJyXFfwQ6rEmsRrwp6sPI9Sa0","name":"DR RICHARD JANUSIC DR ELIZABETH GLUHIN","geo":{"location":{"lat":-33.7997883,"lng":151.2868458},"viewport":{"northeast":{"lat":-33.7983569197085,"lng":151.2883095802915},"southwest":{"lat":-33.8010548802915,"lng":151.2856116197085}}}},{"place_id":"ChIJXT8EIg-rEmsRAH-jUj1vMFo","rating":3.8,"name":"Manly Medical Centre","geo":{"location":{"lat":-33.7989666,"lng":151.2890434},"viewport":{"northeast":{"lat":-33.79758246970849,"lng":151.2904617802915},"southwest":{"lat":-33.80028043029149,"lng":151.2877638197085}}}},{"place_id":"ChIJJxNPuAirEmsR_Up5WiY-dzA","name":"Dr Alan Marel","geo":{"location":{"lat":-33.797058,"lng":151.28518},"viewport":{"northeast":{"lat":-33.7956931697085,"lng":151.2864289802915},"southwest":{"lat":-33.7983911302915,"lng":151.2837310197085}}}},{"place_id":"ChIJe66iUqarEmsRACd5U20tmM0","rating":4.1,"name":"Myora Medical General Practice PTY LTD","geo":{"location":{"lat":-33.7958423,"lng":151.2772017},"viewport":{"northeast":{"lat":-33.7945585197085,"lng":151.2785431302915},"southwest":{"lat":-33.79725648029149,"lng":151.2758451697085}}}},{"place_id":"ChIJk881NQmrEmsR5EzeAJJooUk","name":"North Shore Dermatology","geo":{"location":{"lat":-33.799867,"lng":151.286011},"viewport":{"northeast":{"lat":-33.7985180197085,"lng":151.2873599802915},"southwest":{"lat":-33.8012159802915,"lng":151.2846620197085}}}},{"place_id":"ChIJnaKQMQ-rEmsRU-2f9ei1gZY","name":"Vickers C R","geo":{"location":{"lat":-33.7980291,"lng":151.2864577},"viewport":{"northeast":{"lat":-33.7966819697085,"lng":151.2878082802915},"southwest":{"lat":-33.7993799302915,"lng":151.2851103197085}}}},{"place_id":"ChIJVVVVVQirEmsRbWT6Po8EvAk","rating":5,"name":"Nihad Jackson","geo":{"location":{"lat":-33.7969047,"lng":151.2842017},"viewport":{"northeast":{"lat":-33.7954720197085,"lng":151.2855693802915},"southwest":{"lat":-33.7981699802915,"lng":151.2828714197085}}}},{"place_id":"ChIJPZtZHw-rEmsRAp5Ntatea0c","name":"Brandson A S","geo":{"location":{"lat":-33.79923300000001,"lng":151.286559},"viewport":{"northeast":{"lat":-33.7978840197085,"lng":151.2879079802915},"southwest":{"lat":-33.8005819802915,"lng":151.2852100197085}}}},{"place_id":"ChIJLzxVrwirEmsRE4YJsMPguxc","rating":3.9,"name":"Alternative Foot Solutions","geo":{"location":{"lat":-33.796349,"lng":151.28542},"viewport":{"northeast":{"lat":-33.7949699697085,"lng":151.2866330802915},"southwest":{"lat":-33.7976679302915,"lng":151.2839351197085}}}},{"place_id":"ChIJk881NQmrEmsRBSkRvEJoF80","name":". Freny Kalapesi -","geo":{"location":{"lat":-33.799867,"lng":151.286011},"viewport":{"northeast":{"lat":-33.7986239697085,"lng":151.2872481802915},"southwest":{"lat":-33.8013219302915,"lng":151.2845502197085}}}},{"place_id":"ChIJ2w9rxA6rEmsRwqFOYl6lgoI","rating":4,"name":"Genea | Manly, Northern Beaches | IVF & Fertility Clinic","geo":{"location":{"lat":-33.79976990000001,"lng":151.2868666},"viewport":{"northeast":{"lat":-33.7984076697085,"lng":151.2883677802915},"southwest":{"lat":-33.8011056302915,"lng":151.2856698197085}}}},{"place_id":"ChIJyXFfwQ6rEmsR4weFnwtKBh8","name":"Kennedy Michael","geo":{"location":{"lat":-33.7997883,"lng":151.2868458},"viewport":{"northeast":{"lat":-33.79841451970849,"lng":151.2883573302915},"southwest":{"lat":-33.80111248029149,"lng":151.2856593697085}}}},{"place_id":"ChIJvasnog6rEmsRzn1i8Bp0LbY","name":"Eaton Warwick R","geo":{"location":{"lat":-33.801248,"lng":151.287362},"viewport":{"northeast":{"lat":-33.7999865197085,"lng":151.2887817802915},"southwest":{"lat":-33.8026844802915,"lng":151.2860838197085}}}},{"place_id":"ChIJLzxVrwirEmsR7AzjOMJfZd4","name":"Sydney Insulin Pump Clinic","geo":{"location":{"lat":-33.796349,"lng":151.28542},"viewport":{"northeast":{"lat":-33.7949791197085,"lng":151.2866313802915},"southwest":{"lat":-33.7976770802915,"lng":151.2839334197085}}}},{"place_id":"ChIJYZ6h7girEmsRlRd8zqQlLbI","name":"Peninsula Plastic Surgery","geo":{"location":{"lat":-33.7972058,"lng":151.2841628},"viewport":{"northeast":{"lat":-33.7958568197085,"lng":151.2855117802915},"southwest":{"lat":-33.7985547802915,"lng":151.2828138197085}}}},{"place_id":"ChIJvasnog6rEmsRc_ecT8JDISw","name":"Howell Lesley K V","geo":{"location":{"lat":-33.801248,"lng":151.287362},"viewport":{"northeast":{"lat":-33.7999865197085,"lng":151.2887817802915},"southwest":{"lat":-33.8026844802915,"lng":151.2860838197085}}}},{"place_id":"ChIJvYkWPAmrEmsRpKBbeWGWARs","name":"Peter Heyworth & Associates","geo":{"location":{"lat":-33.797138,"lng":151.28804},"viewport":{"northeast":{"lat":-33.7957890197085,"lng":151.2893889802915},"southwest":{"lat":-33.79848698029149,"lng":151.2866910197085}}}},{"place_id":"ChIJR2-_CgGrEmsRwKRgiIqgTAk","name":"Manly Foot Clinic","geo":{"location":{"lat":-33.7881367,"lng":151.2843791},"viewport":{"northeast":{"lat":-33.7867724697085,"lng":151.2858241802915},"southwest":{"lat":-33.7894704302915,"lng":151.2831262197085}}}},{"place_id":"ChIJRdjYtA6rEmsRFhojEcJxiR8","name":"Manly Cove Podiatry","geo":{"location":{"lat":-33.8001599,"lng":151.286481},"viewport":{"northeast":{"lat":-33.7988431197085,"lng":151.2875661302915},"southwest":{"lat":-33.80154108029149,"lng":151.2848681697085}}}},{"place_id":"ChIJiyK3RoSqEmsRFGXmti3bJdE","name":"Plastic Surgery Cosmetic Surgery","geo":{"location":{"lat":-33.7985209,"lng":151.2861201},"viewport":{"northeast":{"lat":-33.7971719197085,"lng":151.2874690802915},"southwest":{"lat":-33.7998698802915,"lng":151.2847711197085}}}},{"place_id":"ChIJ500aPA-rEmsRuSTpjwg0nfI","name":"Carpenter Scott","geo":{"location":{"lat":-33.798042,"lng":151.287184},"viewport":{"northeast":{"lat":-33.7965332697085,"lng":151.2883925302915},"southwest":{"lat":-33.7992312302915,"lng":151.2856945697085}}}}],"pharmacy":[{"place_id":"ChIJ2VhOLgmrEmsR1MMgWhWmsDQ","rating":4.5,"name":"Priceline Pharmacy Manly","geo":{"location":{"lat":-33.798829,"lng":151.2853855},"viewport":{"northeast":{"lat":-33.7974449197085,"lng":151.2866872302915},"southwest":{"lat":-33.8001428802915,"lng":151.2839892697085}}}},{"place_id":"ChIJn7KNdCiItAERKmc5xaXblbs","rating":4.7,"name":"Malouf Manly Pharmacy","geo":{"location":{"lat":-33.79806099999999,"lng":151.286586},"viewport":{"northeast":{"lat":-33.79666441970849,"lng":151.2878931302915},"southwest":{"lat":-33.79936238029148,"lng":151.2851951697085}}}},{"place_id":"ChIJOTH3KwmrEmsRkrHSL2iv3hc","name":"The Corso Pharmacy","geo":{"location":{"lat":-33.7988905,"lng":151.2854343},"viewport":{"northeast":{"lat":-33.7974756697085,"lng":151.2867116302915},"southwest":{"lat":-33.8001736302915,"lng":151.2840136697085}}}},{"place_id":"ChIJcbFqUqarEmsRJ3-W7uocGr0","rating":4.7,"name":"Fairlight Pharmacy","geo":{"location":{"lat":-33.7957578,"lng":151.2770278},"viewport":{"northeast":{"lat":-33.7945096197085,"lng":151.2783666802915},"southwest":{"lat":-33.7972075802915,"lng":151.2756687197085}}}},{"place_id":"ChIJUe-VDAGrEmsRgaFZCvntxWk","rating":4,"name":"Pittwater Rd Pharmacy","geo":{"location":{"lat":-33.7884031,"lng":151.2845227},"viewport":{"northeast":{"lat":-33.7870765197085,"lng":151.2858387802915},"southwest":{"lat":-33.7897744802915,"lng":151.2831408197085}}}},{"place_id":"ChIJ500aPA-rEmsRW0dYv-Kpv2A","rating":3,"name":"Summer Pharmacy","geo":{"location":{"lat":-33.798042,"lng":151.287184},"viewport":{"northeast":{"lat":-33.7965332697085,"lng":151.2883925302915},"southwest":{"lat":-33.7992312302915,"lng":151.2856945697085}}}},{"place_id":"ChIJE4hf0girEmsRnMPPpjo6sMw","rating":3,"name":"Chemist Warehouse Manly Beach","geo":{"location":{"lat":-33.7980703,"lng":151.2858474},"viewport":{"northeast":{"lat":-33.79681686970849,"lng":151.2872803802915},"southwest":{"lat":-33.79951483029149,"lng":151.2845824197085}}}}],"meal_takeaway":[{"place_id":"ChIJ67yuSA-rEmsRswlmfmyWKMc","rating":4.3,"name":"Benbry Burgers","geo":{"location":{"lat":-33.7972007,"lng":151.2867147},"viewport":{"northeast":{"lat":-33.7956783197085,"lng":151.2875686},"southwest":{"lat":-33.79837628029149,"lng":151.284153}}}},{"place_id":"ChIJUdrOww6rEmsRn5UYhMMFKw8","rating":3.9,"name":"Beaches Pizza Bar","geo":{"location":{"lat":-33.799809,"lng":151.287048},"viewport":{"northeast":{"lat":-33.79845236970851,"lng":151.2884770302915},"southwest":{"lat":-33.80115033029151,"lng":151.2857790697085}}}},{"place_id":"ChIJN73E9AWrEmsRsvSKgzDCh8M","rating":4,"name":"Pizza Capanna","geo":{"location":{"lat":-33.7960739,"lng":151.2873876},"viewport":{"northeast":{"lat":-33.7946953197085,"lng":151.2888577802915},"southwest":{"lat":-33.7973932802915,"lng":151.2861598197085}}}},{"place_id":"ChIJByMEEAmrEmsR2afV4UfJb24","rating":3.1,"name":"Criniti's Manly","geo":{"location":{"lat":-33.7989709,"lng":151.2843251},"viewport":{"northeast":{"lat":-33.7976867697085,"lng":151.2856324302915},"southwest":{"lat":-33.8003847302915,"lng":151.2829344697085}}}},{"place_id":"ChIJmWtC1QirEmsRVXlBwIyeDgk","rating":3.3,"name":"Mortar & Pestle Thai","geo":{"location":{"lat":-33.798793,"lng":151.286183},"viewport":{"northeast":{"lat":-33.7973902697085,"lng":151.2875889802915},"southwest":{"lat":-33.8000882302915,"lng":151.2848910197085}}}},{"place_id":"ChIJC3kMdgGrEmsRwL3KnGDfvSo","rating":3.7,"name":"Ironbark Woodfired Pizza Restaurant & Cafe","geo":{"location":{"lat":-33.78833300000001,"lng":151.284793},"viewport":{"northeast":{"lat":-33.7869544697085,"lng":151.2860517802915},"southwest":{"lat":-33.7896524302915,"lng":151.2833538197085}}}},{"place_id":"ChIJ70rJRwGrEmsRWW5tQmnSabo","rating":4.1,"name":"Thup Tim Siam Restaurant","geo":{"location":{"lat":-33.7899632,"lng":151.284907},"viewport":{"northeast":{"lat":-33.7885917697085,"lng":151.2863195302915},"southwest":{"lat":-33.79128973029149,"lng":151.2836215697085}}}},{"place_id":"ChIJCecqXQ-rEmsREFFrtqrjbBs","rating":4,"name":"Ashiana Indian Restaurant","geo":{"location":{"lat":-33.797079,"lng":151.287321},"viewport":{"northeast":{"lat":-33.7957215197085,"lng":151.2887230802915},"southwest":{"lat":-33.79841948029149,"lng":151.2860251197085}}}},{"place_id":"ChIJlTVbtAirEmsR9szY1zC6BRw","rating":4,"name":"Domino's Pizza Manly","geo":{"location":{"lat":-33.79713,"lng":151.285801},"viewport":{"northeast":{"lat":-33.7956429697085,"lng":151.2867529302915},"southwest":{"lat":-33.79834093029149,"lng":151.2840549697085}}}},{"place_id":"ChIJh_zWFAmrEmsRJWCrbqkvQxU","rating":3.1,"name":"McDonald's Manly Wharf","geo":{"location":{"lat":-33.79964219999999,"lng":151.2844054},"viewport":{"northeast":{"lat":-33.7981603697085,"lng":151.2859180302915},"southwest":{"lat":-33.80085833029149,"lng":151.2832200697085}}}},{"place_id":"ChIJzw_HXA-rEmsRX5fpvUcQrjQ","rating":4.5,"name":"Manly Thai Gourmet","geo":{"location":{"lat":-33.7968961,"lng":151.2872378},"viewport":{"northeast":{"lat":-33.7956042197085,"lng":151.2886682802915},"southwest":{"lat":-33.7983021802915,"lng":151.2859703197085}}}},{"place_id":"ChIJudeRqAirEmsRTDyEWUqsu5M","rating":4.3,"name":"Jerry's Pizza Pasta Restaurant","geo":{"location":{"lat":-33.79608270000001,"lng":151.2853461},"viewport":{"northeast":{"lat":-33.7947132197085,"lng":151.2866191302915},"southwest":{"lat":-33.7974111802915,"lng":151.2839211697085}}}},{"place_id":"ChIJQf-RUKarEmsRbwIYNJYrPX0","rating":4.4,"name":"The Butchers Cafe","geo":{"location":{"lat":-33.795822,"lng":151.276509},"viewport":{"northeast":{"lat":-33.79452411970851,"lng":151.2778528802915},"southwest":{"lat":-33.7972220802915,"lng":151.2751549197085}}}},{"place_id":"ChIJkyhybQ-rEmsRTlucbPRxNpg","name":"Si-am Bay Thai","geo":{"location":{"lat":-33.797807,"lng":151.288148},"viewport":{"northeast":{"lat":-33.79640071970849,"lng":151.2896300802915},"southwest":{"lat":-33.79909868029149,"lng":151.2869321197085}}}},{"place_id":"ChIJ2e7Lbw-rEmsRZbqDp1wapcI","rating":3.7,"name":"Manly Ocean Foods","geo":{"location":{"lat":-33.79734689999999,"lng":151.2879342},"viewport":{"northeast":{"lat":-33.7959120197085,"lng":151.2892112302915},"southwest":{"lat":-33.79860998029149,"lng":151.2865132697085}}}},{"place_id":"ChIJD99ePg-rEmsRfUE__yXAYV0","name":"Fruit Frenzy","geo":{"location":{"lat":-33.797949,"lng":151.287318},"viewport":{"northeast":{"lat":-33.7964452697085,"lng":151.2885263802915},"southwest":{"lat":-33.7991432302915,"lng":151.2858284197085}}}},{"place_id":"ChIJo3LSQg-rEmsRB3nw9mmCNxs","rating":3.7,"name":"E-do Japanese and Korean","geo":{"location":{"lat":-33.797079,"lng":151.287321},"viewport":{"northeast":{"lat":-33.7957205697085,"lng":151.2887228802915},"southwest":{"lat":-33.7984185302915,"lng":151.2860249197085}}}},{"place_id":"ChIJcWOEPAmrEmsRkpucOVeukOw","name":"Nonna's Pasta & Salad Bar","geo":{"location":{"lat":-33.798378,"lng":151.286573},"viewport":{"northeast":{"lat":-33.7968806697085,"lng":151.2877915302915},"southwest":{"lat":-33.79957863029149,"lng":151.2850935697085}}}},{"place_id":"ChIJmdlAlQ6rEmsRoGDzyQ6lMYk","rating":5,"name":"Yupin's Thai","geo":{"location":{"lat":-33.80047100000001,"lng":151.287511},"viewport":{"northeast":{"lat":-33.7990704197085,"lng":151.2889496802915},"southwest":{"lat":-33.8017683802915,"lng":151.2862517197085}}}}],"library":[{"place_id":"ChIJ9xolywirEmsRfX3Ip2j0Pkc","rating":4.5,"name":"Manly Library","geo":{"location":{"lat":-33.79752800000001,"lng":151.2860829},"viewport":{"northeast":{"lat":-33.7962766697085,"lng":151.2874531302915},"southwest":{"lat":-33.7989746302915,"lng":151.2847551697085}}}}],"train_station":[],"gas_station":[{"place_id":"ChIJ3whOpAGrEmsRcrj1-VfBjzw","rating":4.5,"name":"Westside Petroleum","geo":{"location":{"lat":-33.78750129999999,"lng":151.2841666},"viewport":{"northeast":{"lat":-33.7860738197085,"lng":151.2855259802915},"southwest":{"lat":-33.7887717802915,"lng":151.2828280197085}}}},{"place_id":"ChIJEfdjSQGrEmsRM2f5GoQo-Io","rating":3.7,"name":"BP Manly","geo":{"location":{"lat":-33.7902786,"lng":151.2849318},"viewport":{"northeast":{"lat":-33.7889490697085,"lng":151.2863730802915},"southwest":{"lat":-33.7916470302915,"lng":151.2836751197085}}}},{"place_id":"ChIJz8wFggarEmsRDkg3IofsqYg","name":"Caltex Star Mart Manly","geo":{"location":{"lat":-33.7930688,"lng":151.285802},"viewport":{"northeast":{"lat":-33.7917070697085,"lng":151.2870488302915},"southwest":{"lat":-33.7944050302915,"lng":151.2843508697085}}}},{"place_id":"ChIJz8wFggarEmsRpuzHMHFiUFw","rating":3.8,"name":"Caltex Star Mart","geo":{"location":{"lat":-33.7930745,"lng":151.2858023},"viewport":{"northeast":{"lat":-33.7917126697085,"lng":151.2870484802915},"southwest":{"lat":-33.7944106302915,"lng":151.2843505197085}}}},{"place_id":"ChIJjV4AsqerEmsRbqF3m_SQXQs","rating":3,"name":"Avo's Auto Repairs","geo":{"location":{"lat":-33.795785,"lng":151.277687},"viewport":{"northeast":{"lat":-33.7945362197085,"lng":151.2790330802915},"southwest":{"lat":-33.7972341802915,"lng":151.2763351197085}}}}],"university":[{"place_id":"ChIJ7wNjkGyrEmsRI3hrbun71kc","name":"Australian Institute of Police Management","geo":{"location":{"lat":-33.809573,"lng":151.2905152},"viewport":{"northeast":{"lat":-33.8080612697085,"lng":151.2923578302915},"southwest":{"lat":-33.81075923029149,"lng":151.2896598697085}}}}],"alcohol":[{"place_id":"ChIJI9Bw1QirEmsRhpZU9wflW8g","rating":3.6,"name":"LiquorLand Manly Express","geo":{"location":{"lat":-33.7985953,"lng":151.2858057},"viewport":{"northeast":{"lat":-33.7971770197085,"lng":151.2870952802915},"southwest":{"lat":-33.79987498029149,"lng":151.2843973197085}}}},{"place_id":"ChIJC_X5Sg-rEmsRpofDfkLWouw","rating":4,"name":"LiquorLand Manly Sydney Rd Express","geo":{"location":{"lat":-33.7971687,"lng":151.2862767},"viewport":{"northeast":{"lat":-33.7956623197085,"lng":151.2869907802915},"southwest":{"lat":-33.7983602802915,"lng":151.2842928197085}}}},{"place_id":"ChIJZfG9nwGrEmsR5wRpY6chggw","rating":4.1,"name":"Manly Littler Bottler","geo":{"location":{"lat":-33.7879793,"lng":151.2847094},"viewport":{"northeast":{"lat":-33.7866431697085,"lng":151.2859776802915},"southwest":{"lat":-33.7893411302915,"lng":151.2832797197085}}}},{"place_id":"ChIJqVmaQQmrEmsRZbcF2PKa9bk","rating":4.1,"name":"ALDI","geo":{"location":{"lat":-33.7997816,"lng":151.2845297},"viewport":{"northeast":{"lat":-33.7982207197085,"lng":151.2859650802915},"southwest":{"lat":-33.8009186802915,"lng":151.2832671197085}}}},{"place_id":"ChIJpU9SUKarEmsRky0cKY2jgzA","rating":3.5,"name":"Fairlight Cellars","geo":{"location":{"lat":-33.7957772,"lng":151.2767563},"viewport":{"northeast":{"lat":-33.7945100697085,"lng":151.2780970802915},"southwest":{"lat":-33.7972080302915,"lng":151.2753991197085}}}},{"place_id":"ChIJjTRMzQirEmsRM8KFSAmVvAY","rating":3.8,"name":"The Ivanhoe Hotel Manly","geo":{"location":{"lat":-33.7979838,"lng":151.2860124},"viewport":{"northeast":{"lat":-33.7967259197085,"lng":151.2874414802915},"southwest":{"lat":-33.7994238802915,"lng":151.2847435197085}}}},{"place_id":"ChIJ5_rQOQmrEmsRSAe4RJKUwh0","rating":4.5,"name":"4 Pines Brewing Company","geo":{"location":{"lat":-33.7994919,"lng":151.2854185},"viewport":{"northeast":{"lat":-33.7982426697085,"lng":151.2866567802915},"southwest":{"lat":-33.8009406302915,"lng":151.2839588197085}}}},{"place_id":"ChIJ5VOMTA-rEmsRBHEMZ04pASc","name":"Angus The Bull","geo":{"location":{"lat":-33.7970478,"lng":151.2861799},"viewport":{"northeast":{"lat":-33.7956018697085,"lng":151.2869423802915},"southwest":{"lat":-33.7982998302915,"lng":151.2842444197085}}}}],"mcd":[{"place_id":"ChIJh_zWFAmrEmsRJWCrbqkvQxU","rating":3.1,"name":"McDonald's Manly Wharf","geo":{"location":{"lat":-33.79964219999999,"lng":151.2844054},"viewport":{"northeast":{"lat":-33.7981603697085,"lng":151.2859180302915},"southwest":{"lat":-33.80085833029149,"lng":151.2832200697085}}}},{"place_id":"ChIJD99ePg-rEmsR66R7Dqdf93I","rating":3.6,"name":"Hungry Jack's","geo":{"location":{"lat":-33.797949,"lng":151.287318},"viewport":{"northeast":{"lat":-33.7964452697085,"lng":151.2885263802915},"southwest":{"lat":-33.7991432302915,"lng":151.2858284197085}}}}],"kfc":[{"place_id":"ChIJ6wjJPQmrEmsR9pLzCiyu-2Y","rating":2.2,"name":"KFC Manly","geo":{"location":{"lat":-33.79925899999999,"lng":151.2848531},"viewport":{"northeast":{"lat":-33.7979851197085,"lng":151.2861397302915},"southwest":{"lat":-33.8006830802915,"lng":151.2834417697085}}}},{"place_id":"ChIJdQpyPAmrEmsRTIukq86Uy5Q","rating":5,"name":"KFC Manly Corso","geo":{"location":{"lat":-33.7992552,"lng":151.2848917},"viewport":{"northeast":{"lat":-33.7979837197085,"lng":151.2861705302915},"southwest":{"lat":-33.8006816802915,"lng":151.2834725697085}}}}],"parks":[{"place_id":"ChIJFXeQegirEmsRUOPy-Wh9AQ8","rating":4.2,"name":"Ivanhoe Park","geo":{"location":{"lat":-33.796354,"lng":151.2819528},"viewport":{"northeast":{"lat":-33.79396550000001,"lng":151.2870972},"southwest":{"lat":-33.7976343,"lng":151.2789176}}}},{"place_id":"ChIJLTOxdnOrEmsRjB6_y-F_Gn8","rating":4.4,"name":"Little Manly Point Park","geo":{"location":{"lat":-33.8087734,"lng":151.2873475},"viewport":{"northeast":{"lat":-33.8070059197085,"lng":151.2894448},"southwest":{"lat":-33.8097038802915,"lng":151.2866484}}}},{"place_id":"ChIJu6r64AirEmsRPma4XXLR_Eo","rating":3.9,"name":"Gilbert Park","geo":{"location":{"lat":-33.7980755,"lng":151.2844359},"viewport":{"northeast":{"lat":-33.7967050697085,"lng":151.2856513302915},"southwest":{"lat":-33.7994030302915,"lng":151.2829533697085}}}},{"place_id":"ChIJpRU4EqmrEmsR3u5AONd-PG4","rating":3,"name":"Dog park","geo":{"location":{"lat":-33.7900881,"lng":151.2764235},"viewport":{"northeast":{"lat":-33.7887391197085,"lng":151.2777724802915},"southwest":{"lat":-33.7914370802915,"lng":151.2750745197085}}}},{"place_id":"ChIJpcG8VXSrEmsRJqVMg5CmD2k","rating":5,"name":"Manly Peace Park","geo":{"location":{"lat":-33.8083374,"lng":151.2833479},"viewport":{"northeast":{"lat":-33.8069801697085,"lng":151.2846903302915},"southwest":{"lat":-33.80967813029149,"lng":151.2819923697085}}}},{"place_id":"ChIJXescIf6qEmsRoLTx-Wh9AQ8","rating":4.4,"name":"Lagoon Reserve, Queenscliff","geo":{"location":{"lat":-33.78513700000001,"lng":151.2846244},"viewport":{"northeast":{"lat":-33.7839523197085,"lng":151.2901488},"southwest":{"lat":-33.7866502802915,"lng":151.2781296}}}}],"schools":[{"place_id":"ChIJe6x52Q6rEmsRu2ujTUviNu8","rating":1,"name":"Manly Village Public School","geo":{"location":{"lat":-33.7992015,"lng":151.2869546},"viewport":{"northeast":{"lat":-33.79785251970849,"lng":151.2883035802915},"southwest":{"lat":-33.80055048029149,"lng":151.2856056197085}}}},{"place_id":"ChIJWUqBDg-rEmsRLLDtcf-Et3Y","name":"Royal Far West School","geo":{"location":{"lat":-33.7984393,"lng":151.2884749},"viewport":{"northeast":{"lat":-33.79701051970851,"lng":151.2897566302915},"southwest":{"lat":-33.79970848029151,"lng":151.2870586697085}}}},{"place_id":"ChIJocIKCgarEmsR3BflWDlJ8vU","rating":3.5,"name":"St Maryâ€™s Catholic School","geo":{"location":{"lat":-33.795496,"lng":151.286585},"viewport":{"northeast":{"lat":-33.79368626970849,"lng":151.2879994302915},"southwest":{"lat":-33.79638423029149,"lng":151.2853014697085}}}},{"place_id":"ChIJh41rpmyrEmsRAbBF1XLoiLw","name":"Farmhouse Montessori Primary School","geo":{"location":{"lat":-33.81004250000001,"lng":151.2973462},"viewport":{"northeast":{"lat":-33.80869351970851,"lng":151.2986951802915},"southwest":{"lat":-33.8113914802915,"lng":151.2959972197085}}}},{"place_id":"ChIJX2_oPgarEmsRVCOC38TH2yI","name":"Kangaroo Street Pre-School","geo":{"location":{"lat":-33.794605,"lng":151.284308},"viewport":{"northeast":{"lat":-33.7932417197085,"lng":151.2855461302915},"southwest":{"lat":-33.7959396802915,"lng":151.2828481697085}}}},{"place_id":"ChIJ4XkznWuqEmsRXdYX3EnrckI","rating":5,"name":"Amy's Puppy Pre-School","geo":{"location":{"lat":-33.7951488,"lng":151.2710663},"viewport":{"northeast":{"lat":-33.7937359197085,"lng":151.2724112302915},"southwest":{"lat":-33.7964338802915,"lng":151.2697132697085}}}},{"place_id":"ChIJeeinYxKrEmsR0mPFwRTIG1c","rating":4.3,"name":"St Paul's Catholic College","geo":{"location":{"lat":-33.8057439,"lng":151.2924765},"viewport":{"northeast":{"lat":-33.8040127697085,"lng":151.2939555802915},"southwest":{"lat":-33.80671073029149,"lng":151.2912576197085}}}},{"place_id":"ChIJcyvc1gGrEmsRPYfKYQm_EqY","rating":5,"name":"Stella Maris College","geo":{"location":{"lat":-33.7866935,"lng":151.2861087},"viewport":{"northeast":{"lat":-33.7853082197085,"lng":151.2874885302915},"southwest":{"lat":-33.7880061802915,"lng":151.2847905697085}}}},{"place_id":"ChIJ-2_LVaarEmsR1vpC66EnQuE","rating":5,"name":"Studio Make","geo":{"location":{"lat":-33.79618179999999,"lng":151.2769994},"viewport":{"northeast":{"lat":-33.79435704999999,"lng":151.2897143},"southwest":{"lat":-33.80165605000001,"lng":151.2727611}}}},{"place_id":"ChIJc4JrVROrEmsRLbIjEbKACiY","name":"CSF","geo":{"location":{"lat":-33.8091963,"lng":151.2976136},"viewport":{"northeast":{"lat":-33.8078248197085,"lng":151.2984736302915},"southwest":{"lat":-33.8105227802915,"lng":151.2957756697085}}}},{"place_id":"ChIJv109EQGrEmsR5SptaWNcxE8","rating":5,"name":"Kid City Kindergarten","geo":{"location":{"lat":-33.7889806,"lng":151.2841183},"viewport":{"northeast":{"lat":-33.7877133197085,"lng":151.2854300302915},"southwest":{"lat":-33.7904112802915,"lng":151.2827320697085}}}}],"dominos":[{"place_id":"ChIJlTVbtAirEmsR9szY1zC6BRw","rating":4,"name":"Domino's Pizza Manly","geo":{"location":{"lat":-33.79713,"lng":151.285801},"viewport":{"northeast":{"lat":-33.7956429697085,"lng":151.2867529302915},"southwest":{"lat":-33.79834093029149,"lng":151.2840549697085}}}},{"place_id":"ChIJC3kMdgGrEmsRwL3KnGDfvSo","rating":3.7,"name":"Ironbark Woodfired Pizza Restaurant & Cafe","geo":{"location":{"lat":-33.78833300000001,"lng":151.284793},"viewport":{"northeast":{"lat":-33.7869544697085,"lng":151.2860517802915},"southwest":{"lat":-33.7896524302915,"lng":151.2833538197085}}}}]},"2000":{"hospitals":[{"place_id":"ChIJ9VZuPhCuEmsRDZYB2-C-OZE","rating":3.4,"name":"St Vincent's Hospital Sydney","geo":{"location":{"lat":-33.8805454,"lng":151.2207522},"viewport":{"northeast":{"lat":-33.8788424697085,"lng":151.2219405802915},"southwest":{"lat":-33.8815404302915,"lng":151.2192426197085}}}},{"place_id":"ChIJrzOKMBCuEmsRUkxSTW16CQM","rating":4.1,"name":"St Vincent's Private Hospital Sydney","geo":{"location":{"lat":-33.8809438,"lng":151.2199792},"viewport":{"northeast":{"lat":-33.87908674999998,"lng":151.22170425},"southwest":{"lat":-33.88211815,"lng":151.21823965}}}},{"place_id":"ChIJNZGBNBCuEmsR3iIvZz49TlM","name":"St. Vincents Hospital Alcohol & Drug Service","geo":{"location":{"lat":-33.8797044,"lng":151.2210799},"viewport":{"northeast":{"lat":-33.8782507697085,"lng":151.2223087802915},"southwest":{"lat":-33.8809487302915,"lng":151.2196108197085}}}},{"place_id":"ChIJG9EFhhOuEmsR9GiyglmAwZw","rating":3.6,"name":"East Sydney Private Hospital","geo":{"location":{"lat":-33.8737415,"lng":151.2159518},"viewport":{"northeast":{"lat":-33.8722821197085,"lng":151.2175504802915},"southwest":{"lat":-33.8749800802915,"lng":151.2148525197085}}}},{"place_id":"ChIJkUL1QhCuEmsRT80ZxmDrqf8","name":"Hospital","geo":{"location":{"lat":-33.8803509,"lng":151.2198943},"viewport":{"northeast":{"lat":-33.8790209697085,"lng":151.2212675802915},"southwest":{"lat":-33.8817189302915,"lng":151.2185696197085}}}},{"place_id":"ChIJdb_MIxCuEmsRbqLhl75c6bo","name":"Tierney House","geo":{"location":{"lat":-33.88067300000001,"lng":151.221474},"viewport":{"northeast":{"lat":-33.8793658197085,"lng":151.2227862802915},"southwest":{"lat":-33.8820637802915,"lng":151.2200883197085}}}},{"place_id":"ChIJVdTm9WquEmsRtnsndCFQGFQ","name":"Centre for Hand Surgery","geo":{"location":{"lat":-33.866998,"lng":151.212042},"viewport":{"northeast":{"lat":-33.8656607197085,"lng":151.2135459802915},"southwest":{"lat":-33.8683586802915,"lng":151.2108480197085}}}},{"place_id":"ChIJLy80zRGuEmsR_krPhjae-XQ","name":"Level 4, Xavier Building","geo":{"location":{"lat":-33.8794364,"lng":151.2210679},"viewport":{"northeast":{"lat":-33.8780554697085,"lng":151.2223802302915},"southwest":{"lat":-33.8807534302915,"lng":151.2196822697085}}}},{"place_id":"ChIJ3z9najyuEmsRUeekyF5pJrM","name":"Dr. Elisabeth Rippy","geo":{"location":{"lat":-33.8744757,"lng":151.205788},"viewport":{"northeast":{"lat":-33.8730236197085,"lng":151.2071506802915},"southwest":{"lat":-33.8757215802915,"lng":151.2044527197085}}}},{"place_id":"ChIJn5Gv3UKuEmsRyO9hx-E5ihk","rating":5,"name":"Lorica Health","geo":{"location":{"lat":-33.8593416,"lng":151.2078383},"viewport":{"northeast":{"lat":-33.8580020197085,"lng":151.2092593302915},"southwest":{"lat":-33.8606999802915,"lng":151.2065613697085}}}}],"doctors":[{"place_id":"ChIJk0Ed_hCuEmsRDVI2cpJ4Sao","rating":4.1,"name":"East Sydney Doctors","geo":{"location":{"lat":-33.87869130000001,"lng":151.2187171},"viewport":{"northeast":{"lat":-33.8774564197085,"lng":151.2200383802915},"southwest":{"lat":-33.88015438029149,"lng":151.2173404197085}}}},{"place_id":"ChIJK4PYNECuEmsRr_H_CXPrnzM","rating":4.5,"name":"Sydney Doctors","geo":{"location":{"lat":-33.866142,"lng":151.208792},"viewport":{"northeast":{"lat":-33.86478676970851,"lng":151.2100541302915},"southwest":{"lat":-33.8674847302915,"lng":151.2073561697085}}}},{"place_id":"ChIJ64mlpj2uEmsRulhMLEJxa5Q","rating":3.4,"name":"City Doctors","geo":{"location":{"lat":-33.87591430000001,"lng":151.2084051},"viewport":{"northeast":{"lat":-33.87455986970851,"lng":151.2095013302915},"southwest":{"lat":-33.87725783029151,"lng":151.2068033697085}}}},{"place_id":"ChIJ6492oECuEmsR_Jk80OIlnIk","rating":4,"name":"Dr. Angelo Lazaris - Sydney Cosmetic Dentist","geo":{"location":{"lat":-33.867747,"lng":151.205667},"viewport":{"northeast":{"lat":-33.8664907697085,"lng":151.2071544302915},"southwest":{"lat":-33.8691887302915,"lng":151.2044564697085}}}},{"place_id":"ChIJbZZeexCuEmsRKjxtmzlDX7c","rating":3,"name":"Dr Richard Parkinson","geo":{"location":{"lat":-33.8812455,"lng":151.219436},"viewport":{"northeast":{"lat":-33.8798889197085,"lng":151.2206046802915},"southwest":{"lat":-33.8825868802915,"lng":151.2179067197085}}}},{"place_id":"ChIJ5ala3hCuEmsRjloVNpHl5mU","rating":5,"name":"Sydney ENT Clinic (Dr Sean Flanagan)","geo":{"location":{"lat":-33.878982,"lng":151.2177913},"viewport":{"northeast":{"lat":-33.8775368197085,"lng":151.2191616802915},"southwest":{"lat":-33.8802347802915,"lng":151.2164637197085}}}},{"place_id":"ChIJq0jcJ2quEmsR7zQ2RvO-72k","name":"Dr Frank Martin","geo":{"location":{"lat":-33.86449410000001,"lng":151.2124016},"viewport":{"northeast":{"lat":-33.8631895197085,"lng":151.2139045302915},"southwest":{"lat":-33.8658874802915,"lng":151.2112065697085}}}},{"place_id":"ChIJzWGyLGauEmsRkwmOihDIEjs","rating":5,"name":"Maroun Paulette Dr","geo":{"location":{"lat":-33.8670835,"lng":151.2120446},"viewport":{"northeast":{"lat":-33.8657457697085,"lng":151.2135426802915},"southwest":{"lat":-33.8684437302915,"lng":151.2108447197085}}}},{"place_id":"ChIJv8XLfBCuEmsRBTxinzKN_hA","name":"Dr Mark J. Winder","geo":{"location":{"lat":-33.8808903,"lng":151.2199603},"viewport":{"northeast":{"lat":-33.8793974197085,"lng":151.2211285302915},"southwest":{"lat":-33.8820953802915,"lng":151.2184305697085}}}},{"place_id":"ChIJRSFIVUCuEmsRXoQK8aMRuYE","name":"Dr Rosemary Aldous","geo":{"location":{"lat":-33.8652314,"lng":151.2099254},"viewport":{"northeast":{"lat":-33.8637909197085,"lng":151.2111699302915},"southwest":{"lat":-33.8664888802915,"lng":151.2084719697085}}}},{"place_id":"ChIJbZZeexCuEmsRxK28LvRO8ek","rating":5,"name":"Dr John Rooney","geo":{"location":{"lat":-33.8809267,"lng":151.2192455},"viewport":{"northeast":{"lat":-33.8795928697085,"lng":151.2206166302915},"southwest":{"lat":-33.8822908302915,"lng":151.2179186697085}}}},{"place_id":"ChIJVdTm9WquEmsRkE6zNAZSjfw","rating":5,"name":"Dr Chang Andrew","geo":{"location":{"lat":-33.866998,"lng":151.212042},"viewport":{"northeast":{"lat":-33.8656607197085,"lng":151.2135459802915},"southwest":{"lat":-33.8683586802915,"lng":151.2108480197085}}}},{"place_id":"ChIJVdTm9WquEmsRVUInLQCci6c","name":"Dr. Ameer Ibrahim","geo":{"location":{"lat":-33.866998,"lng":151.212042},"viewport":{"northeast":{"lat":-33.8656607197085,"lng":151.2135459802915},"southwest":{"lat":-33.8683586802915,"lng":151.2108480197085}}}},{"place_id":"ChIJCc0MiGmuEmsRgL92AB4mA0I","rating":2.6,"name":"Dr Natasha Cook Cosmeceuticals","geo":{"location":{"lat":-33.878889,"lng":151.217348},"viewport":{"northeast":{"lat":-33.8774541697085,"lng":151.2187174802915},"southwest":{"lat":-33.8801521302915,"lng":151.2160195197085}}}},{"place_id":"ChIJB4v2hWmuEmsRuqc4XdFKzV0","rating":4.4,"name":"Dr Morris","geo":{"location":{"lat":-33.8642583,"lng":151.2124146},"viewport":{"northeast":{"lat":-33.8629047197085,"lng":151.2139339302915},"southwest":{"lat":-33.8656026802915,"lng":151.2112359697085}}}},{"place_id":"ChIJv8XLfBCuEmsR4eBXFfz5_mo","rating":5,"name":"St Vincent's Clinic - Dr. Malcolm Pell","geo":{"location":{"lat":-33.88103789999999,"lng":151.2195567},"viewport":{"northeast":{"lat":-33.8795965697085,"lng":151.2207823802915},"southwest":{"lat":-33.8822945302915,"lng":151.2180844197085}}}},{"place_id":"ChIJGVqFYkCuEmsRE_FFdUvk1eE","rating":1,"name":"Dr Derek Lok","geo":{"location":{"lat":-33.8672209,"lng":151.2073756},"viewport":{"northeast":{"lat":-33.8659922197085,"lng":151.2087059302915},"southwest":{"lat":-33.8686901802915,"lng":151.2060079697085}}}},{"place_id":"ChIJ74qT9mquEmsRBkVZdAll9ho","rating":4,"name":"Dr Gareth Owen","geo":{"location":{"lat":-33.8670835,"lng":151.2120446},"viewport":{"northeast":{"lat":-33.8657457697085,"lng":151.2135426802915},"southwest":{"lat":-33.8684437302915,"lng":151.2108447197085}}}},{"place_id":"ChIJpW8u9GquEmsR8xlkKH9XlT8","rating":5,"name":"Dr Darren Gold","geo":{"location":{"lat":-33.867092,"lng":151.212071},"viewport":{"northeast":{"lat":-33.8657532197085,"lng":151.2135555302915},"southwest":{"lat":-33.86845118029149,"lng":151.2108575697085}}}},{"place_id":"ChIJbZZeexCuEmsRi61E9Y_Q-kE","name":"Dr Nigel Biggs","geo":{"location":{"lat":-33.8810446,"lng":151.2193771},"viewport":{"northeast":{"lat":-33.8796557697085,"lng":151.2206390302915},"southwest":{"lat":-33.88235373029149,"lng":151.2179410697085}}}},{"place_id":"ChIJbZZeexCuEmsRRgvDpSm3c2M","name":"Diagnostic Endoscopy Centre - Dr. Vickers Christopher R","geo":{"location":{"lat":-33.8809244,"lng":151.219723},"viewport":{"northeast":{"lat":-33.8794702697085,"lng":151.2209349802915},"southwest":{"lat":-33.8821682302915,"lng":151.2182370197085}}}},{"place_id":"ChIJxYJeOj6uEmsRJhuagalxZtM","name":"Dr Anthony Yap","geo":{"location":{"lat":-33.86506019999999,"lng":151.2019024},"viewport":{"northeast":{"lat":-33.8637112197085,"lng":151.2032513802915},"southwest":{"lat":-33.8664091802915,"lng":151.2005534197085}}}},{"place_id":"ChIJW3LzovCtEmsRUYOD_Ae1Xyc","rating":2.6,"name":"Dr Angelo Tsirbas","geo":{"location":{"lat":-33.8642907,"lng":151.2125275},"viewport":{"northeast":{"lat":-33.8629559697085,"lng":151.2140056802915},"southwest":{"lat":-33.8656539302915,"lng":151.2113077197085}}}},{"place_id":"ChIJ6SG3ViOuEmsReJGEIC4GgCQ","rating":4.7,"name":"Sussex Specialist Centre - Dr Andrew Kan","geo":{"location":{"lat":-33.878173,"lng":151.2044993},"viewport":{"northeast":{"lat":-33.87681061970849,"lng":151.2059797802915},"southwest":{"lat":-33.87950858029149,"lng":151.2032818197085}}}},{"place_id":"ChIJbZZeexCuEmsRBbanzAIr8Vk","name":"Dr Peter JS Bentivoglio","geo":{"location":{"lat":-33.881072,"lng":151.219564},"viewport":{"northeast":{"lat":-33.87962151970849,"lng":151.2207774802915},"southwest":{"lat":-33.88231948029149,"lng":151.2180795197085}}}},{"place_id":"ChIJQZhCMxCuEmsR8_tu9ZghJnI","rating":5,"name":"O'Neill Gordon FA DR","geo":{"location":{"lat":-33.8808443,"lng":151.2198466},"viewport":{"northeast":{"lat":-33.8793830697085,"lng":151.2210492802915},"southwest":{"lat":-33.8820810302915,"lng":151.2183513197085}}}},{"place_id":"ChIJv8XLfBCuEmsRFI_qDbuMdLk","name":"Dr Mark Penny","geo":{"location":{"lat":-33.8811326,"lng":151.2194068},"viewport":{"northeast":{"lat":-33.8797221197085,"lng":151.2206379802915},"southwest":{"lat":-33.8824200802915,"lng":151.2179400197085}}}},{"place_id":"ChIJmWaTSkCuEmsRqQe3aKqaKiM","name":"Dr Anup Desai","geo":{"location":{"lat":-33.864459,"lng":151.212386},"viewport":{"northeast":{"lat":-33.8631264197085,"lng":151.2139029802915},"southwest":{"lat":-33.8658243802915,"lng":151.2112050197085}}}},{"place_id":"ChIJv8XLfBCuEmsR4VBiGYFOccY","name":"Dr Rohan Gett","geo":{"location":{"lat":-33.8809267,"lng":151.2192455},"viewport":{"northeast":{"lat":-33.8795928697085,"lng":151.2206166302915},"southwest":{"lat":-33.8822908302915,"lng":151.2179186697085}}}},{"place_id":"ChIJ74qT9mquEmsRA2_bFcgJHRU","name":"Dr Alina Stoita Gastroenterologist","geo":{"location":{"lat":-33.8670835,"lng":151.2120445},"viewport":{"northeast":{"lat":-33.8657457697085,"lng":151.2135426302915},"southwest":{"lat":-33.8684437302915,"lng":151.2108446697085}}}},{"place_id":"ChIJ7TLPJ2quEmsRn-x5IJauAOY","rating":5,"name":"Dr Michael Jones","geo":{"location":{"lat":-33.86449410000001,"lng":151.2124016},"viewport":{"northeast":{"lat":-33.8632036197085,"lng":151.2139026302915},"southwest":{"lat":-33.8659015802915,"lng":151.2112046697085}}}},{"place_id":"ChIJIZt9MxCuEmsRh3xs_EBEa6k","rating":5,"name":"Dr. Oliver Khoo","geo":{"location":{"lat":-33.8797242,"lng":151.2211388},"viewport":{"northeast":{"lat":-33.8782531197085,"lng":151.2223477302915},"southwest":{"lat":-33.8809510802915,"lng":151.2196497697085}}}},{"place_id":"ChIJ59kThk6uEmsR09a3GTT3FoA","name":"Balmain East Doctors","geo":{"location":{"lat":-33.8572859,"lng":151.1935094},"viewport":{"northeast":{"lat":-33.8559773697085,"lng":151.1948673802915},"southwest":{"lat":-33.8586753302915,"lng":151.1921694197085}}}},{"place_id":"ChIJK4PYNECuEmsRoy5VwNY4YyA","name":"Sydney, Medical, Dental and Cosmetic Centre - Dr. Daniela Bitlan","geo":{"location":{"lat":-33.866131,"lng":151.2087178},"viewport":{"northeast":{"lat":-33.8647784697085,"lng":151.2100173302915},"southwest":{"lat":-33.86747643029149,"lng":151.2073193697085}}}},{"place_id":"ChIJrzOKMBCuEmsRTHS4JhPDqk8","rating":5,"name":"Dr Moisidis, Elias","geo":{"location":{"lat":-33.880009,"lng":151.22098},"viewport":{"northeast":{"lat":-33.8784962197085,"lng":151.2221410302915},"southwest":{"lat":-33.88119418029149,"lng":151.2194430697085}}}},{"place_id":"ChIJx_H_YmiuEmsR0xRYOGZB-oM","name":"Centre for Hand Surgery - Dr Wheen Douglass","geo":{"location":{"lat":-33.866998,"lng":151.212042},"viewport":{"northeast":{"lat":-33.8656607197085,"lng":151.2135459802915},"southwest":{"lat":-33.8683586802915,"lng":151.2108480197085}}}},{"place_id":"ChIJk0Ed_hCuEmsR9Q34r8dDS6c","rating":4,"name":"East Sydney Doctors - Dr. David Baker","geo":{"location":{"lat":-33.8786825,"lng":151.2187365},"viewport":{"northeast":{"lat":-33.8774534197085,"lng":151.2200563802915},"southwest":{"lat":-33.88015138029149,"lng":151.2173584197085}}}},{"place_id":"ChIJB4v2hWmuEmsRjZuG7u6xyh0","rating":5,"name":"Dr. John Garvey","geo":{"location":{"lat":-33.86426240000001,"lng":151.2124134},"viewport":{"northeast":{"lat":-33.86298041970851,"lng":151.2139234302915},"southwest":{"lat":-33.86567838029151,"lng":151.2112254697085}}}},{"place_id":"ChIJv8XLfBCuEmsR3fKlb10rZ-A","name":"Diagnostic Endoscopy Centre - Dr. Wettstein Antony","geo":{"location":{"lat":-33.8809111,"lng":151.219699},"viewport":{"northeast":{"lat":-33.8794648697085,"lng":151.2209215802915},"southwest":{"lat":-33.8821628302915,"lng":151.2182236197085}}}},{"place_id":"ChIJv8XLfBCuEmsRKgI9tJLYbEM","rating":4.4,"name":"Dr TIMOTHY STEEL","geo":{"location":{"lat":-33.88093319999999,"lng":151.2199349},"viewport":{"northeast":{"lat":-33.8794332197085,"lng":151.2210870802915},"southwest":{"lat":-33.88213118029149,"lng":151.2183891197085}}}},{"place_id":"ChIJ83vg3RKuEmsR_4ZH4Yu7sf8","rating":5,"name":"Foo Brian Dr","geo":{"location":{"lat":-33.8724856,"lng":151.2188452},"viewport":{"northeast":{"lat":-33.8712415197085,"lng":151.2201679302915},"southwest":{"lat":-33.8739394802915,"lng":151.2174699697085}}}},{"place_id":"ChIJtdyMehCuEmsRHHIcrz6TBdw","name":"Dr Martin Sullivan","geo":{"location":{"lat":-33.8809267,"lng":151.2192455},"viewport":{"northeast":{"lat":-33.8795928697085,"lng":151.2206166302915},"southwest":{"lat":-33.8822908302915,"lng":151.2179186697085}}}},{"place_id":"ChIJC_EfC0GuEmsR4YGYBe9Y8GU","rating":5,"name":"Dr Rob King","geo":{"location":{"lat":-33.86845499999999,"lng":151.211896},"viewport":{"northeast":{"lat":-33.86711991970849,"lng":151.2133818302915},"southwest":{"lat":-33.86981788029149,"lng":151.2106838697085}}}},{"place_id":"ChIJHZDibhCuEmsR-o5RDlAU114","name":"Dr Paul Crea","geo":{"location":{"lat":-33.880903,"lng":151.2198973},"viewport":{"northeast":{"lat":-33.8794177697085,"lng":151.2210686802915},"southwest":{"lat":-33.8821157302915,"lng":151.2183707197085}}}},{"place_id":"ChIJK_8oVruLtAER4OaDv0bbQKI","name":"Dr Elena Ryan","geo":{"location":{"lat":-33.8572817,"lng":151.1933674},"viewport":{"northeast":{"lat":-33.8562018197085,"lng":151.1949328302915},"southwest":{"lat":-33.8588997802915,"lng":151.1922348697085}}}},{"place_id":"ChIJv8XLfBCuEmsRQfif0O3--eI","name":"Dr. David Ende","geo":{"location":{"lat":-33.880802,"lng":151.2190793},"viewport":{"northeast":{"lat":-33.8795097197085,"lng":151.2205110302915},"southwest":{"lat":-33.88220768029149,"lng":151.2178130697085}}}},{"place_id":"ChIJJZwMxECuEmsRTqu5NKdT3tc","name":"Dr Jeffrey Persson","geo":{"location":{"lat":-33.8665519,"lng":151.2057468},"viewport":{"northeast":{"lat":-33.86521056970851,"lng":151.2070960302915},"southwest":{"lat":-33.86790853029151,"lng":151.2043980697085}}}},{"place_id":"ChIJJZwMxECuEmsRFrXiOYEkK24","name":"Dr Gavin Kemball","geo":{"location":{"lat":-33.8635856,"lng":151.2050884},"viewport":{"northeast":{"lat":-33.8621851697085,"lng":151.2065011802915},"southwest":{"lat":-33.8648831302915,"lng":151.2038032197085}}}},{"place_id":"ChIJgdF3KGquEmsRrqWv_JFH23o","rating":5,"name":"Dr Clare Fraser","geo":{"location":{"lat":-33.86449410000001,"lng":151.2124016},"viewport":{"northeast":{"lat":-33.8632014197085,"lng":151.2139029302915},"southwest":{"lat":-33.86589938029149,"lng":151.2112049697085}}}},{"place_id":"ChIJ5yZZWWquEmsRjR9TA19tzuo","name":"Tan Patrick Dr","geo":{"location":{"lat":-33.866642,"lng":151.21213},"viewport":{"northeast":{"lat":-33.8653107197085,"lng":151.2136150802915},"southwest":{"lat":-33.8680086802915,"lng":151.2109171197085}}}},{"place_id":"ChIJpcrCSDyuEmsR0mfNG8fpIuE","name":"Reid Michael DR","geo":{"location":{"lat":-33.8747966,"lng":151.2071479},"viewport":{"northeast":{"lat":-33.8733917697085,"lng":151.2083001302915},"southwest":{"lat":-33.8760897302915,"lng":151.2056021697085}}}},{"place_id":"ChIJlQhR1BeuEmsRe7lL5E3A4NU","name":"Dr. Ruchika Luhach","geo":{"location":{"lat":-33.8771729,"lng":151.2104621},"viewport":{"northeast":{"lat":-33.8756793697085,"lng":151.2118159302915},"southwest":{"lat":-33.8783773302915,"lng":151.2091179697085}}}},{"place_id":"ChIJhbtnqjiuEmsRg-JEcBkuzAU","name":"Dr Alison Gee","geo":{"location":{"lat":-33.8676229,"lng":151.2038282},"viewport":{"northeast":{"lat":-33.8662357197085,"lng":151.2054880802915},"southwest":{"lat":-33.8689336802915,"lng":151.2027901197085}}}},{"place_id":"ChIJmwPYyTyuEmsRKACu4RVJdwY","name":"HCA Doctors (Formerly LML Medical Recruitment)","geo":{"location":{"lat":-33.8773341,"lng":151.20656},"viewport":{"northeast":{"lat":-33.8761685697085,"lng":151.2075047302915},"southwest":{"lat":-33.8788665302915,"lng":151.2048067697085}}}},{"place_id":"ChIJH3vzeBOuEmsRckfzCaT3vzs","rating":5,"name":"Jenny Bromberger - Integrative Doctor, Sydney","geo":{"location":{"lat":-33.87361499999999,"lng":151.216335},"viewport":{"northeast":{"lat":-33.87223506970849,"lng":151.2176912302915},"southwest":{"lat":-33.87493303029149,"lng":151.2149932697085}}}},{"place_id":"ChIJRSFIVUCuEmsRR6MYoK86138","name":"Dr Lurie Edward","geo":{"location":{"lat":-33.8657882,"lng":151.2074364},"viewport":{"northeast":{"lat":-33.8644340697085,"lng":151.2087091802915},"southwest":{"lat":-33.8671320302915,"lng":151.2060112197085}}}},{"place_id":"ChIJbZZeexCuEmsR1S51BFEfbTs","name":"Dr Paul R Roy","geo":{"location":{"lat":-33.8809244,"lng":151.219782},"viewport":{"northeast":{"lat":-33.8795754197085,"lng":151.2211309802915},"southwest":{"lat":-33.88227338029149,"lng":151.2184330197085}}}},{"place_id":"ChIJB3IOh6qYEmsR00IgpF0MHw0","rating":5,"name":"Dr. Pouria Moradi","geo":{"location":{"lat":-33.8737172,"lng":151.2161722},"viewport":{"northeast":{"lat":-33.8723837697085,"lng":151.2176597802915},"southwest":{"lat":-33.8750817302915,"lng":151.2149618197085}}}},{"place_id":"ChIJbZZeexCuEmsRuJe96jG4yho","name":"St. Vincent's Clinic - Dr. Quain J S","geo":{"location":{"lat":-33.8811805,"lng":151.2193984},"viewport":{"northeast":{"lat":-33.8797648197085,"lng":151.2206195802915},"southwest":{"lat":-33.8824627802915,"lng":151.2179216197085}}}},{"place_id":"ChIJtzYjiEGuEmsR_pyHuSB_Y7A","rating":5,"name":"Dr Juman Farjo","geo":{"location":{"lat":-33.863423,"lng":151.208165},"viewport":{"northeast":{"lat":-33.8621845197085,"lng":151.2095253302915},"southwest":{"lat":-33.8648824802915,"lng":151.2068273697085}}}}],"fitness":[{"place_id":"ChIJiT0CAD-uEmsRfdq3ftznH6Q","rating":4.1,"name":"Plus Fitness Market St Gym Sydney Cbd","geo":{"location":{"lat":-33.8710906,"lng":151.2050643},"viewport":{"northeast":{"lat":-33.8696578697085,"lng":151.2064191302915},"southwest":{"lat":-33.8723558302915,"lng":151.2037211697085}}}},{"place_id":"ChIJ852CBxSuEmsRw9ES8UZ_sM4","rating":4.2,"name":"City Gym","geo":{"location":{"lat":-33.8751214,"lng":151.215996},"viewport":{"northeast":{"lat":-33.8737825197085,"lng":151.2174101302915},"southwest":{"lat":-33.8764804802915,"lng":151.2147121697085}}}},{"place_id":"ChIJy0Q0lj-uEmsRkE3BtpEUTAw","rating":3.9,"name":"Virgin Active Pitt Street","geo":{"location":{"lat":-33.8697163,"lng":151.2080332},"viewport":{"northeast":{"lat":-33.8683673197085,"lng":151.2093821802915},"southwest":{"lat":-33.8710652802915,"lng":151.2066842197085}}}},{"place_id":"ChIJEU-RuxauEmsRFKGXfyb-dOo","rating":4.8,"name":"98 Riley St Gym","geo":{"location":{"lat":-33.8762251,"lng":151.2150685},"viewport":{"northeast":{"lat":-33.8748660697085,"lng":151.2163526302915},"southwest":{"lat":-33.8775640302915,"lng":151.2136546697085}}}},{"place_id":"ChIJacW8EkKuEmsR7k09E9v1gJQ","name":"Virgin Active Central (Office Only)","geo":{"location":{"lat":-33.86250400000001,"lng":151.209467},"viewport":{"northeast":{"lat":-33.86115501970851,"lng":151.2108159802915},"southwest":{"lat":-33.8638529802915,"lng":151.2081180197085}}}},{"place_id":"ChIJrTBP4BGuEmsRKkHg04XDV0c","rating":4.7,"name":"LIFT GYM","geo":{"location":{"lat":-33.87812650000001,"lng":151.2221081},"viewport":{"northeast":{"lat":-33.87690421970851,"lng":151.2234302802915},"southwest":{"lat":-33.87960218029151,"lng":151.2207323197085}}}},{"place_id":"ChIJfZIZhQ2uEmsRa73A4EyVlA4","rating":4.1,"name":"Fitness First Kings Cross","geo":{"location":{"lat":-33.875203,"lng":151.222454},"viewport":{"northeast":{"lat":-33.8738540197085,"lng":151.2238029802915},"southwest":{"lat":-33.8765519802915,"lng":151.2211050197085}}}},{"place_id":"ChIJrQHgsD-uEmsReYkFdCfB1qw","rating":3.3,"name":"Fit n Fast Westfield Sydney","geo":{"location":{"lat":-33.8696868,"lng":151.209193},"viewport":{"northeast":{"lat":-33.8683378197085,"lng":151.2105419802915},"southwest":{"lat":-33.8710357802915,"lng":151.2078440197085}}}},{"place_id":"ChIJYZ-JDz2uEmsRz_uI4Z5PI7M","rating":4,"name":"Fit n Fast Liverpool Street","geo":{"location":{"lat":-33.8768638,"lng":151.2081204},"viewport":{"northeast":{"lat":-33.87542506970851,"lng":151.2094886302915},"southwest":{"lat":-33.8781230302915,"lng":151.2067906697085}}}},{"place_id":"ChIJedPIEBeuEmsRtA8PT-Yu0EU","rating":4,"name":"Fitness First Darlinghurst","geo":{"location":{"lat":-33.87852799999999,"lng":151.214069},"viewport":{"northeast":{"lat":-33.8772372197085,"lng":151.2151135802915},"southwest":{"lat":-33.8799351802915,"lng":151.2124156197085}}}},{"place_id":"ChIJB8j1eROuEmsRycBkRvZS_I8","rating":5,"name":"SPUDDS GYM","geo":{"location":{"lat":-33.872861,"lng":151.2167203},"viewport":{"northeast":{"lat":-33.8715058697085,"lng":151.2180269302915},"southwest":{"lat":-33.8742038302915,"lng":151.2153289697085}}}},{"place_id":"ChIJ-V25lkGuEmsRVFOYlrwzZIc","rating":2.9,"name":"Fitness First George St Platinum - Sydney CBD","geo":{"location":{"lat":-33.863679,"lng":151.206624},"viewport":{"northeast":{"lat":-33.8625559697085,"lng":151.2082448302915},"southwest":{"lat":-33.86525393029149,"lng":151.2055468697085}}}},{"place_id":"ChIJmVBj0j6uEmsRMlKRapaCZoU","rating":2.3,"name":"Fitness First","geo":{"location":{"lat":-33.8726573,"lng":151.2076424},"viewport":{"northeast":{"lat":-33.8714406697085,"lng":151.2092376302915},"southwest":{"lat":-33.8741386302915,"lng":151.2065396697085}}}},{"place_id":"ChIJWRCjiT-uEmsR9SgCnHnV2Zs","rating":3.8,"name":"Fitness First Bond St Platinum - Sydney CBD","geo":{"location":{"lat":-33.86436809999999,"lng":151.2084967},"viewport":{"northeast":{"lat":-33.86315811970849,"lng":151.2098231302915},"southwest":{"lat":-33.86585608029149,"lng":151.2071251697085}}}},{"place_id":"ChIJmVBj0j6uEmsRsfUDjbEius8","rating":2.9,"name":"Fitness First Market St Platinum - Sydney CBD","geo":{"location":{"lat":-33.8706028,"lng":151.2046436},"viewport":{"northeast":{"lat":-33.8694335697085,"lng":151.2059884802915},"southwest":{"lat":-33.8721315302915,"lng":151.2032905197085}}}},{"place_id":"ChIJrwg77zyuEmsRshdkcghRRDM","name":"VibroGym Active","geo":{"location":{"lat":-33.87653599999999,"lng":151.206655},"viewport":{"northeast":{"lat":-33.8751489697085,"lng":151.2080131802915},"southwest":{"lat":-33.8778469302915,"lng":151.2053152197085}}}},{"place_id":"ChIJLfKSbBeuEmsRSykdnuRlSHU","rating":4.5,"name":"Plus Fitness Darlinghurst","geo":{"location":{"lat":-33.8792327,"lng":151.214157},"viewport":{"northeast":{"lat":-33.87787476970851,"lng":151.2154461802915},"southwest":{"lat":-33.8805727302915,"lng":151.2127482197085}}}},{"place_id":"ChIJMWcsz0auEmsRQdv1kK0dPYM","rating":3.1,"name":"Plus Fitness","geo":{"location":{"lat":-33.86392,"lng":151.2036263},"viewport":{"northeast":{"lat":-33.8625527197085,"lng":151.2051637302915},"southwest":{"lat":-33.8652506802915,"lng":151.2024657697085}}}},{"place_id":"ChIJ7YKsqj6uEmsRdMrXbF4dktU","rating":2.8,"name":"Crunch Fitness","geo":{"location":{"lat":-33.8727219,"lng":151.2044587},"viewport":{"northeast":{"lat":-33.8713913697085,"lng":151.2058103802915},"southwest":{"lat":-33.8740893302915,"lng":151.2031124197085}}}},{"place_id":"ChIJFTbbfkCuEmsRhhqXAmh7BOk","rating":3.3,"name":"Goodlife Health Clubs Martin Place","geo":{"location":{"lat":-33.867695,"lng":151.20771},"viewport":{"northeast":{"lat":-33.8662507197085,"lng":151.2090737302915},"southwest":{"lat":-33.8689486802915,"lng":151.2063757697085}}}},{"place_id":"ChIJG7TSEkOuEmsRvSLd6T7eQe4","rating":4,"name":"Observatory Hill Outdoor Gym","geo":{"location":{"lat":-33.8594808,"lng":151.2058742},"viewport":{"northeast":{"lat":-33.8581161197085,"lng":151.2071754302915},"southwest":{"lat":-33.86081408029149,"lng":151.2044774697085}}}},{"place_id":"ChIJY3w46heuEmsR9g4WwvQbg00","rating":5,"name":"CrossFit 2010 : Gym & Training in Sydney CBD","geo":{"location":{"lat":-33.8783931,"lng":151.2114517},"viewport":{"northeast":{"lat":-33.8769561697085,"lng":151.2126899802915},"southwest":{"lat":-33.8796541302915,"lng":151.2099920197085}}}},{"place_id":"ChIJL8A2GjGuEmsRLRdgHs6WqnQ","rating":4.4,"name":"Snap Fitness Pyrmont","geo":{"location":{"lat":-33.87181189999999,"lng":151.1947301},"viewport":{"northeast":{"lat":-33.87039016970849,"lng":151.1962635302915},"southwest":{"lat":-33.87308813029149,"lng":151.1935655697085}}}},{"place_id":"ChIJyzE0c2quEmsRZxc8OuE1RVE","rating":4.3,"name":"Elixr Health Clubs - Chifley Square","geo":{"location":{"lat":-33.8652862,"lng":151.2108303},"viewport":{"northeast":{"lat":-33.8639391697085,"lng":151.2120733302915},"southwest":{"lat":-33.8666371302915,"lng":151.2093753697085}}}},{"place_id":"ChIJw_AthSKuEmsRb7SuXwa4_FI","rating":3.8,"name":"Anytime Fitness Surry Hills","geo":{"location":{"lat":-33.8811698,"lng":151.20962},"viewport":{"northeast":{"lat":-33.8798583197085,"lng":151.2109670302915},"southwest":{"lat":-33.8825562802915,"lng":151.2082690697085}}}},{"place_id":"ChIJv3c4jz-uEmsRNQT_5kJNMG8","rating":4.1,"name":"Fitness First The Zone Platinum - Sydney CBD","geo":{"location":{"lat":-33.868711,"lng":151.208048},"viewport":{"northeast":{"lat":-33.86741981970849,"lng":151.2093869802915},"southwest":{"lat":-33.87011778029149,"lng":151.2066890197085}}}},{"place_id":"ChIJhx5LizyuEmsRl3Z6Nqwc0XI","rating":2.5,"name":"Snap Fitness Sydney CBD","geo":{"location":{"lat":-33.87584,"lng":151.205866},"viewport":{"northeast":{"lat":-33.87455291970851,"lng":151.2074397802915},"southwest":{"lat":-33.87725088029151,"lng":151.2047418197085}}}},{"place_id":"ChIJUaaqOzGuEmsRoH3CWd-zgAA","rating":3.1,"name":"Anytime Fitness Pyrmont","geo":{"location":{"lat":-33.870921,"lng":151.194939},"viewport":{"northeast":{"lat":-33.8696190697085,"lng":151.1961762802915},"southwest":{"lat":-33.8723170302915,"lng":151.1934783197085}}}},{"place_id":"ChIJ8S4Nmg2uEmsRH7D6jgiV9Is","rating":3.5,"name":"Anytime Fitness Potts Point","geo":{"location":{"lat":-33.87558500000001,"lng":151.2226882},"viewport":{"northeast":{"lat":-33.8742918197085,"lng":151.2240101302915},"southwest":{"lat":-33.8769897802915,"lng":151.2213121697085}}}},{"place_id":"ChIJb4yn5D2uEmsRzHcT0UsNbRs","rating":3.4,"name":"Anytime Fitness Hyde Park","geo":{"location":{"lat":-33.8745058,"lng":151.2093616},"viewport":{"northeast":{"lat":-33.8732114197085,"lng":151.2107029302915},"southwest":{"lat":-33.8759093802915,"lng":151.2080049697085}}}},{"place_id":"ChIJ8ePIKEGuEmsRmPhPLOZ8mR4","rating":4.8,"name":"CrossFit Athletic City","geo":{"location":{"lat":-33.86471429999999,"lng":151.2049777},"viewport":{"northeast":{"lat":-33.8635653697085,"lng":151.2063402302915},"southwest":{"lat":-33.8662633302915,"lng":151.2036422697085}}}},{"place_id":"ChIJM44T0zCuEmsRZxOe3aX1TC8","rating":4.4,"name":"F45 Training Pyrmont","geo":{"location":{"lat":-33.8707287,"lng":151.1961222},"viewport":{"northeast":{"lat":-33.8693158697085,"lng":151.1974286302915},"southwest":{"lat":-33.8720138302915,"lng":151.1947306697085}}}},{"place_id":"ChIJ79-2-UCuEmsRexYq2HKk5Y8","rating":3.2,"name":"Anytime Fitness Sydney City","geo":{"location":{"lat":-33.8662301,"lng":151.2071096},"viewport":{"northeast":{"lat":-33.8648857697085,"lng":151.2085220302915},"southwest":{"lat":-33.8675837302915,"lng":151.2058240697085}}}},{"place_id":"ChIJvex9bEKuEmsRd1dJdhxrQiE","rating":4.5,"name":"Anytime Fitness Circular Quay (Sydney CBD)","geo":{"location":{"lat":-33.862294,"lng":151.209277},"viewport":{"northeast":{"lat":-33.8609407197085,"lng":151.2105574302915},"southwest":{"lat":-33.8636386802915,"lng":151.2078594697085}}}},{"place_id":"ChIJlZ0IGnOuEmsRUP_J806w84c","rating":4.5,"name":"Snap Fitness","geo":{"location":{"lat":-33.87127029999999,"lng":151.2254547},"viewport":{"northeast":{"lat":-33.8699033697085,"lng":151.2266830802915},"southwest":{"lat":-33.8726013302915,"lng":151.2239851197085}}}},{"place_id":"ChIJ4x7Q_DOuEmsRJWNjtxfAV9g","name":"Base Gym","geo":{"location":{"lat":-33.8702437,"lng":151.1925334},"viewport":{"northeast":{"lat":-33.8688947197085,"lng":151.1938823802915},"southwest":{"lat":-33.8715926802915,"lng":151.1911844197085}}}},{"place_id":"ChIJY3w46heuEmsRc9PhmFIcDCI","rating":4.5,"name":"Corporate Fitness Centre","geo":{"location":{"lat":-33.8783934,"lng":151.211426},"viewport":{"northeast":{"lat":-33.8769617197085,"lng":151.2126708802915},"southwest":{"lat":-33.8796596802915,"lng":151.2099729197085}}}},{"place_id":"ChIJoTnjznKuEmsRawL7m3xLa60","rating":4.1,"name":"P.E. Dept.","geo":{"location":{"lat":-33.8720208,"lng":151.2236272},"viewport":{"northeast":{"lat":-33.87063741970851,"lng":151.2249826302915},"southwest":{"lat":-33.87333538029151,"lng":151.2222846697085}}}},{"place_id":"ChIJa7KcXiWuEmsRGZ1-xgvdnY8","rating":4.2,"name":"Ian Thorpe Aquatic Centre","geo":{"location":{"lat":-33.8773368,"lng":151.1989017},"viewport":{"northeast":{"lat":-33.8757991197085,"lng":151.2001572802915},"southwest":{"lat":-33.8784970802915,"lng":151.1974593197085}}}},{"place_id":"ChIJEa6Y9D6uEmsRW1qMvO4fXJg","rating":4,"name":"LivingWell Health Club","geo":{"location":{"lat":-33.871749,"lng":151.208049},"viewport":{"northeast":{"lat":-33.8704021197085,"lng":151.2094694302915},"southwest":{"lat":-33.8731000802915,"lng":151.2067714697085}}}},{"place_id":"ChIJ6wT5JV2uEmsRMOoZ-3aU_P8","name":"CrossFit KGV","geo":{"location":{"lat":-33.8596559,"lng":151.2066187},"viewport":{"northeast":{"lat":-33.8583009197085,"lng":151.2078801302915},"southwest":{"lat":-33.8609988802915,"lng":151.2051821697085}}}},{"place_id":"ChIJiT0CAD-uEmsRfyjut-4pQ1w","rating":4,"name":"F45 Training Sydney CBD","geo":{"location":{"lat":-33.8712675,"lng":151.2080569},"viewport":{"northeast":{"lat":-33.8699207697085,"lng":151.2094835302915},"southwest":{"lat":-33.8726187302915,"lng":151.2067855697085}}}},{"place_id":"ChIJHU7LUhSuEmsRNE07dpQ2VtY","rating":4,"name":"Cook + Phillip Park","geo":{"location":{"lat":-33.8732323,"lng":151.2130353},"viewport":{"northeast":{"lat":-33.8718658697085,"lng":151.2141978302915},"southwest":{"lat":-33.8745638302915,"lng":151.2114998697085}}}},{"place_id":"ChIJC-dWE0KuEmsRP-qTkocrCwk","rating":5,"name":"Level 4 Health Club","geo":{"location":{"lat":-33.862957,"lng":151.209266},"viewport":{"northeast":{"lat":-33.8615970697085,"lng":151.2105114302915},"southwest":{"lat":-33.8642950302915,"lng":151.2078134697085}}}},{"place_id":"ChIJ1yLr4T2uEmsRdTwyyubVLAU","rating":3.7,"name":"Castlereagh Aquatic & Fitness Centre","geo":{"location":{"lat":-33.8737532,"lng":151.2090479},"viewport":{"northeast":{"lat":-33.87245361970849,"lng":151.2104244302915},"southwest":{"lat":-33.87515158029149,"lng":151.2077264697085}}}},{"place_id":"ChIJ4Z59bEKuEmsR--qY3tMwrBc","name":"She Health Club","geo":{"location":{"lat":-33.8622003,"lng":151.2091795},"viewport":{"northeast":{"lat":-33.8608520197085,"lng":151.2105359302915},"southwest":{"lat":-33.8635499802915,"lng":151.2078379697085}}}},{"place_id":"ChIJzfxaU0euEmsRvPruGlJZEKo","rating":4.4,"name":"Ultimate Fitness Centre","geo":{"location":{"lat":-33.8671113,"lng":151.2042808},"viewport":{"northeast":{"lat":-33.8657706697085,"lng":151.2056877302915},"southwest":{"lat":-33.8684686302915,"lng":151.2029897697085}}}},{"place_id":"ChIJN2THLyyuEmsR9uPeRRidZUQ","rating":4.8,"name":"Enliven Fitness","geo":{"location":{"lat":-33.87851699999999,"lng":151.195697},"viewport":{"northeast":{"lat":-33.8772130197085,"lng":151.1969369802915},"southwest":{"lat":-33.8799109802915,"lng":151.1942390197085}}}},{"place_id":"ChIJM_gBfWWLtAER5yPhDPTJqTc","rating":4.7,"name":"CrossFit 168","geo":{"location":{"lat":-33.874943,"lng":151.204232},"viewport":{"northeast":{"lat":-33.8734907197085,"lng":151.2052971302915},"southwest":{"lat":-33.87618868029149,"lng":151.2025991697085}}}},{"place_id":"ChIJx6hA8kauEmsRqsfjJ2hEuro","rating":3.5,"name":"Fitness First Barangaroo Titanium","geo":{"location":{"lat":-33.8637567,"lng":151.2020435},"viewport":{"northeast":{"lat":-33.86240771970849,"lng":151.2033924802915},"southwest":{"lat":-33.86510568029149,"lng":151.2006945197085}}}},{"place_id":"ChIJNcckvj6uEmsR3yUa5vdcSss","name":"Serotonin Strength + Fitness","geo":{"location":{"lat":-33.8719587,"lng":151.2058317},"viewport":{"northeast":{"lat":-33.87061686970851,"lng":151.2070838302915},"southwest":{"lat":-33.8733148302915,"lng":151.2043858697085}}}},{"place_id":"ChIJ2bFJQRKuEmsRXl8BnkB332g","rating":4.9,"name":"The Workout Club","geo":{"location":{"lat":-33.8749673,"lng":151.2193904},"viewport":{"northeast":{"lat":-33.87354171970851,"lng":151.2207598802915},"southwest":{"lat":-33.8762396802915,"lng":151.2180619197085}}}},{"place_id":"ChIJ1-v38TauEmsRNcIRZaZAFFM","name":"Turbines Health Club","geo":{"location":{"lat":-33.8681732,"lng":151.1946516},"viewport":{"northeast":{"lat":-33.8668928697085,"lng":151.1958342302915},"southwest":{"lat":-33.86959083029149,"lng":151.1931362697085}}}},{"place_id":"ChIJEVkigWquEmsRm8NnajmDslM","rating":4.9,"name":"Interesting Fitness","geo":{"location":{"lat":-33.869396,"lng":151.205472},"viewport":{"northeast":{"lat":-33.8680517197085,"lng":151.2067591802915},"southwest":{"lat":-33.8707496802915,"lng":151.2040612197085}}}},{"place_id":"ChIJC8ioCxquEmsRr18jj4XtM4c","rating":5,"name":"Pro Train Fitness","geo":{"location":{"lat":-33.88116289999999,"lng":151.2172365},"viewport":{"northeast":{"lat":-33.8798234197085,"lng":151.2185154302915},"southwest":{"lat":-33.8825213802915,"lng":151.2158174697085}}}},{"place_id":"ChIJKwoxnkGuEmsRQD-PJEdC5zA","rating":5,"name":"Trigger Fitness","geo":{"location":{"lat":-33.8640089,"lng":151.2064356},"viewport":{"northeast":{"lat":-33.8626888197085,"lng":151.2082750302915},"southwest":{"lat":-33.86538678029149,"lng":151.2055770697085}}}},{"place_id":"ChIJE4iosV2uEmsRQJGs8VmFirI","rating":5,"name":"Aspire Strength and Conditioning","geo":{"location":{"lat":-33.854817,"lng":151.207867},"viewport":{"northeast":{"lat":-33.8535215697085,"lng":151.2092867802915},"southwest":{"lat":-33.8562195302915,"lng":151.2065888197085}}}},{"place_id":"ChIJ7c3bJxGuEmsRUN_OUZF4lK8","rating":5,"name":"The Health Hub - Personal Trainer & Pregnancy Exercise","geo":{"location":{"lat":-33.87827,"lng":151.216828},"viewport":{"northeast":{"lat":-33.87709481970851,"lng":151.2181383302915},"southwest":{"lat":-33.87979278029151,"lng":151.2154403697085}}}},{"place_id":"ChIJ-bo1Cz6uEmsRPShzwj7tGfY","rating":4.5,"name":"Qmax Park St","geo":{"location":{"lat":-33.87354569999999,"lng":151.208802},"viewport":{"northeast":{"lat":-33.8720027697085,"lng":151.2101873302915},"southwest":{"lat":-33.8747007302915,"lng":151.2074893697085}}}},{"place_id":"ChIJlyjSFz6uEmsR3h9BLTW9dUM","name":"Premier Health And Fitness Centre","geo":{"location":{"lat":-33.87267260000001,"lng":151.2093552},"viewport":{"northeast":{"lat":-33.8713197197085,"lng":151.2106517802915},"southwest":{"lat":-33.87401768029149,"lng":151.2079538197085}}}}],"library":[{"place_id":"ChIJ-zNYUWquEmsRMaHK_PnWcxE","rating":4.4,"name":"State Library of New South Wales","geo":{"location":{"lat":-33.86686749999999,"lng":151.2128511},"viewport":{"northeast":{"lat":-33.8653814697085,"lng":151.2139856302915},"southwest":{"lat":-33.86807943029149,"lng":151.2112876697085}}}},{"place_id":"ChIJse6XQySuEmsRO7j5kgWBIWA","rating":4.8,"name":"UTS Library","geo":{"location":{"lat":-33.8804477,"lng":151.2022338},"viewport":{"northeast":{"lat":-33.8790987197085,"lng":151.2035827802915},"southwest":{"lat":-33.8817966802915,"lng":151.2008848197085}}}},{"place_id":"ChIJ90XGMGauEmsRx3_piT0QSws","name":"Conservatorium Library - The University of Sydney Library","geo":{"location":{"lat":-33.8634417,"lng":151.213636},"viewport":{"northeast":{"lat":-33.8619360197085,"lng":151.2153491802915},"southwest":{"lat":-33.8646339802915,"lng":151.2126512197085}}}},{"place_id":"ChIJkdl5iy-uEmsR_UggcpW1gvw","name":"Jessie Street National Womens Library","geo":{"location":{"lat":-33.87775489999999,"lng":151.1984536},"viewport":{"northeast":{"lat":-33.87641971970849,"lng":151.1998857802915},"southwest":{"lat":-33.87911768029149,"lng":151.1971878197085}}}},{"place_id":"ChIJ6VOq0GquEmsR7MS8_BLv5jg","rating":4.2,"name":"Caroline Simpson Library & Research Collection","geo":{"location":{"lat":-33.8689869,"lng":151.2127485},"viewport":{"northeast":{"lat":-33.8676052697085,"lng":151.2137757802915},"southwest":{"lat":-33.8703032302915,"lng":151.2110778197085}}}},{"place_id":"ChIJCZ5rATyuEmsRODtVekV-KYc","rating":4.4,"name":"Customs House Library","geo":{"location":{"lat":-33.8622091,"lng":151.2108596},"viewport":{"northeast":{"lat":-33.8605724697085,"lng":151.2124426302915},"southwest":{"lat":-33.8632704302915,"lng":151.2097446697085}}}},{"place_id":"ChIJncbhbSOuEmsRhUpQxen9_Ro","rating":3.8,"name":"Haymarket Library","geo":{"location":{"lat":-33.879909,"lng":151.205511},"viewport":{"northeast":{"lat":-33.8785173697085,"lng":151.2067159302915},"southwest":{"lat":-33.8812153302915,"lng":151.2040179697085}}}},{"place_id":"ChIJY7-Dmi-uEmsRf3HgocvRH3U","rating":3.6,"name":"Ultimo Library","geo":{"location":{"lat":-33.87793319999999,"lng":151.1979086},"viewport":{"northeast":{"lat":-33.8766726197085,"lng":151.1993079302915},"southwest":{"lat":-33.87937058029149,"lng":151.1966099697085}}}},{"place_id":"ChIJncbhbSOuEmsRMUXksbF59j0","rating":3.6,"name":"Library Express","geo":{"location":{"lat":-33.8730127,"lng":151.2054393},"viewport":{"northeast":{"lat":-33.8716682197085,"lng":151.2066219802915},"southwest":{"lat":-33.8743661802915,"lng":151.2039240197085}}}},{"place_id":"ChIJ772-Ew2uEmsRS6yLhDyjmCE","rating":4.1,"name":"Kings Cross Library","geo":{"location":{"lat":-33.874025,"lng":151.223458},"viewport":{"northeast":{"lat":-33.8726443697085,"lng":151.2247635302915},"southwest":{"lat":-33.8753423302915,"lng":151.2220655697085}}}},{"place_id":"ChIJTRorbCOuEmsRenAeX0aVvgo","rating":4.5,"name":"Sydney City Library","geo":{"location":{"lat":-33.8798115,"lng":151.2055223},"viewport":{"northeast":{"lat":-33.8784308197085,"lng":151.2067342802915},"southwest":{"lat":-33.8811287802915,"lng":151.2040363197085}}}},{"place_id":"ChIJEbnHkD2uEmsRbSxs4yfjeWo","name":"Navitas Library","geo":{"location":{"lat":-33.87571239999999,"lng":151.2092035},"viewport":{"northeast":{"lat":-33.87438066970849,"lng":151.2107505802915},"southwest":{"lat":-33.87707863029149,"lng":151.2080526197085}}}},{"place_id":"ChIJA_UUhzuuEmsRuI_GPMHs1lg","name":"Gabriela Mistral Library","geo":{"location":{"lat":-33.8746056,"lng":151.204061},"viewport":{"northeast":{"lat":-33.8732449197085,"lng":151.2055411802915},"southwest":{"lat":-33.8759428802915,"lng":151.2028432197085}}}},{"place_id":"ChIJJbaa2CmuEmsRZOQr3cMEGHM","rating":4.4,"name":"Instituto Cervantes Sydney","geo":{"location":{"lat":-33.874641,"lng":151.204095},"viewport":{"northeast":{"lat":-33.8732816197085,"lng":151.2055606302915},"southwest":{"lat":-33.8759795802915,"lng":151.2028626697085}}}},{"place_id":"ChIJvVaKgT6uEmsRnM6VopUH0JE","rating":4,"name":"City of Sydney","geo":{"location":{"lat":-33.87317480000001,"lng":151.2061605},"viewport":{"northeast":{"lat":-33.8718549697085,"lng":151.2079415802915},"southwest":{"lat":-33.8745529302915,"lng":151.2052436197085}}}},{"place_id":"ChIJXWpy2z2uEmsRLSvHKBErBY4","name":"Sydney Mechanicsâ€™ School of Arts","geo":{"location":{"lat":-33.874151,"lng":151.208264},"viewport":{"northeast":{"lat":-33.8727947197085,"lng":151.2094959802915},"southwest":{"lat":-33.87549268029149,"lng":151.2067980197085}}}},{"place_id":"ChIJ0_liA0SuEmsRSWCtG2Svhb0","rating":5,"name":"Society of Australian Genealogists","geo":{"location":{"lat":-33.861277,"lng":151.203976},"viewport":{"northeast":{"lat":-33.86027306970851,"lng":151.2052353302915},"southwest":{"lat":-33.8629710302915,"lng":151.2025373697085}}}},{"place_id":"ChIJBc2S2j2uEmsRD4geuAykijg","rating":5,"name":"Sydney Mechanics' School of Arts","geo":{"location":{"lat":-33.87418199999999,"lng":151.208183},"viewport":{"northeast":{"lat":-33.8728281697085,"lng":151.2094538802915},"southwest":{"lat":-33.8755261302915,"lng":151.2067559197085}}}}],"dentist":[{"place_id":"ChIJWZDtSyOuEmsREcYc1KzHKjc","rating":4.9,"name":"No Gaps Dental in Sydney CBD Haymarket","geo":{"location":{"lat":-33.878257,"lng":151.205449},"viewport":{"northeast":{"lat":-33.8769191197085,"lng":151.2068867302915},"southwest":{"lat":-33.87961708029149,"lng":151.2041887697085}}}},{"place_id":"ChIJu0GhCEeuEmsRfyCvY_v670c","rating":5,"name":"National Dental Care Barangaroo","geo":{"location":{"lat":-33.86508630000001,"lng":151.2022293},"viewport":{"northeast":{"lat":-33.8637517697085,"lng":151.2032967802915},"southwest":{"lat":-33.86644973029149,"lng":151.2005988197085}}}},{"place_id":"ChIJu7dTkz6uEmsRPUg1yJtZ1ds","rating":5,"name":"Clear Dental Sydney CBD","geo":{"location":{"lat":-33.87187,"lng":151.206269},"viewport":{"northeast":{"lat":-33.8705159697085,"lng":151.2076883302915},"southwest":{"lat":-33.87321393029149,"lng":151.2049903697085}}}},{"place_id":"ChIJT-j880CuEmsRB9e8uqiCF0U","rating":3.9,"name":"nib Dental Care Centre Sydney CBD","geo":{"location":{"lat":-33.8659321,"lng":151.2089943},"viewport":{"northeast":{"lat":-33.8645311197085,"lng":151.2103743302915},"southwest":{"lat":-33.8672290802915,"lng":151.2076763697085}}}},{"place_id":"ChIJDw5BAUGuEmsR8Gv5BNqZy6w","rating":4,"name":"No Gaps Dental in Sydney CBD Wynyard","geo":{"location":{"lat":-33.865355,"lng":151.20704},"viewport":{"northeast":{"lat":-33.86401291970849,"lng":151.2085297802915},"southwest":{"lat":-33.86671088029149,"lng":151.2058318197085}}}},{"place_id":"ChIJpcrCSDyuEmsRZf1FKVjvEq4","rating":5,"name":"Primary Dental Sydney","geo":{"location":{"lat":-33.8748198,"lng":151.2071301},"viewport":{"northeast":{"lat":-33.8734160197085,"lng":151.2082860302915},"southwest":{"lat":-33.8761139802915,"lng":151.2055880697085}}}},{"place_id":"ChIJOaX-pTyuEmsRvlItDJqORUo","rating":5,"name":"Lok Dentists","geo":{"location":{"lat":-33.8755378,"lng":151.204771},"viewport":{"northeast":{"lat":-33.87469119999999,"lng":151.2060541802915},"southwest":{"lat":-33.87807760000001,"lng":151.2033562197085}}}},{"place_id":"ChIJsZWJN0CuEmsRV4i9UavBQ0I","rating":5,"name":"Prudential Dental Clinic, Sydney CBD","geo":{"location":{"lat":-33.866765,"lng":151.208906},"viewport":{"northeast":{"lat":-33.8654033697085,"lng":151.2100793302915},"southwest":{"lat":-33.86810133029149,"lng":151.2073813697085}}}},{"place_id":"ChIJX-Fj4j-uEmsRiGyRFyCVkgQ","rating":4.1,"name":"Sydney Holistic Dental Centre","geo":{"location":{"lat":-33.8697398,"lng":151.2100667},"viewport":{"northeast":{"lat":-33.8684465197085,"lng":151.2115364802915},"southwest":{"lat":-33.8711444802915,"lng":151.2088385197085}}}},{"place_id":"ChIJ8S4Nmg2uEmsRimGzARHOlBU","rating":5,"name":"Dentistry at the Cross","geo":{"location":{"lat":-33.87567250000001,"lng":151.2225673},"viewport":{"northeast":{"lat":-33.8743355197085,"lng":151.2239123302915},"southwest":{"lat":-33.87703348029149,"lng":151.2212143697085}}}},{"place_id":"ChIJeUAY4GmuEmsR6aT8UHsQiUI","rating":5,"name":"Quay Dental | Sydney CBD Dentists","geo":{"location":{"lat":-33.86340899999999,"lng":151.208165},"viewport":{"northeast":{"lat":-33.86196081970849,"lng":151.2094940802915},"southwest":{"lat":-33.86465878029149,"lng":151.2067961197085}}}},{"place_id":"ChIJK4PYNECuEmsRvWcPDRM6bOI","rating":4.7,"name":"Pitt St Dental Centre","geo":{"location":{"lat":-33.86616,"lng":151.208949},"viewport":{"northeast":{"lat":-33.86482111970849,"lng":151.2101302802915},"southwest":{"lat":-33.86751908029149,"lng":151.2074323197085}}}},{"place_id":"ChIJ6492oECuEmsR_Jk80OIlnIk","rating":4,"name":"Dr. Angelo Lazaris - Sydney Cosmetic Dentist","geo":{"location":{"lat":-33.867747,"lng":151.205667},"viewport":{"northeast":{"lat":-33.8664907697085,"lng":151.2071544302915},"southwest":{"lat":-33.8691887302915,"lng":151.2044564697085}}}},{"place_id":"ChIJ6ZhMzjWuEmsRIJ0cVYdj3Yo","rating":4.8,"name":"Pyrmont Dental Health","geo":{"location":{"lat":-33.866451,"lng":151.191798},"viewport":{"northeast":{"lat":-33.8650599697085,"lng":151.1932574302915},"southwest":{"lat":-33.8677579302915,"lng":151.1905594697085}}}},{"place_id":"ChIJ0zrqqkGuEmsRg4_yPjsOCoI","rating":4.5,"name":"Sydney CBD Dental","geo":{"location":{"lat":-33.865672,"lng":151.207484},"viewport":{"northeast":{"lat":-33.8643163697085,"lng":151.2087390802915},"southwest":{"lat":-33.8670143302915,"lng":151.2060411197085}}}},{"place_id":"ChIJE4-sEUCuEmsR-baNg6GmQJA","rating":4.8,"name":"Martin Place Dental Health","geo":{"location":{"lat":-33.8682185,"lng":151.2093206},"viewport":{"northeast":{"lat":-33.8665938197085,"lng":151.2107064302915},"southwest":{"lat":-33.8692917802915,"lng":151.2080084697085}}}},{"place_id":"ChIJnRi6JheuEmsR6F99lazRf3Q","rating":4.9,"name":"Darlinghurst Dental","geo":{"location":{"lat":-33.8783178,"lng":151.21502},"viewport":{"northeast":{"lat":-33.8769652197085,"lng":151.2163566302915},"southwest":{"lat":-33.8796631802915,"lng":151.2136586697085}}}},{"place_id":"ChIJHbmoaUCuEmsR2VQhQjx88ng","rating":5,"name":"Premier Dental Sydney","geo":{"location":{"lat":-33.8673734,"lng":151.2082209},"viewport":{"northeast":{"lat":-33.86602441970849,"lng":151.2095698802915},"southwest":{"lat":-33.86872238029149,"lng":151.2068719197085}}}},{"place_id":"ChIJK4PYNECuEmsRXcuM_Bx4_20","rating":5,"name":"The Dentist at 70 Pitt Street","geo":{"location":{"lat":-33.8662,"lng":151.20897},"viewport":{"northeast":{"lat":-33.8648396697085,"lng":151.2101319302915},"southwest":{"lat":-33.8675376302915,"lng":151.2074339697085}}}},{"place_id":"ChIJGWU5Yj6uEmsRt8kdNOw-UYs","rating":4.6,"name":"Pacific Smiles Dental Town Hall","geo":{"location":{"lat":-33.87238179999999,"lng":151.2076167},"viewport":{"northeast":{"lat":-33.8710328197085,"lng":151.2089656802915},"southwest":{"lat":-33.8737307802915,"lng":151.2062677197085}}}},{"place_id":"ChIJRSFIVUCuEmsR_S-7Y7rU5Bc","rating":4.9,"name":"TLC Dental","geo":{"location":{"lat":-33.8658337,"lng":151.2075127},"viewport":{"northeast":{"lat":-33.8644768197085,"lng":151.2087453802915},"southwest":{"lat":-33.8671747802915,"lng":151.2060474197085}}}},{"place_id":"ChIJ6RvjamquEmsRnqmDE5IkFow","rating":5,"name":"CDC Dental","geo":{"location":{"lat":-33.8652419,"lng":151.2099559},"viewport":{"northeast":{"lat":-33.8637995197085,"lng":151.2111811802915},"southwest":{"lat":-33.8664974802915,"lng":151.2084832197085}}}},{"place_id":"ChIJmZMvY0euEmsReS5m4l_Skr4","rating":4.8,"name":"Sydney Dental Health","geo":{"location":{"lat":-33.8667779,"lng":151.2022728},"viewport":{"northeast":{"lat":-33.8654365697085,"lng":151.2037707302915},"southwest":{"lat":-33.8681345302915,"lng":151.2010727697085}}}},{"place_id":"ChIJZ2ChJWquEmsRFNLiXJP3ItA","rating":4.7,"name":"Dental Lounge","geo":{"location":{"lat":-33.8648653,"lng":151.2123513},"viewport":{"northeast":{"lat":-33.8635301197085,"lng":151.2138577802915},"southwest":{"lat":-33.8662280802915,"lng":151.2111598197085}}}},{"place_id":"ChIJ4RVpf_GtEmsRYw8WWzSlu30","rating":4.2,"name":"ABC Dental Sydney CBD","geo":{"location":{"lat":-33.8699262,"lng":151.2093417},"viewport":{"northeast":{"lat":-33.8685772197085,"lng":151.2106906802915},"southwest":{"lat":-33.8712751802915,"lng":151.2079927197085}}}},{"place_id":"ChIJDVSs5D-uEmsRCFlJwaXun9Y","name":"CDK Dental","geo":{"location":{"lat":-33.8695791,"lng":151.2098469},"viewport":{"northeast":{"lat":-33.8682208197085,"lng":151.2110753802915},"southwest":{"lat":-33.8709187802915,"lng":151.2083774197085}}}},{"place_id":"ChIJi9xziGmuEmsRTyohSSlubg8","name":"Sydney Dental Surgeons","geo":{"location":{"lat":-33.86426240000001,"lng":151.2124134},"viewport":{"northeast":{"lat":-33.8629805697085,"lng":151.2139234302915},"southwest":{"lat":-33.8656785302915,"lng":151.2112254697085}}}},{"place_id":"ChIJGbvxw0GuEmsRy6uQ05YSfEE","name":"O'Connell Street Dentists - Dr Robin Turner and Dr Greg McKew","geo":{"location":{"lat":-33.865217,"lng":151.209212},"viewport":{"northeast":{"lat":-33.86393451970851,"lng":151.2106417802915},"southwest":{"lat":-33.86663248029151,"lng":151.2079438197085}}}},{"place_id":"ChIJmWaTSkCuEmsRSiCmxHpHiL4","rating":4.6,"name":"Sydney CBD Dentistry","geo":{"location":{"lat":-33.866149,"lng":151.208791},"viewport":{"northeast":{"lat":-33.8648000197085,"lng":151.2101399802915},"southwest":{"lat":-33.8674979802915,"lng":151.2074420197085}}}},{"place_id":"ChIJvx-eJTeuEmsRaY49LIQcJrY","rating":4.9,"name":"STAR dentistry","geo":{"location":{"lat":-33.8688677,"lng":151.1968153},"viewport":{"northeast":{"lat":-33.8673660697085,"lng":151.1982504802915},"southwest":{"lat":-33.8700640302915,"lng":151.1955525197085}}}},{"place_id":"ChIJtRo7LkKuEmsRomfYlOPdLDI","rating":5,"name":"Sublime Dental","geo":{"location":{"lat":-33.869232,"lng":151.206719},"viewport":{"northeast":{"lat":-33.8678777197085,"lng":151.2081726302915},"southwest":{"lat":-33.8705756802915,"lng":151.2054746697085}}}},{"place_id":"ChIJH6Ef6jyuEmsR61wHMcH-z2w","rating":5,"name":"Our Dentist @ World Square","geo":{"location":{"lat":-33.876706,"lng":151.206198},"viewport":{"northeast":{"lat":-33.8753408697085,"lng":151.2074788302915},"southwest":{"lat":-33.87803883029149,"lng":151.2047808697085}}}},{"place_id":"ChIJsUnl5D2uEmsRpV3l2LVwtpg","rating":4.6,"name":"Hyde Park Dental Care","geo":{"location":{"lat":-33.87426300000001,"lng":151.209586},"viewport":{"northeast":{"lat":-33.8729226697085,"lng":151.2110340302915},"southwest":{"lat":-33.8756206302915,"lng":151.2083360697085}}}},{"place_id":"ChIJWWoDRT6uEmsRx7W8ONnfL8c","rating":4.7,"name":"Bio Compatible Dentistry","geo":{"location":{"lat":-33.871781,"lng":151.208471},"viewport":{"northeast":{"lat":-33.8704279697085,"lng":151.2096800302915},"southwest":{"lat":-33.87312593029149,"lng":151.2069820697085}}}},{"place_id":"ChIJhzPrBkCuEmsRxEy2Yn8-Hkg","rating":5,"name":"Diamond Care Dental","geo":{"location":{"lat":-33.86879,"lng":151.209942},"viewport":{"northeast":{"lat":-33.8673787197085,"lng":151.2111783802915},"southwest":{"lat":-33.8700766802915,"lng":151.2084804197085}}}},{"place_id":"ChIJuSKc-j-uEmsRKx6jZXkka24","name":"CBD Dental","geo":{"location":{"lat":-33.8695714,"lng":151.2098553},"viewport":{"northeast":{"lat":-33.8682128197085,"lng":151.2110801802915},"southwest":{"lat":-33.8709107802915,"lng":151.2083822197085}}}},{"place_id":"ChIJGzISx2quEmsRp9GQzbZU2hs","rating":4.3,"name":"Macquarie Dental","geo":{"location":{"lat":-33.86862499999999,"lng":151.211978},"viewport":{"northeast":{"lat":-33.8672845697085,"lng":151.2134111302915},"southwest":{"lat":-33.86998253029149,"lng":151.2107131697085}}}},{"place_id":"ChIJ_5rvjDuuEmsRvDrJrdLU6AU","name":"Ironside Advanced Dental","geo":{"location":{"lat":-33.8739272,"lng":151.2039186},"viewport":{"northeast":{"lat":-33.8725603697085,"lng":151.2054189302915},"southwest":{"lat":-33.8752583302915,"lng":151.2027209697085}}}},{"place_id":"ChIJ9Z1e5TyuEmsRsPMMvi96Bp0","rating":4.7,"name":"Dental Clinic @ World Tower","geo":{"location":{"lat":-33.8764805,"lng":151.2066268},"viewport":{"northeast":{"lat":-33.8751351697085,"lng":151.2079749302915},"southwest":{"lat":-33.8778331302915,"lng":151.2052769697085}}}},{"place_id":"ChIJqyVNu3WLtAERidk0R7w9kbY","name":"Wynyard Dental Clinic","geo":{"location":{"lat":-33.8668724,"lng":151.2048677},"viewport":{"northeast":{"lat":-33.8655234197085,"lng":151.2062166802915},"southwest":{"lat":-33.8682213802915,"lng":151.2035187197085}}}},{"place_id":"ChIJCVznMQ2uEmsR6dhlG77AHv8","rating":4.2,"name":"The Tooth Place","geo":{"location":{"lat":-33.87293,"lng":151.224062},"viewport":{"northeast":{"lat":-33.87155496970851,"lng":151.2252324802915},"southwest":{"lat":-33.8742529302915,"lng":151.2225345197085}}}},{"place_id":"ChIJFWC9xmquEmsRL2CK5f8VWGQ","rating":5,"name":"Sydney City Dentist","geo":{"location":{"lat":-33.8684356,"lng":151.2118379},"viewport":{"northeast":{"lat":-33.8671035697085,"lng":151.2133537802915},"southwest":{"lat":-33.8698015302915,"lng":151.2106558197085}}}},{"place_id":"ChIJWSvVGz6uEmsRdiGV_rwyZXY","name":"She's Apples Dentistry","geo":{"location":{"lat":-33.873056,"lng":151.209698},"viewport":{"northeast":{"lat":-33.8718087697085,"lng":151.2110310802915},"southwest":{"lat":-33.87450673029149,"lng":151.2083331197085}}}},{"place_id":"ChIJr2bBBkCuEmsRDZ08YKom8qA","rating":4,"name":"Dentistry @ Castlereagh St","geo":{"location":{"lat":-33.8686799,"lng":151.2099032},"viewport":{"northeast":{"lat":-33.8673236697085,"lng":151.2111589802915},"southwest":{"lat":-33.8700216302915,"lng":151.2084610197085}}}},{"place_id":"ChIJI_ga4T6uEmsRjvE5Sz_7gZE","rating":5,"name":"City Dental","geo":{"location":{"lat":-33.8705581,"lng":151.2059605},"viewport":{"northeast":{"lat":-33.8693536697085,"lng":151.2073252302915},"southwest":{"lat":-33.8720516302915,"lng":151.2046272697085}}}},