{"1355":{"health":[{"place_id":"ChIJAQGc6PGtEmsRiEVmASQGQqA","name":"The Children's Clinic","address":"312/3 Waverley St, Bondi Junction NSW 2022, Australia","geo":{"location":{"lat":-33.892661,"lng":151.251687},"viewport":{"northeast":{"lat":-33.89127131970849,"lng":151.2530424302915},"southwest":{"lat":-33.89396928029149,"lng":151.2503444697085}}}},{"place_id":"ChIJqe2L7vCtEmsRGHDJhlhAMms","rating":3.4,"name":"Bondi Junction 7 Day Medical Centre","address":"1 Newland St, Bondi Junction NSW 2022, Australia","geo":{"location":{"lat":-33.891952,"lng":151.247169},"viewport":{"northeast":{"lat":-33.8906198197085,"lng":151.2486329802915},"southwest":{"lat":-33.8933177802915,"lng":151.2459350197085}}}},{"place_id":"ChIJFYk9WouxEmsR74XmhUOcJ1k","rating":5,"name":"Prince of Wales Hospital: Haematology & Oncology Services","address":"Barker St, Randwick NSW 2031, Australia","geo":{"location":{"lat":-33.9173016,"lng":151.239299},"viewport":{"northeast":{"lat":-33.91595261970851,"lng":151.2406479802915},"southwest":{"lat":-33.91865058029151,"lng":151.2379500197085}}}},{"place_id":"ChIJYxWM4COyEmsR0cwKBzkG-GU","rating":3,"name":"Sydney Colorectal Associates - Dr Francis Lam","address":"Suite 17 Level 7 Prince of Wales Private Hospital Barker Street, Randwick NSW 2031, Australia","geo":{"location":{"lat":-33.918072,"lng":151.239052},"viewport":{"northeast":{"lat":-33.91672301970849,"lng":151.2404009802915},"southwest":{"lat":-33.91942098029149,"lng":151.2377030197085}}}},{"place_id":"ChIJL6kODhmyEmsR2cI4nEXXirw","name":"Sydney Orthopaedic Specialists","address":"Level 7, Prince of Wales Private Hospital, Barker Street, Randwick NSW 2031, Australia","geo":{"location":{"lat":-33.9190083,"lng":151.2386986},"viewport":{"northeast":{"lat":-33.91765931970851,"lng":151.2400475802915},"southwest":{"lat":-33.9203572802915,"lng":151.2373496197085}}}},{"place_id":"ChIJL6kODhmyEmsRgu4bASkvRvU","name":"Eastern Suburbs Pain Clinic-Dr Robert Lindeman","address":"Suite 20, L7 Prince Of Wales Private Hospital /Barker St, Randwick NSW 2031, Australia","geo":{"location":{"lat":-33.9209401,"lng":151.2386057},"viewport":{"northeast":{"lat":-33.9195911197085,"lng":151.2399546802915},"southwest":{"lat":-33.92228908029149,"lng":151.2372567197085}}}},{"place_id":"ChIJYxWM4COyEmsRR4j4g2kxvbc","rating":5,"name":"Prince of Wales Private Hospital - Dr Rhonda Farrell","address":"Barker St, Randwick NSW 2031, Australia","geo":{"location":{"lat":-33.9216643,"lng":151.2394168},"viewport":{"northeast":{"lat":-33.9201240697085,"lng":151.2408079802915},"southwest":{"lat":-33.9228220302915,"lng":151.2381100197085}}}},{"place_id":"ChIJ8Xu76N-uEmsR-dqn2nFnhI4","rating":5,"name":"Dr Philip Barnes","address":"North Shore Private Hospital, Suite 1, level 5, Westbourne St, St Leonards NSW 2065, Australia","geo":{"location":{"lat":-33.8215637,"lng":151.1879077},"viewport":{"northeast":{"lat":-33.8202147197085,"lng":151.1892566802915},"southwest":{"lat":-33.82291268029149,"lng":151.1865587197085}}}},{"place_id":"ChIJEf4EBOS5EmsRz3HnwO5MIPI","name":"Alliance Anaesthetics","address":"Suite 13, Level 3, St George Private Hospital, 1 South Street, Kogarah NSW 2217, Australia","geo":{"location":{"lat":-33.9668,"lng":151.136244},"viewport":{"northeast":{"lat":-33.9654510197085,"lng":151.1375929802915},"southwest":{"lat":-33.9681489802915,"lng":151.1348950197085}}}},{"place_id":"ChIJk0oFSk-6EmsRvC40Crer6mE","rating":2.5,"name":"Canterbury Afterhours Clinic At Canterbury Hospital","address":"Canterbury Hospital, 575 Canterbury Rd, Campsie NSW 2194, Australia","geo":{"location":{"lat":-33.920321,"lng":151.09862},"viewport":{"northeast":{"lat":-33.9190841197085,"lng":151.1000382302915},"southwest":{"lat":-33.9217820802915,"lng":151.0973402697085}}}},{"place_id":"ChIJ9a95_IiqEmsR5fEwIGJSNUs","rating":5,"name":"Dee Why Endoscopy Unit","address":"Level 4, Suite 4402, Dee Why Grand, 834 Pittwater Road, Dee Why NSW 2099, Australia","geo":{"location":{"lat":-33.7550998,"lng":151.283951},"viewport":{"northeast":{"lat":-33.7537052197085,"lng":151.2852238302915},"southwest":{"lat":-33.7564031802915,"lng":151.2825258697085}}}},{"place_id":"ChIJ8-eoV2ffYIYRISu-XxV2Xxc","rating":2.5,"name":"Doctors Hospital of Laredo","address":"10700 McPherson Rd, Laredo, TX 78045, United States","geo":{"location":{"lat":27.6069732,"lng":-99.4785553},"viewport":{"northeast":{"lat":27.6083221802915,"lng":-99.4772063197085},"southwest":{"lat":27.60562421970849,"lng":-99.4799042802915}}}},{"place_id":"ChIJy39YuxKmEmsRHmC6WMAObEw","rating":4.3,"name":"Macquarie University Hospital","address":"3 Technology Pl, Macquarie University NSW 2109, Australia","geo":{"location":{"lat":-33.7736729,"lng":151.1180219},"viewport":{"northeast":{"lat":-33.7720686197085,"lng":151.1193002802915},"southwest":{"lat":-33.7747665802915,"lng":151.1166023197085}}}},{"place_id":"ChIJ17cWL3dt-TIRTWsiYVtqEJ0","name":"Davao Doctor's Hospital, Surgery Clinic - Rolley Rey P. Lobo, MD","address":"Room 505, Medical Tower Davao Doctor's Hospital, 118 E Quirino Avenue,, Davao City, 8000 Davao del Sur, Philippines","geo":{"location":{"lat":7.070166,"lng":125.60465},"viewport":{"northeast":{"lat":7.071514980291503,"lng":125.6059989802915},"southwest":{"lat":7.068817019708498,"lng":125.6033010197085}}}},{"place_id":"ChIJeT-k__i32YgRDbvEILFzasc","rating":3.5,"name":"Doctors Hospital","address":"5000 University Dr, Coral Gables, FL 33146, United States","geo":{"location":{"lat":25.7242591,"lng":-80.27418440000001},"viewport":{"northeast":{"lat":25.72565195,"lng":-80.2724788},"southwest":{"lat":25.72286455,"lng":-80.2752408}}}},{"place_id":"ChIJ0xwUOOTHlzMR1rum2onnxfk","name":"Sylvia R. Calingo, MD @ MPCP St. Therese of Lisiuex Doctors Hospital","address":"MPCP St. Therese of Lisiuex Doctors Hospital Armal Compound, C. Raymundo Avenue, Maybunga, Pasig City, Philippines","geo":{"location":{"lat":14.580806,"lng":121.087183},"viewport":{"northeast":{"lat":14.58215498029151,"lng":121.0885319802915},"southwest":{"lat":14.5794570197085,"lng":121.0858340197085}}}},{"place_id":"ChIJqzKQAZO02IcRe8T3hNCmuyo","rating":3,"name":"Barnes-Jewish Hospital","address":"1 Barnes Jewish Hospital Plaza, St. Louis, MO 63110, United States","geo":{"location":{"lat":38.63543629999999,"lng":-90.2635961},"viewport":{"northeast":{"lat":38.6396077,"lng":-90.26171749999997},"southwest":{"lat":38.6335537,"lng":-90.2659407}}}},{"place_id":"ChIJ08cqcLDT-YgRhm4qpWzpLVU","rating":3.1,"name":"Doctors Hospital","address":"3651 Wheeler Rd, Augusta, GA 30909, United States","geo":{"location":{"lat":33.4829634,"lng":-82.09018069999999},"viewport":{"northeast":{"lat":33.48431238029149,"lng":-82.08883171970848},"southwest":{"lat":33.48161441970849,"lng":-82.0915296802915}}}},{"place_id":"ChIJKfvNlVA2SogRJ957IegBEzI","name":"Stonewall Jackson Memorial Hospital - Physician Office Building","address":"29 Hospital Plaza, Weston, WV 26452, United States","geo":{"location":{"lat":39.0487589,"lng":-80.491636},"viewport":{"northeast":{"lat":39.0500226302915,"lng":-80.4903889197085},"southwest":{"lat":39.0473246697085,"lng":-80.4930868802915}}}},{"place_id":"ChIJhamAg6luhVQRS3UiVnKr_oM","rating":2.5,"name":"Skagit Valley Hospital","address":"300 Hospital Parkway, Mt Vernon, WA 98274, United States","geo":{"location":{"lat":48.418416,"lng":-122.324252},"viewport":{"northeast":{"lat":48.4197649802915,"lng":-122.3229030197085},"southwest":{"lat":48.4170670197085,"lng":-122.3256009802915}}}}],"fitness":[{"place_id":"ChIJ_bVZG_GtEmsR_SR1_QCQ6Ws","name":"Curves Gym Bondi Junction","address":"22/171-173 Oxford St, Bondi Junction NSW 2022, Australia","geo":{"location":{"lat":-33.892228,"lng":151.24851},"viewport":{"northeast":{"lat":-33.8907467197085,"lng":151.2498792302915},"southwest":{"lat":-33.89344468029149,"lng":151.2471812697085}}}},{"place_id":"ChIJwyxeWfGtEmsRAu3yR6L_k5E","rating":3.7,"name":"Anytime Fitness Bondi Junction","address":"2/100 Ebley St, Bondi Junction NSW 2022, Australia","geo":{"location":{"lat":-33.8934826,"lng":151.2506546},"viewport":{"northeast":{"lat":-33.8923303697085,"lng":151.2519609302915},"southwest":{"lat":-33.8950283302915,"lng":151.2492629697085}}}},{"place_id":"ChIJ1VywsPCtEmsRVg0DDWvtit4","rating":5,"name":"Bondi Gym","address":"32 Ebley St, Bondi Junction NSW 2022, Australia","geo":{"location":{"lat":-33.893152,"lng":151.246293},"viewport":{"northeast":{"lat":-33.8918498697085,"lng":151.2476327802915},"southwest":{"lat":-33.8945478302915,"lng":151.2449348197085}}}},{"place_id":"ChIJDyjnRvGtEmsRlA7MfOraZIc","rating":4.8,"name":"8 LIMBS combat + conditioning","address":"1, 38-40 Bronte Rd, Bondi Junction NSW 2022, Australia","geo":{"location":{"lat":-33.89356240000001,"lng":151.2497518},"viewport":{"northeast":{"lat":-33.8922002697085,"lng":151.2509927302915},"southwest":{"lat":-33.8948982302915,"lng":151.2482947697085}}}},{"place_id":"ChIJ5VakOPKtEmsRH5MMrFv_8ow","rating":4.2,"name":"Plus Fitness 24/7 Bondi Junction","address":"251 Oxford St, Bondi Junction NSW 2022, Australia","geo":{"location":{"lat":-33.89165549999999,"lng":151.2524141},"viewport":{"northeast":{"lat":-33.8901884197085,"lng":151.2536763302915},"southwest":{"lat":-33.89288638029149,"lng":151.2509783697085}}}},{"place_id":"ChIJU3ei8vCtEmsRbblqIkASy5Q","rating":5,"name":"Bronte Fitness","address":"1/360 Oxford St, Bondi Junction NSW 2022, Australia","geo":{"location":{"lat":-33.891384,"lng":151.246768},"viewport":{"northeast":{"lat":-33.89013526970849,"lng":151.2480758302915},"southwest":{"lat":-33.89283323029149,"lng":151.2453778697085}}}},{"place_id":"ChIJD8unEvGtEmsR8KhaFRSLmOM","rating":3.6,"name":"Fitness First Bondi Spring St Platinum","address":"110-116 Spring St, Bondi Junction NSW 2022, Australia","geo":{"location":{"lat":-33.8924831,"lng":151.2491715},"viewport":{"northeast":{"lat":-33.8911904697085,"lng":151.2505276802915},"southwest":{"lat":-33.8938884302915,"lng":151.2478297197085}}}},{"place_id":"ChIJ7-kNqfGtEmsRkDfSS8mLRY8","rating":5,"name":"originofenergy","address":"422 Oxford St, Bondi Junction NSW 2022, Australia","geo":{"location":{"lat":-33.89105679999999,"lng":151.2480947},"viewport":{"northeast":{"lat":-33.8897078197085,"lng":151.2494436802915},"southwest":{"lat":-33.8924057802915,"lng":151.2467457197085}}}},{"place_id":"ChIJaY9jfQqyEmsRtR7E3-kGEYI","rating":4.6,"name":"Fresh Fitness","address":"1/211 Bronte Rd, Waverley NSW 2024, Australia","geo":{"location":{"lat":-33.9010866,"lng":151.253826},"viewport":{"northeast":{"lat":-33.89970426970849,"lng":151.2552623802915},"southwest":{"lat":-33.90240223029149,"lng":151.2525644197085}}}},{"place_id":"ChIJq4Z_HvStEmsRsbrwEIMwAU4","rating":5,"name":"Damien Kelly Fitness Studio","address":"1/118 Bronte Rd, Bondi Junction NSW 2022, Australia","geo":{"location":{"lat":-33.89571720000001,"lng":151.2512847},"viewport":{"northeast":{"lat":-33.8944321197085,"lng":151.2524923802915},"southwest":{"lat":-33.8971300802915,"lng":151.2497944197085}}}},{"place_id":"ChIJg28l7I2tEmsRUYgU5TMnXbk","rating":5,"name":"AGOGA","address":"164 Bondi Rd, Bondi NSW 2026, Australia","geo":{"location":{"lat":-33.893359,"lng":151.261577},"viewport":{"northeast":{"lat":-33.8921198197085,"lng":151.2628692302915},"southwest":{"lat":-33.8948177802915,"lng":151.2601712697085}}}},{"place_id":"ChIJyxEb7oytEmsRsexTLD0sID0","name":"Waverley Park Outdoor Gym","address":"21/20 Park Parade, Bondi Junction NSW 2022, Australia","geo":{"location":{"lat":-33.8951275,"lng":151.2590334},"viewport":{"northeast":{"lat":-33.8937785197085,"lng":151.2603823802915},"southwest":{"lat":-33.8964764802915,"lng":151.2576844197085}}}},{"place_id":"ChIJxQMxMBqyEmsR7EZExO7aI5k","name":"Blackbeltpro Gym","address":"1/115 Avoca St, Randwick NSW 2031, Australia","geo":{"location":{"lat":-33.912442,"lng":151.2428831},"viewport":{"northeast":{"lat":-33.9110291197085,"lng":151.2441034302915},"southwest":{"lat":-33.9137270802915,"lng":151.2414054697085}}}},{"place_id":"ChIJv9n6xeGtEmsR-K_KyKaeCzo","rating":4.6,"name":"Anytime Fitness Edgecliff","address":"179-191 New South Head Rd, Edgecliff NSW 2027, Australia","geo":{"location":{"lat":-33.87833329999999,"lng":151.2343894},"viewport":{"northeast":{"lat":-33.8768793697085,"lng":151.2357906302915},"southwest":{"lat":-33.8795773302915,"lng":151.2330926697085}}}},{"place_id":"ChIJWdf9lPCtEmsR4Uiw7WFqwsU","rating":5,"name":"Studio Athletica","address":"702/28 Spring St, Bondi Junction NSW 2022, Australia","geo":{"location":{"lat":-33.8918821,"lng":151.2465388},"viewport":{"northeast":{"lat":-33.8907017197085,"lng":151.2478698802915},"southwest":{"lat":-33.89339968029149,"lng":151.2451719197085}}}},{"place_id":"ChIJs9fqnPGtEmsR0l7L0C_CkgU","rating":3,"name":"lululemon","address":"500 Oxford St, Shop 4015, Level 4, Bondi Junction NSW 2022, Australia","geo":{"location":{"lat":-33.8916256,"lng":151.2508784},"viewport":{"northeast":{"lat":-33.8902766197085,"lng":151.2522273802915},"southwest":{"lat":-33.89297458029149,"lng":151.2495294197085}}}},{"place_id":"ChIJ2wbW3RiyEmsRO7SoK5IPXsY","rating":2.9,"name":"Anytime Fitness Randwick","address":"ANZ ATM Royal Randwick Shopping Centre, 73 Belmore Rd, Randwick NSW 2031, Australia","geo":{"location":{"lat":-33.9154072,"lng":151.2406596},"viewport":{"northeast":{"lat":-33.9140582197085,"lng":151.2420085802915},"southwest":{"lat":-33.9167561802915,"lng":151.2393106197085}}}},{"place_id":"ChIJs1qj9QauEmsRTWZFGQOsnZs","rating":5,"name":"Snap Fitness Paddington","address":"387-389 Oxford St, Paddington NSW 2021, Australia","geo":{"location":{"lat":-33.8867266,"lng":151.2295908},"viewport":{"northeast":{"lat":-33.8853474197085,"lng":151.2309710302915},"southwest":{"lat":-33.8880453802915,"lng":151.2282730697085}}}},{"place_id":"ChIJ8S4Nmg2uEmsRH7D6jgiV9Is","rating":3.5,"name":"Anytime Fitness Potts Point","address":"Lower Ground, 2-14 Kings Cross Rd, Potts Point NSW 2011, Australia","geo":{"location":{"lat":-33.87558500000001,"lng":151.2226882},"viewport":{"northeast":{"lat":-33.8742918197085,"lng":151.2240101302915},"southwest":{"lat":-33.8769897802915,"lng":151.2213121697085}}}},{"place_id":"ChIJ5YM1-4-tEmsRXRjOL_UF0fQ","rating":5,"name":"Bondi Boxing Gym","address":"284 Bondi Rd, Bondi NSW 2026, Australia","geo":{"location":{"lat":-33.8943453,"lng":151.2678198},"viewport":{"northeast":{"lat":-33.8930909697085,"lng":151.2691488802915},"southwest":{"lat":-33.89578893029149,"lng":151.2664509197085}}}}],"alcohol":[{"place_id":"ChIJj2SUPPGtEmsRUx4A8IpdYy0","rating":1,"name":"LiquorLand Bondi Junction","address":"Shop 20 Eastgate Centre, Ebley Street, Bondi Junction, NSW, Bondi Junction NSW 2022, Australia","geo":{"location":{"lat":-33.8929304,"lng":151.2480334},"viewport":{"northeast":{"lat":-33.8914133197085,"lng":151.2500275302915},"southwest":{"lat":-33.8941112802915,"lng":151.2473295697085}}}},{"place_id":"ChIJr0DucfGtEmsRHPQnJjkYpjQ","rating":2.6,"name":"The Bottle-O Tea Gardens Hotel","address":"2-4 Bronte Rd, Bondi Junction NSW 2022, Australia","geo":{"location":{"lat":-33.89252,"lng":151.2500054},"viewport":{"northeast":{"lat":-33.8911533697085,"lng":151.2512180802915},"southwest":{"lat":-33.8938513302915,"lng":151.2485201197085}}}},{"place_id":"ChIJg9-xfAqyEmsR0bfiCJhNhLM","rating":4.7,"name":"The Robin Hood Hotel Bottleshop","address":"203 Bronte Rd, Waverley NSW 2024, Australia","geo":{"location":{"lat":-33.9011504,"lng":151.2536626},"viewport":{"northeast":{"lat":-33.8997367197085,"lng":151.2551810302915},"southwest":{"lat":-33.9024346802915,"lng":151.2524830697085}}}},{"place_id":"ChIJYwxu0uutEmsRhkfdUbYq57k","rating":4.8,"name":"Bellevue Hill Bottle Shop","address":"100A Bellevue Rd, Bellevue Hill NSW 2023, Australia","geo":{"location":{"lat":-33.88230699999999,"lng":151.2516491},"viewport":{"northeast":{"lat":-33.8808888697085,"lng":151.2530121802915},"southwest":{"lat":-33.88358683029149,"lng":151.2503142197085}}}},{"place_id":"ChIJsY3RIPKtEmsRXiDYjXDO9Rw","rating":5,"name":"BWS Bondi Junction","address":"Westfield Shopping Centre, 530 Oxford St, Bondi Junction NSW 2022, Australia","geo":{"location":{"lat":-33.89129700000001,"lng":151.251535},"viewport":{"northeast":{"lat":-33.8901186197085,"lng":151.2530422302915},"southwest":{"lat":-33.89281658029149,"lng":151.2503442697085}}}},{"place_id":"ChIJlSeuHPSuEmsR8HlW3WHHhOA","rating":4,"name":"Commodore Hotel Bottle Shop","address":"206 Blues Point Rd, McMahons Point NSW 2060, Australia","geo":{"location":{"lat":-33.8428017,"lng":151.2047783},"viewport":{"northeast":{"lat":-33.8415002697085,"lng":151.2062181802915},"southwest":{"lat":-33.8441982302915,"lng":151.2035202197085}}}},{"place_id":"ChIJgdyBV0CuEmsRbPfBKcO7jr4","rating":2.8,"name":"The Bottle Shop","address":"1 Palings Lane, 320 George Street, Sydney NSW 2000, Australia","geo":{"location":{"lat":-33.8663179,"lng":151.2076574},"viewport":{"northeast":{"lat":-33.8649946197085,"lng":151.2087893802915},"southwest":{"lat":-33.8676925802915,"lng":151.2060914197085}}}},{"place_id":"ChIJrZQjBCmvEmsR2Bl63SM-Aw4","name":"Bottle Shops","address":"128 Hampden Rd, Artarmon NSW 2064, Australia","geo":{"location":{"lat":-33.808171,"lng":151.1835067},"viewport":{"northeast":{"lat":-33.8067562197085,"lng":151.1849329302915},"southwest":{"lat":-33.8094541802915,"lng":151.1822349697085}}}},{"place_id":"ChIJmSDxqZStEmsRWLc50T774ds","rating":3,"name":"Platinum Liquor Bellevue Hill","address":"25A Bellevue Rd, Bellevue Hill NSW 2023, Australia","geo":{"location":{"lat":-33.8860379,"lng":151.257345},"viewport":{"northeast":{"lat":-33.8847418197085,"lng":151.2586672302915},"southwest":{"lat":-33.8874397802915,"lng":151.2559692697085}}}},{"place_id":"ChIJoekUu-GtEmsRlYRmJbR_SfY","rating":4.7,"name":"BWS Edgecliff","address":"203-233 New South Head Rd, Edgecliff NSW 2057, Australia","geo":{"location":{"lat":-33.8788508,"lng":151.2356516},"viewport":{"northeast":{"lat":-33.87746071970849,"lng":151.2370107302915},"southwest":{"lat":-33.88015868029149,"lng":151.2343127697085}}}},{"place_id":"ChIJ2Rh1ghmyEmsRn6uZ_0sS_2A","name":"Liquor Stax Australia Pty Ltd.","address":"147 Avoca St, Randwick NSW 2031, Australia","geo":{"location":{"lat":-33.91339300000001,"lng":151.242313},"viewport":{"northeast":{"lat":-33.91201786970851,"lng":151.2434983302915},"southwest":{"lat":-33.91471583029151,"lng":151.2408003697085}}}},{"place_id":"ChIJ49J3_PytEmsRkJG2h0bNDzc","rating":4,"name":"Moncur Cellars","address":"60 Moncur St, Woollahra NSW 2025, Australia","geo":{"location":{"lat":-33.888148,"lng":151.236836},"viewport":{"northeast":{"lat":-33.8867757197085,"lng":151.2383054302915},"southwest":{"lat":-33.8894736802915,"lng":151.2356074697085}}}},{"place_id":"ChIJYf9G9Q6yEmsRl110vj8VRYk","rating":3.8,"name":"Chambers Cellars Randwick","address":"99 Frenchmans Rd, Randwick NSW 2031, Australia","geo":{"location":{"lat":-33.9070553,"lng":151.2495087},"viewport":{"northeast":{"lat":-33.90575741970849,"lng":151.2509044802915},"southwest":{"lat":-33.90845538029149,"lng":151.2482065197085}}}},{"place_id":"ChIJ--U5uKOxEmsRpgvoshSd9F0","name":"Liquor Stax Outlets - Lakes Hotel","address":"307 Gardeners Rd, Rosebery NSW 2018, Australia","geo":{"location":{"lat":-33.92294680000001,"lng":151.2065291},"viewport":{"northeast":{"lat":-33.9215457197085,"lng":151.2078882802915},"southwest":{"lat":-33.9242436802915,"lng":151.2051903197085}}}},{"place_id":"ChIJ4fR-fgqyEmsRjTSQHU-YTNM","name":"Liquor Stax Australia Pty Ltd.","address":"203 Bronte Rd, Waverley NSW 2024, Australia","geo":{"location":{"lat":-33.9008637,"lng":151.2537926},"viewport":{"northeast":{"lat":-33.8994955197085,"lng":151.2551917302915},"southwest":{"lat":-33.9021934802915,"lng":151.2524937697085}}}},{"place_id":"ChIJ3bU2cwauEmsR6NngGsmuKZc","rating":4.1,"name":"BWS Oxford Street Paddington","address":"286 Oxford St, Paddington NSW 2021, Australia","geo":{"location":{"lat":-33.885131,"lng":151.228207},"viewport":{"northeast":{"lat":-33.8839042197085,"lng":151.2294525802915},"southwest":{"lat":-33.8866021802915,"lng":151.2267546197085}}}},{"place_id":"ChIJlbAGUPutEmsRhjo4Ki5zYfU","rating":5,"name":"Jim's Cellars, Woollahra","address":"41 Ocean St, Woollahra NSW 2025, Australia","geo":{"location":{"lat":-33.8874702,"lng":151.2400919},"viewport":{"northeast":{"lat":-33.8861430197085,"lng":151.2413176302915},"southwest":{"lat":-33.8888409802915,"lng":151.2386196697085}}}},{"place_id":"ChIJkQEfURauEmsR4JQMPQV_N1k","rating":3.2,"name":"BWS Liverpool Street Darlinghurst","address":"140 Liverpool St, Darlinghurst NSW 2010, Australia","geo":{"location":{"lat":-33.8768412,"lng":151.2126894},"viewport":{"northeast":{"lat":-33.8755298197085,"lng":151.2140325302915},"southwest":{"lat":-33.8782277802915,"lng":151.2113345697085}}}},{"place_id":"ChIJ19juco6tEmsRauZ7w---biw","rating":4.2,"name":"Kemenys Food & Liquor Store","address":"137/147 Bondi Rd, Bondi NSW 2026, Australia","geo":{"location":{"lat":-33.893939,"lng":151.263194},"viewport":{"northeast":{"lat":-33.8925402697085,"lng":151.2645544802915},"southwest":{"lat":-33.8952382302915,"lng":151.2618565197085}}}},{"place_id":"ChIJ0Sg6HBayEmsRniDyzJPGj-o","rating":4,"name":"BWS Coogee Coogee Bay Road","address":"116 Coogee Bay Rd, Coogee NSW 2034, Australia","geo":{"location":{"lat":-33.9195671,"lng":151.2498863},"viewport":{"northeast":{"lat":-33.9182062197085,"lng":151.2511530802915},"southwest":{"lat":-33.9209041802915,"lng":151.2484551197085}}}}],"university":[{"place_id":"ChIJE4XxY_CtEmsR1TD7qN2goPM","rating":5,"name":"Australian Friends of the Hebrew University Jerusalem","address":"5/59-75 Grafton St, Bondi Junction NSW 2022, Australia","geo":{"location":{"lat":-33.890722,"lng":151.24622},"viewport":{"northeast":{"lat":-33.8893314197085,"lng":151.2474807802915},"southwest":{"lat":-33.89202938029149,"lng":151.2447828197085}}}},{"place_id":"ChIJCw8u1w-uEmsRGuOQ28f66Gk","rating":5,"name":"University of Tasmania Sydney, Darlinghurst campus","address":"Education Centre, 1 Leichhardt St, Darlinghurst NSW 2010, Australia","geo":{"location":{"lat":-33.8805262,"lng":151.2218878},"viewport":{"northeast":{"lat":-33.87909226970849,"lng":151.2234332802915},"southwest":{"lat":-33.88179023029149,"lng":151.2207353197085}}}},{"place_id":"ChIJp8ECA4uxEmsRoAd6A2l9AR0","rating":4.5,"name":"UNSW Sydney","address":"Sydney NSW 2052, Australia","geo":{"location":{"lat":-33.917347,"lng":151.2312675},"viewport":{"northeast":{"lat":-33.9127803,"lng":151.2411959},"southwest":{"lat":-33.92234029999999,"lng":151.2211839}}}},{"place_id":"ChIJedPIEBeuEmsRWRT29x-A5es","rating":4.1,"name":"Charles Sturt University Study Centres Sydney","address":"1/63 Oxford St, Darlinghurst NSW 2010, Australia","geo":{"location":{"lat":-33.8786466,"lng":151.2136407},"viewport":{"northeast":{"lat":-33.8772498697085,"lng":151.2151157302915},"southwest":{"lat":-33.8799478302915,"lng":151.2124177697085}}}},{"place_id":"ChIJ2fGeq9SxEmsRwAd6A2l9AR0","rating":4.2,"name":"The University of Sydney","address":"New South Wales 2006, Australia","geo":{"location":{"lat":-33.888584,"lng":151.1873473},"viewport":{"northeast":{"lat":-33.8815948,"lng":151.19708565},"southwest":{"lat":-33.89449599999999,"lng":151.18035385}}}},{"place_id":"ChIJdbFmD-SvEmsRE5EQ6tsAKTs","rating":3.5,"name":"University of Tasmania Sydney, Rozelle Campus","address":"Church St, Lilyfield NSW 2040, Australia","geo":{"location":{"lat":-33.87037000000001,"lng":151.157022},"viewport":{"northeast":{"lat":-33.8692470697085,"lng":151.1584599802915},"southwest":{"lat":-33.8719450302915,"lng":151.1557620197085}}}},{"place_id":"ChIJtf9d2ECuEmsR9ZHYETjQ9ao","rating":5,"name":"Western Sydney University Sydney City Campus","address":"Level 4/255 Elizabeth St, Sydney NSW 2000, Australia","geo":{"location":{"lat":-33.87571239999999,"lng":151.2092036},"viewport":{"northeast":{"lat":-33.87438066970849,"lng":151.2107506302915},"southwest":{"lat":-33.87707863029149,"lng":151.2080526697085}}}},{"place_id":"ChIJgYpadiiuEmsR0jjbvo7J2Qw","rating":3.9,"name":"The University of Notre Dame Australia, Darlinghurst","address":"160 Oxford St, Darlinghurst NSW 2010, Australia","geo":{"location":{"lat":-33.8810546,"lng":151.2187066},"viewport":{"northeast":{"lat":-33.8797043697085,"lng":151.2200692302915},"southwest":{"lat":-33.8824023302915,"lng":151.2173712697085}}}},{"place_id":"ChIJ15sqRR2yEmsRc1OcszMJI4Y","rating":3.4,"name":"UNSW Randwick Campus","address":"22-32 King St, Randwick NSW 2031, Australia","geo":{"location":{"lat":-33.9064636,"lng":151.2345473},"viewport":{"northeast":{"lat":-33.90521286970849,"lng":151.2358747802915},"southwest":{"lat":-33.90791083029149,"lng":151.2331768197085}}}},{"place_id":"ChIJPdMIND6uEmsRnt9cUwCabdY","rating":3,"name":"The University of Sydney","address":"17/133 Castlereagh St, Sydney NSW 2000, Australia","geo":{"location":{"lat":-33.8715262,"lng":151.2090603},"viewport":{"northeast":{"lat":-33.8701908697085,"lng":151.2105700802915},"southwest":{"lat":-33.87288883029149,"lng":151.2078721197085}}}},{"place_id":"ChIJx65FIkCuEmsR9rtPPPApEdg","rating":3,"name":"Western Sydney University","address":"48 Martin Pl, Sydney NSW 2000, Australia","geo":{"location":{"lat":-33.867374,"lng":151.2103352},"viewport":{"northeast":{"lat":-33.86618671970849,"lng":151.2113779802915},"southwest":{"lat":-33.86888468029149,"lng":151.2086800197085}}}},{"place_id":"ChIJp8AsWyCyEmsRyloZIsthFmM","rating":5,"name":"UNSW Medicine","address":"Wallace Wurth Building, 18 High St, Kensington NSW 2052, Australia","geo":{"location":{"lat":-33.9172098,"lng":151.2360412},"viewport":{"northeast":{"lat":-33.9158879697085,"lng":151.2375550802915},"southwest":{"lat":-33.9185859302915,"lng":151.2348571197085}}}},{"place_id":"ChIJQ6G0WyauEmsRV6mPvbIk4hY","rating":4.3,"name":"University of Technology Sydney","address":"15 Broadway, Ultimo NSW 2007, Australia","geo":{"location":{"lat":-33.88323759999999,"lng":151.2004942},"viewport":{"northeast":{"lat":-33.88136545000001,"lng":151.2040561},"southwest":{"lat":-33.88521124999999,"lng":151.1964021}}}},{"place_id":"ChIJS_nmIKC6EmsRcm7nR2orH3c","rating":3.2,"name":"Macquarie University Summer Hill Outpatient Clinic & Research Centre","address":"40 Lackey St, Summer Hill NSW 2130, Australia","geo":{"location":{"lat":-33.8914395,"lng":151.1383105},"viewport":{"northeast":{"lat":-33.8901031197085,"lng":151.1395624302915},"southwest":{"lat":-33.8928010802915,"lng":151.1368644697085}}}},{"place_id":"ChIJK5EQdCiuEmsRwBpV_KVPuUA","rating":4,"name":"The University of Notre Dame Australia, Sydney Campus, Chippendale, New South Wales","address":"104 Broadway, Chippendale NSW 2008, Australia","geo":{"location":{"lat":-33.8848931,"lng":151.1982848},"viewport":{"northeast":{"lat":-33.8832693697085,"lng":151.1996212802915},"southwest":{"lat":-33.8859673302915,"lng":151.1969233197085}}}},{"place_id":"ChIJaUEeDV2uEmsRHjQRR2GNOcc","rating":4.4,"name":"Torrens University Australia, The Rocks Campus, Sydney","address":"5/1 Hickson Rd, Sydney NSW 2000, Australia","geo":{"location":{"lat":-33.8579868,"lng":151.2093471},"viewport":{"northeast":{"lat":-33.85648481970851,"lng":151.2106064802915},"southwest":{"lat":-33.8591827802915,"lng":151.2079085197085}}}},{"place_id":"ChIJ8X6v7fGuEmsRylScj-lcOQg","rating":3.8,"name":"Australian Catholic University, North Sydney Campus","address":"40 Edward St, North Sydney NSW 2060, Australia","geo":{"location":{"lat":-33.8376628,"lng":151.2035099},"viewport":{"northeast":{"lat":-33.83570459999999,"lng":151.20745535},"southwest":{"lat":-33.8402294,"lng":151.20219475}}}},{"place_id":"ChIJ50QsiTyuEmsRs7IAnjUz4Qg","rating":3.3,"name":"Victoria University, VU Sydney Campus","address":"160 Sussex St, Sydney NSW 2000, Australia","geo":{"location":{"lat":-33.8697767,"lng":151.2040035},"viewport":{"northeast":{"lat":-33.8684371697085,"lng":151.2052158302915},"southwest":{"lat":-33.87113513029149,"lng":151.2025178697085}}}},{"place_id":"ChIJeSj6qSauEmsRrzx4VR45nPs","rating":5,"name":"Charles Darwin University, Sydney Campus","address":"10, 815 George St, Haymarket NSW 2043, Australia","geo":{"location":{"lat":-33.8828683,"lng":151.203438},"viewport":{"northeast":{"lat":-33.8815084697085,"lng":151.2051016302915},"southwest":{"lat":-33.8842064302915,"lng":151.2024036697085}}}},{"place_id":"ChIJlWgSXzCuEmsRnox66i6yMQ8","name":"Torrens University Sydney, Pyrmont Campus","address":"5/235 Pyrmont St, Pyrmont NSW 2009, Australia","geo":{"location":{"lat":-33.8733476,"lng":151.1969254},"viewport":{"northeast":{"lat":-33.8720020697085,"lng":151.1982791802915},"southwest":{"lat":-33.8747000302915,"lng":151.1955812197085}}}}],"parks":[{"place_id":"ChIJa8DJ1PyxEmsRApdIJiwwWbY","rating":4.6,"name":"Centennial Parklands","address":"Grand Dr, Centennial Park NSW 2021, Australia","geo":{"location":{"lat":-33.9016126,"lng":151.2429711},"viewport":{"northeast":{"lat":-33.9002636197085,"lng":151.2443200802915},"southwest":{"lat":-33.9029615802915,"lng":151.2416221197085}}}},{"place_id":"ChIJo7T8rQKuEmsRs0vyzNCWm9g","rating":4,"name":"Tramway Oval","address":"11 Anzac Parade, Moore Park NSW 2021, Australia","geo":{"location":{"lat":-33.8919436,"lng":151.2222472},"viewport":{"northeast":{"lat":-33.8906810197085,"lng":151.2230095802915},"southwest":{"lat":-33.89337898029149,"lng":151.2203116197085}}}},{"place_id":"ChIJGbo71wquEmsRgPvx-Wh9AQ8","rating":4.5,"name":"Rushcutters Bay Park","address":"New South Head Rd, Darling Point NSW 2027, Australia","geo":{"location":{"lat":-33.8750806,"lng":151.2303418},"viewport":{"northeast":{"lat":-33.8743975197085,"lng":151.2314865802915},"southwest":{"lat":-33.87709548029149,"lng":151.2287886197085}}}},{"place_id":"ChIJ0yioCEKuEmsRkPHx-Wh9AQ8","rating":4.4,"name":"Macquarie Place Park","address":"50 Bridge St, Sydney NSW 2000, Australia","geo":{"location":{"lat":-33.8629498,"lng":151.2100825},"viewport":{"northeast":{"lat":-33.8618199697085,"lng":151.2115753302915},"southwest":{"lat":-33.8645179302915,"lng":151.2088773697085}}}},{"place_id":"ChIJn-xCjUuwEmsRTt-daMh7hC8","rating":4.6,"name":"Sydney Park","address":"Sydney Park Rd, St Peters NSW 2044, Australia","geo":{"location":{"lat":-33.90983370000001,"lng":151.1851663},"viewport":{"northeast":{"lat":-33.9034843,"lng":151.19332745},"southwest":{"lat":-33.9186467,"lng":151.17716765}}}},{"place_id":"ChIJqVW1dIyuEmsRsOTx-Wh9AQ8","rating":4.7,"name":"Milson Park","address":"McDougall St, Kirribilli NSW 2061, Australia","geo":{"location":{"lat":-33.8441847,"lng":151.214418},"viewport":{"northeast":{"lat":-33.8430459197085,"lng":151.2165835},"southwest":{"lat":-33.8457438802915,"lng":151.2126171}}}},{"place_id":"ChIJ_f2STU6uEmsRSt4tsWdD7xM","rating":4.4,"name":"Thornton Park","address":"1 Darling St, Balmain East NSW 2041, Australia","geo":{"location":{"lat":-33.8568936,"lng":151.1954107},"viewport":{"northeast":{"lat":-33.8556350197085,"lng":151.1967779302915},"southwest":{"lat":-33.8583329802915,"lng":151.1940799697085}}}},{"place_id":"ChIJbw_ggs2vEmsRb8xy4RrG4RE","rating":4.6,"name":"Blackwattle Bay Park","address":"53 Leichhardt St, Glebe NSW 2037, Australia","geo":{"location":{"lat":-33.8720274,"lng":151.1839467},"viewport":{"northeast":{"lat":-33.8707344197085,"lng":151.1853626302915},"southwest":{"lat":-33.8734323802915,"lng":151.1826646697085}}}},{"place_id":"ChIJyxinz6mxEmsRPxlZ8QEocl4","rating":3.9,"name":"Mascot Memorial Park","address":"149 Coward St, Mascot NSW 2020, Australia","geo":{"location":{"lat":-33.9254805,"lng":151.1938984},"viewport":{"northeast":{"lat":-33.9240933197085,"lng":151.1956102302915},"southwest":{"lat":-33.92679128029149,"lng":151.1929122697085}}}},{"place_id":"ChIJU9cxjLeLtAERrnJyHCfeKb8","rating":4.3,"name":"Malabar Headland National Park","address":"Franklin St, Malabar NSW 2036, Australia","geo":{"location":{"lat":-33.9649327,"lng":151.261584},"viewport":{"northeast":{"lat":-33.9635837197085,"lng":151.2629329802915},"southwest":{"lat":-33.9662816802915,"lng":151.2602350197085}}}},{"place_id":"ChIJcTcj_uSvEmsRgNnx-Wh9AQ8","rating":4.4,"name":"Leichhardt Park","address":"Glover St, Sydney NSW 2040, Australia","geo":{"location":{"lat":-33.8686071,"lng":151.1547712},"viewport":{"northeast":{"lat":-33.86739816970849,"lng":151.1577508},"southwest":{"lat":-33.87009613029149,"lng":151.1517823999999}}}},{"place_id":"ChIJSY7c-JG6EmsR05LcZ73lLMg","rating":5,"name":"Peace Park Car Park, Ashbury","address":"Trevenar St, Ashbury NSW 2193, Australia","geo":{"location":{"lat":-33.8975522,"lng":151.1229888},"viewport":{"northeast":{"lat":-33.8961407697085,"lng":151.1242927302915},"southwest":{"lat":-33.8988387302915,"lng":151.1215947697085}}}},{"place_id":"ChIJvzAk0OSvEmsRmeyXiG9I-oQ","rating":4.2,"name":"Leichhardt Park Playground","address":"Lilyfield NSW 2040, Australia","geo":{"location":{"lat":-33.8676769,"lng":151.1523018},"viewport":{"northeast":{"lat":-33.8663279197085,"lng":151.1536507802915},"southwest":{"lat":-33.8690258802915,"lng":151.1509528197085}}}},{"place_id":"ChIJjTo6Y4WwEmsREP3w-Wh9AQ8","rating":4.5,"name":"Gough Whitlam Park","address":"Bayview Ave, Earlwood NSW 2206, Australia","geo":{"location":{"lat":-33.9240866,"lng":151.1512874},"viewport":{"northeast":{"lat":-33.9231938197085,"lng":151.1528424802915},"southwest":{"lat":-33.9258917802915,"lng":151.1501445197085}}}},{"place_id":"ChIJodmQerC6EmsRW8eLNVF3D8s","rating":3.7,"name":"Hammond Park","address":"Frederick Street, Ashfield NSW 2131, Australia","geo":{"location":{"lat":-33.877828,"lng":151.1264282},"viewport":{"northeast":{"lat":-33.8766861197085,"lng":151.1284627},"southwest":{"lat":-33.8793840802915,"lng":151.1247899}}}},{"place_id":"ChIJRQtt9zShEmsRgPPy-Wh9AQ8","rating":3.2,"name":"Koala Park Sanctuary","address":"84 Castle Hill Rd, West Pennant Hills NSW 2125, Australia","geo":{"location":{"lat":-33.742098,"lng":151.0451289},"viewport":{"northeast":{"lat":-33.7409816697085,"lng":151.0463803302915},"southwest":{"lat":-33.7436796302915,"lng":151.0436823697085}}}},{"place_id":"ChIJq33J2AiyEmsRW_rWG_1JTCc","rating":3.5,"name":"Queens Park Shed","address":"31 Darley Rd, Queens Park NSW 2022, Australia","geo":{"location":{"lat":-33.9030871,"lng":151.2479398},"viewport":{"northeast":{"lat":-33.90184216970849,"lng":151.2492732802915},"southwest":{"lat":-33.90454013029149,"lng":151.2465753197085}}}},{"place_id":"ChIJNc6W__yxEmsR8F9NfrorLQM","rating":3.2,"name":"Monkey Mania Moore Park","address":"The Entertainment Quarter Car Park, 122 Lang Rd, Moore Park NSW 2021, Australia","geo":{"location":{"lat":-33.893667,"lng":151.226044},"viewport":{"northeast":{"lat":-33.8923180197085,"lng":151.2273929802915},"southwest":{"lat":-33.8950159802915,"lng":151.2246950197085}}}},{"place_id":"ChIJx8b6PfyxEmsRawecozxRKH0","name":"The Rangers' Residence, The Residences Centennial Park","address":"1 Martin Rd, Centennial Park NSW 2021, Australia","geo":{"location":{"lat":-33.8982959,"lng":151.227498},"viewport":{"northeast":{"lat":-33.8969313697085,"lng":151.2290535302915},"southwest":{"lat":-33.8996293302915,"lng":151.2263555697085}}}},{"place_id":"ChIJxRD8v86xEmsR5Z117ul5P70","rating":4,"name":"Alexandria Park Community School Senior Campus","address":"7 Park Rd, Alexandria NSW 2015, Australia","geo":{"location":{"lat":-33.901253,"lng":151.196533},"viewport":{"northeast":{"lat":-33.89907785,"lng":151.1973199302915},"southwest":{"lat":-33.90197805,"lng":151.1946219697085}}}}],"junk":[{"place_id":"ChIJd7D_AvGtEmsREy3nzYxTXEc","rating":2.8,"name":"McDonald's Bondi Junction Interchange","address":"Tiffany Plaza, 422 Oxford St, Bondi Junction NSW 2022, Australia","geo":{"location":{"lat":-33.891208,"lng":151.2483267},"viewport":{"northeast":{"lat":-33.8898590197085,"lng":151.2496756802915},"southwest":{"lat":-33.89255698029149,"lng":151.2469777197085}}}},{"place_id":"ChIJQRe8CUCuEmsRz_HDTaguAB4","rating":3.5,"name":"Soul Origin MLC Food Court","address":"MLC Food Court, MLC Centre, 6k4/19-29 Martin Pl, Sydney NSW 2000, Australia","geo":{"location":{"lat":-33.8686768,"lng":151.2092606},"viewport":{"northeast":{"lat":-33.8668230197085,"lng":151.2106770302915},"southwest":{"lat":-33.8695209802915,"lng":151.2079790697085}}}},{"place_id":"ChIJ7QOF-vCtEmsR5q9jEUgC4Hk","rating":3,"name":"Salsa's Fresh Mex Grill","address":"5, Westfield Bondi Junction, 500 Oxford St, Bondi Junction NSW 2022, Australia","geo":{"location":{"lat":-33.891109,"lng":151.25121},"viewport":{"northeast":{"lat":-33.8897600197085,"lng":151.2525589802915},"southwest":{"lat":-33.8924579802915,"lng":151.2498610197085}}}},{"place_id":"ChIJL3nOdyOuEmsR3S-Vn4eTsnk","rating":3.4,"name":"KFC","address":"766 George St, Haymarket NSW 2000, Australia","geo":{"location":{"lat":-33.8805083,"lng":151.2052971},"viewport":{"northeast":{"lat":-33.87907001970849,"lng":151.2065240802915},"southwest":{"lat":-33.88176798029149,"lng":151.2038261197085}}}},{"place_id":"ChIJrc8SIDewEmsRfpFE1ae-ifM","rating":3.7,"name":"Oporto","address":"1-19 Enmore Rd, Newtown NSW 2042, Australia","geo":{"location":{"lat":-33.8979199,"lng":151.1773764},"viewport":{"northeast":{"lat":-33.89668451970849,"lng":151.1787881802915},"southwest":{"lat":-33.89938248029149,"lng":151.1760902197085}}}},{"place_id":"ChIJHzBySoK6EmsRWKvb0YhBbgs","name":"Yaghi Fast Food","address":"502 New Canterbury Rd, Dulwich Hill NSW 2203, Australia","geo":{"location":{"lat":-33.90548100000001,"lng":151.13766},"viewport":{"northeast":{"lat":-33.90398611970851,"lng":151.1389264802915},"southwest":{"lat":-33.9066840802915,"lng":151.1362285197085}}}},{"place_id":"ChIJW3I0jSauEmsReSCbXHl2jG0","rating":3.3,"name":"McDonald's Broadway","address":"Railway Square, 863 George St, Ultimo NSW 2007, Australia","geo":{"location":{"lat":-33.883781,"lng":151.202488},"viewport":{"northeast":{"lat":-33.8824320197085,"lng":151.2038369802915},"southwest":{"lat":-33.8851299802915,"lng":151.2011390197085}}}},{"place_id":"ChIJd3qfAT-uEmsRC_9HICx8Z0k","rating":3.6,"name":"McDonald's Sydney Central Westfield Plaza","address":"Lower Ground Floor, Westfield Central Plaza, Sydney NSW 2000, Australia","geo":{"location":{"lat":-33.8702707,"lng":151.2073408},"viewport":{"northeast":{"lat":-33.8689217197085,"lng":151.2086897802915},"southwest":{"lat":-33.8716196802915,"lng":151.2059918197085}}}},{"place_id":"ChIJ96dhcD6uEmsRS6iMUwd5MXM","rating":3.6,"name":"McDonald's Pitt & Park Street","address":"Park St & Pitt St, Sydney NSW 2000, Australia","geo":{"location":{"lat":-33.8729894,"lng":151.2083317},"viewport":{"northeast":{"lat":-33.8716830697085,"lng":151.2095911302915},"southwest":{"lat":-33.8743810302915,"lng":151.2068931697085}}}},{"place_id":"ChIJS0BgN6KuEmsRr2tV1BCP_qM","rating":3.4,"name":"McDonald's","address":"Military Rd & Winnie St, Cremorne NSW 2090, Australia","geo":{"location":{"lat":-33.829762,"lng":151.226827},"viewport":{"northeast":{"lat":-33.8285302197085,"lng":151.2282607802915},"southwest":{"lat":-33.8312281802915,"lng":151.2255628197085}}}},{"place_id":"ChIJDVb--SSwEmsRKL6rCIFnqK4","rating":3.2,"name":"McDonald's Stanmore","address":"Parramatta Rd & Bridge Rd, Stanmore NSW 2048, Australia","geo":{"location":{"lat":-33.888211,"lng":151.172053},"viewport":{"northeast":{"lat":-33.8865605697085,"lng":151.1733604802915},"southwest":{"lat":-33.8892585302915,"lng":151.1706625197085}}}},{"place_id":"ChIJ_3YGF2SwEmsRyTNC-X0tmX0","rating":3.5,"name":"Oporto - Marrickville","address":"229 Marrickville Rd, Marrickville NSW 2204, Australia","geo":{"location":{"lat":-33.91056589999999,"lng":151.1569683},"viewport":{"northeast":{"lat":-33.9092890697085,"lng":151.1582698802915},"southwest":{"lat":-33.9119870302915,"lng":151.1555719197085}}}},{"place_id":"ChIJazgtGD2uEmsRmnWu-UJ3vbI","rating":4,"name":"Wong Kee Fast Food","address":"12/370 Pitt St, Sydney NSW 2000, Australia","geo":{"location":{"lat":-33.8773174,"lng":151.2079428},"viewport":{"northeast":{"lat":-33.8759558197085,"lng":151.2091426302915},"southwest":{"lat":-33.8786537802915,"lng":151.2064446697085}}}},{"place_id":"ChIJ9Qtr3Y6xEmsRg6yljQog6HU","rating":3.5,"name":"Oporto - Kingsford","address":"287/291 Anzac Parade, Kingsford NSW 2032, Australia","geo":{"location":{"lat":-33.921166,"lng":151.226535},"viewport":{"northeast":{"lat":-33.9198069197085,"lng":151.2279676802915},"southwest":{"lat":-33.9225048802915,"lng":151.2252697197085}}}},{"place_id":"ChIJdQSY9jyuEmsRGb7uI8BBDI0","rating":3.9,"name":"Pepper Lunch","address":"537 George St, Sydney NSW 2000, Australia","geo":{"location":{"lat":-33.8760098,"lng":151.2059742},"viewport":{"northeast":{"lat":-33.8746977697085,"lng":151.2074710802915},"southwest":{"lat":-33.8773957302915,"lng":151.2047731197085}}}},{"place_id":"ChIJF_LNCSywEmsRBhnWsmjpyrQ","rating":3.6,"name":"The Corner McCaf√©","address":"8b Missenden Rd, Camperdown NSW 2050, Australia","geo":{"location":{"lat":-33.8888324,"lng":151.1820357},"viewport":{"northeast":{"lat":-33.88752511970851,"lng":151.1833016802915},"southwest":{"lat":-33.8902230802915,"lng":151.1806037197085}}}},{"place_id":"ChIJm22uneetEmsRRRThk5g1j_U","rating":3.2,"name":"Oporto - Double Bay","address":"338 New South Head Rd, Double Bay NSW 2028, Australia","geo":{"location":{"lat":-33.878021,"lng":151.242412},"viewport":{"northeast":{"lat":-33.87670796970851,"lng":151.2438176302915},"southwest":{"lat":-33.8794059302915,"lng":151.2411196697085}}}},{"place_id":"ChIJAdVaon6xEmsR7Bw1jKKEHXw","rating":2.9,"name":"KFC Pagewood","address":"279 Bunnerong Rd, Maroubra NSW 2035, Australia","geo":{"location":{"lat":-33.9399397,"lng":151.2290652},"viewport":{"northeast":{"lat":-33.9385907197085,"lng":151.2304141802915},"southwest":{"lat":-33.9412886802915,"lng":151.2277162197085}}}},{"place_id":"ChIJ2fYBWjyuEmsR2jTFaL64TNc","rating":3.5,"name":"McDonald's Sydney","address":"600 George St, Sydney NSW 2000, Australia","geo":{"location":{"lat":-33.875531,"lng":151.206659},"viewport":{"northeast":{"lat":-33.8741345697085,"lng":151.2079375802915},"southwest":{"lat":-33.8768325302915,"lng":151.2052396197085}}}},{"place_id":"ChIJcVItjvCtEmsRYA5GcTPdF5s","rating":2.9,"name":"KFC Bondi Junction","address":"89 Oxford St, Bondi Junction NSW 2022, Australia","geo":{"location":{"lat":-33.8915408,"lng":151.2461296},"viewport":{"northeast":{"lat":-33.8901399697085,"lng":151.2475003302915},"southwest":{"lat":-33.89283793029149,"lng":151.2448023697085}}}}],"library":[{"place_id":"ChIJRdyWCPqtEmsR8OGDoNfboXo","rating":4.1,"name":"Waverley Library","address":"32/48 Denison St, Bondi Junction NSW 2022, Australia","geo":{"location":{"lat":-33.89296,"lng":151.244995},"viewport":{"northeast":{"lat":-33.8915937197085,"lng":151.2462267802915},"southwest":{"lat":-33.8942916802915,"lng":151.2435288197085}}}},{"place_id":"ChIJ_YZBYMStEmsRQOK42CSqoqQ","rating":3.8,"name":"Woollahra Library","address":"1, 451 New South Head Rd, Double Bay NSW 2028, Australia","geo":{"location":{"lat":-33.8776819,"lng":151.243912},"viewport":{"northeast":{"lat":-33.8761841697085,"lng":151.2452058802915},"southwest":{"lat":-33.87888213029149,"lng":151.2425079197085}}}},{"place_id":"ChIJPUg7GRmyEmsRio7DKav4BSE","rating":4.2,"name":"Randwick City Library - Margaret Martin Library","address":"73 Belmore Rd, Randwick NSW 2031, Australia","geo":{"location":{"lat":-33.91476829999999,"lng":151.2408679},"viewport":{"northeast":{"lat":-33.9135639197085,"lng":151.2419628302915},"southwest":{"lat":-33.91626188029149,"lng":151.2392648697085}}}},{"place_id":"ChIJjRFC2h6uEmsRnrG4w2iKSkI","name":"Surry Hills Library","address":"405 Crown St, Surry Hills NSW 2010, Australia","geo":{"location":{"lat":-33.8859619,"lng":151.2136406},"viewport":{"northeast":{"lat":-33.8846288697085,"lng":151.2151111802915},"southwest":{"lat":-33.8873268302915,"lng":151.2124132197085}}}}],"schools":[{"place_id":"ChIJgxrSzuStEmsReiv04lj5pgc","rating":4.5,"name":"Woollahra Public School","address":"Forth St, Woollahra NSW 2025, Australia","geo":{"location":{"lat":-33.886567,"lng":151.2412598},"viewport":{"northeast":{"lat":-33.8852824197085,"lng":151.2426255802915},"southwest":{"lat":-33.8879803802915,"lng":151.2399276197085}}}},{"place_id":"ChIJMRolFQWyEmsRfDNLy2qSO5k","rating":4.2,"name":"Emanuel School","address":"20 Stanley St, Randwick NSW 2031, Australia","geo":{"location":{"lat":-33.9065173,"lng":151.2436646},"viewport":{"northeast":{"lat":-33.9057422697085,"lng":151.2449103302915},"southwest":{"lat":-33.9084402302915,"lng":151.2422123697085}}}},{"place_id":"ChIJRcyRuJGtEmsRqEWJ6gvJw8w","rating":3.8,"name":"Bondi Public School","address":"5 Wellington St, Bondi NSW 2026, Australia","geo":{"location":{"lat":-33.892736,"lng":151.2647374},"viewport":{"northeast":{"lat":-33.8913550697085,"lng":151.2658692802915},"southwest":{"lat":-33.8940530302915,"lng":151.2631713197085}}}},{"place_id":"ChIJ-eKKB-GtEmsRWNougo-Z4Vc","rating":4.2,"name":"Ascham School","address":"188 New South Head Rd, Edgecliff NSW 2027, Australia","geo":{"location":{"lat":-33.87707699999999,"lng":151.2362376},"viewport":{"northeast":{"lat":-33.87626469999999,"lng":151.2373767302915},"southwest":{"lat":-33.87951390000001,"lng":151.2346787697085}}}},{"place_id":"ChIJvcSwgsatEmsRrvUgWJoOQD0","rating":3.8,"name":"Cranbrook School","address":"5 Victoria Rd, Bellevue Hill NSW 2023, Australia","geo":{"location":{"lat":-33.872345,"lng":151.251112},"viewport":{"northeast":{"lat":-33.8711683197085,"lng":151.2524777302915},"southwest":{"lat":-33.87386628029149,"lng":151.2497797697085}}}},{"place_id":"ChIJN8B6QvKxEmsR4tEhNR4Xxik","rating":3.4,"name":"Sydney Girls High School","address":"Anzac Parade & Cleveland Street, Surry Hills NSW 2010, Australia","geo":{"location":{"lat":-33.8936122,"lng":151.2204348},"viewport":{"northeast":{"lat":-33.8922159697085,"lng":151.2221623802915},"southwest":{"lat":-33.89491393029149,"lng":151.2194644197085}}}},{"place_id":"ChIJaXfeKJ6tEmsRM_pgTjpurLs","rating":4.3,"name":"Bondi Beach Public School","address":"Campbell Parade, Sydney NSW 2026, Australia","geo":{"location":{"lat":-33.8884029,"lng":151.2765325},"viewport":{"northeast":{"lat":-33.8873270197085,"lng":151.2779951802915},"southwest":{"lat":-33.8900249802915,"lng":151.2752972197085}}}},{"place_id":"ChIJPRtybxauEmsR0tsOqj8fST0","rating":3.8,"name":"Sydney Grammar School","address":"College St, Darlinghurst NSW 2010, Australia","geo":{"location":{"lat":-33.8749641,"lng":151.2133071},"viewport":{"northeast":{"lat":-33.8736151197085,"lng":151.2146560802915},"southwest":{"lat":-33.8763130802915,"lng":151.2119581197085}}}},{"place_id":"ChIJ7xObFjyuEmsRbOco8y-YxaM","rating":4.1,"name":"St Andrew's Cathedral School","address":"Sydney Square, 474 Kent St, Sydney NSW 2000, Australia","geo":{"location":{"lat":-33.8738398,"lng":151.205699},"viewport":{"northeast":{"lat":-33.87254601970851,"lng":151.2071508302915},"southwest":{"lat":-33.87524398029151,"lng":151.2044528697085}}}},{"place_id":"ChIJtdkRJymuEmsRuGzcEdNUnMw","rating":4,"name":"International Grammar School","address":"4-8 Kelly St, Ultimo NSW 2007, Australia","geo":{"location":{"lat":-33.8814864,"lng":151.1954142},"viewport":{"northeast":{"lat":-33.8801374197085,"lng":151.1967631802915},"southwest":{"lat":-33.8828353802915,"lng":151.1940652197085}}}},{"place_id":"ChIJQ4Q-8wywEmsR6Sz4sTJNv04","rating":3,"name":"The John Berne School","address":"5 Thomas St, Lewisham NSW 2049, Australia","geo":{"location":{"lat":-33.8923953,"lng":151.1478407},"viewport":{"northeast":{"lat":-33.8911259697085,"lng":151.1490209302915},"southwest":{"lat":-33.8938239302915,"lng":151.1463229697085}}}},{"place_id":"ChIJ4yU_FguyEmsRocgnC7V-j3g","rating":2.6,"name":"St Catherine's School","address":"26 Albion St, Waverley NSW 2024, Australia","geo":{"location":{"lat":-33.90443370000001,"lng":151.2555328},"viewport":{"northeast":{"lat":-33.90281041970851,"lng":151.2564650802915},"southwest":{"lat":-33.90550838029151,"lng":151.2537671197085}}}},{"place_id":"ChIJ6VajofWtEmsRGI53DsWyQl8","name":"St Charles' Primary School","address":"53/63 Carrington Rd, Waverley NSW 2024, Australia","geo":{"location":{"lat":-33.8991006,"lng":151.2533017},"viewport":{"northeast":{"lat":-33.89777256970849,"lng":151.2549309802915},"southwest":{"lat":-33.90047053029149,"lng":151.2522330197085}}}},{"place_id":"ChIJ2-djuuyuEmsRsXtWKlBwitk","rating":3.8,"name":"Wenona School","address":"176 Walker St, North Sydney NSW 2060, Australia","geo":{"location":{"lat":-33.833717,"lng":151.209284},"viewport":{"northeast":{"lat":-33.8324114697085,"lng":151.2109307302915},"southwest":{"lat":-33.8351094302915,"lng":151.2082327697085}}}},{"place_id":"ChIJawbKRBqyEmsR7Va1evLl90Y","name":"NSW School of Languages","address":"78 Avoca St, Randwick NSW 2031, Australia","geo":{"location":{"lat":-33.91036080000001,"lng":151.243646},"viewport":{"northeast":{"lat":-33.9090199697085,"lng":151.2450515302915},"southwest":{"lat":-33.9117179302915,"lng":151.2423535697085}}}},{"place_id":"ChIJ1cgZqwmuEmsRvlZBpt3Gc1g","rating":5,"name":"Glenmore Road Public School","address":"269 Glenmore Rd, Paddington NSW 2021, Australia","geo":{"location":{"lat":-33.881854,"lng":151.230868},"viewport":{"northeast":{"lat":-33.8802666197085,"lng":151.2316021802915},"southwest":{"lat":-33.8829645802915,"lng":151.2289042197085}}}},{"place_id":"ChIJT-ytXTGwEmsRcigMJexzHmA","rating":4.8,"name":"Newtown High School of the Performing Arts","address":"King Street, Newtown NSW 2042, Australia","geo":{"location":{"lat":-33.8986978,"lng":151.1781365},"viewport":{"northeast":{"lat":-33.8973488197085,"lng":151.1794854802915},"southwest":{"lat":-33.9000467802915,"lng":151.1767875197085}}}},{"place_id":"ChIJ94QZ2KytEmsRI_ZysqkipOw","rating":4.4,"name":"Kambala","address":"794 New South Head Rd, Rose Bay NSW 2029, Australia","geo":{"location":{"lat":-33.865066,"lng":151.2717015},"viewport":{"northeast":{"lat":-33.8633702697085,"lng":151.2734160302915},"southwest":{"lat":-33.8660682302915,"lng":151.2707180697085}}}},{"place_id":"ChIJ1WTOfuuuEmsRHBQPHdEQqY8","rating":5,"name":"St Mary's Catholic Primary School","address":"40 Ridge St, North Sydney NSW 2060, Australia","geo":{"location":{"lat":-33.8323474,"lng":151.2072349},"viewport":{"northeast":{"lat":-33.83118226970851,"lng":151.2085485802915},"southwest":{"lat":-33.83388023029151,"lng":151.2058506197085}}}},{"place_id":"ChIJp8ECA4uxEmsRoAd6A2l9AR0","rating":4.5,"name":"UNSW Sydney","address":"Sydney NSW 2052, Australia","geo":{"location":{"lat":-33.917347,"lng":151.2312675},"viewport":{"northeast":{"lat":-33.9127803,"lng":151.2411959},"southwest":{"lat":-33.92234029999999,"lng":151.2211839}}}}]},"1460":{"health":[{"place_id":"ChIJYxWM4COyEmsRR4j4g2kxvbc","rating":5,"name":"Prince of Wales Private Hospital - Dr Rhonda Farrell","address":"Barker St, Randwick NSW 2031, Australia","geo":{"location":{"lat":-33.9216643,"lng":151.2394168},"viewport":{"northeast":{"lat":-33.9201240697085,"lng":151.2408079802915},"southwest":{"lat":-33.9228220302915,"lng":151.2381100197085}}}},{"place_id":"ChIJ78D5GSKyEmsRi2mdS1Mxu8k","rating":5,"name":"The Euroa Centre","address":"Centre for Healthy Brain Ageing, Prince of Wales Hospital, Barker St, Randwick NSW 2031, Australia","geo":{"location":{"lat":-33.9185879,"lng":151.2389035},"viewport":{"northeast":{"lat":-33.9172389197085,"lng":151.2402524802915},"southwest":{"lat":-33.9199368802915,"lng":151.2375545197085}}}},{"place_id":"ChIJYxWM4COyEmsR0cwKBzkG-GU","rating":3,"name":"Sydney Colorectal Associates - Dr Francis Lam","address":"Suite 17 Level 7 Prince of Wales Private Hospital Barker Street, Randwick NSW 2031, Australia","geo":{"location":{"lat":-33.918072,"lng":151.239052},"viewport":{"northeast":{"lat":-33.91672301970849,"lng":151.2404009802915},"southwest":{"lat":-33.91942098029149,"lng":151.2377030197085}}}},{"place_id":"ChIJL6kODhmyEmsRgu4bASkvRvU","name":"Eastern Suburbs Pain Clinic-Dr Robert Lindeman","address":"Suite 20, L7 Prince Of Wales Private Hospital /Barker St, Randwick NSW 2031, Australia","geo":{"location":{"lat":-33.9209401,"lng":151.2386057},"viewport":{"northeast":{"lat":-33.9195911197085,"lng":151.2399546802915},"southwest":{"lat":-33.92228908029149,"lng":151.2372567197085}}}},{"place_id":"ChIJAQGc6PGtEmsRiEVmASQGQqA","name":"The Children's Clinic","address":"312/3 Waverley St, Bondi Junction NSW 2022, Australia","geo":{"location":{"lat":-33.892661,"lng":151.251687},"viewport":{"northeast":{"lat":-33.89127131970849,"lng":151.2530424302915},"southwest":{"lat":-33.89396928029149,"lng":151.2503444697085}}}},{"place_id":"ChIJEf4EBOS5EmsRz3HnwO5MIPI","name":"Alliance Anaesthetics","address":"Suite 13, Level 3, St George Private Hospital, 1 South Street, Kogarah NSW 2217, Australia","geo":{"location":{"lat":-33.9668,"lng":151.136244},"viewport":{"northeast":{"lat":-33.9654510197085,"lng":151.1375929802915},"southwest":{"lat":-33.9681489802915,"lng":151.1348950197085}}}},{"place_id":"ChIJa6r-wuO5EmsR6Ffk885MZkI","name":"Upper GI Surgery","address":"Suite 3, Level 5, St George Private Hospital, 1 South Street, Kogarah NSW 2217, Australia","geo":{"location":{"lat":-33.96685000000001,"lng":151.134096},"viewport":{"northeast":{"lat":-33.9655010197085,"lng":151.1354449802915},"southwest":{"lat":-33.9681989802915,"lng":151.1327470197085}}}},{"place_id":"ChIJk0oFSk-6EmsRvC40Crer6mE","rating":2.5,"name":"Canterbury Afterhours Clinic At Canterbury Hospital","address":"Canterbury Hospital, 575 Canterbury Rd, Campsie NSW 2194, Australia","geo":{"location":{"lat":-33.920321,"lng":151.09862},"viewport":{"northeast":{"lat":-33.9190841197085,"lng":151.1000382302915},"southwest":{"lat":-33.9217820802915,"lng":151.0973402697085}}}},{"place_id":"ChIJ8Xu76N-uEmsR-dqn2nFnhI4","rating":5,"name":"Dr Philip Barnes","address":"North Shore Private Hospital, Suite 1, level 5, Westbourne St, St Leonards NSW 2065, Australia","geo":{"location":{"lat":-33.8215637,"lng":151.1879077},"viewport":{"northeast":{"lat":-33.8202147197085,"lng":151.1892566802915},"southwest":{"lat":-33.82291268029149,"lng":151.1865587197085}}}},{"place_id":"ChIJg0mH25rHEmsR3C1ACPJKhF8","name":"Cardiology Associates","address":"9/20-24 Gibbs St, Miranda NSW 2228, Australia","geo":{"location":{"lat":-34.036927,"lng":151.102973},"viewport":{"northeast":{"lat":-34.03545816970851,"lng":151.1043455802915},"southwest":{"lat":-34.0381561302915,"lng":151.1016476197085}}}},{"place_id":"ChIJ9a95_IiqEmsR5fEwIGJSNUs","rating":5,"name":"Dee Why Endoscopy Unit","address":"Level 4, Suite 4402, Dee Why Grand, 834 Pittwater Road, Dee Why NSW 2099, Australia","geo":{"location":{"lat":-33.7550998,"lng":151.283951},"viewport":{"northeast":{"lat":-33.7537052197085,"lng":151.2852238302915},"southwest":{"lat":-33.7564031802915,"lng":151.2825258697085}}}},{"place_id":"ChIJ8-eoV2ffYIYRISu-XxV2Xxc","rating":2.5,"name":"Doctors Hospital of Laredo","address":"10700 McPherson Rd, Laredo, TX 78045, United States","geo":{"location":{"lat":27.6069732,"lng":-99.4785553},"viewport":{"northeast":{"lat":27.6083221802915,"lng":-99.4772063197085},"southwest":{"lat":27.60562421970849,"lng":-99.4799042802915}}}},{"place_id":"ChIJG0n7phKmEmsRbQ5-AUW2Zsk","rating":3.9,"name":"General Practice at Macquarie University","address":"Suite 305, Level 3, 2 Technology Place, Macquarie University, Sydney NSW 2109, Australia","geo":{"location":{"lat":-33.7731016,"lng":151.1176287},"viewport":{"northeast":{"lat":-33.77175261970849,"lng":151.1189776802915},"southwest":{"lat":-33.77445058029149,"lng":151.1162797197085}}}},{"place_id":"ChIJK2Z-xh-lEmsR4Anw-Wh9AQ8","rating":3.1,"name":"Concord Repatriation General Hospital","address":"Hospital Rd, Concord NSW 2139, Australia","geo":{"location":{"lat":-33.83741440000001,"lng":151.0927445},"viewport":{"northeast":{"lat":-33.83352849999999,"lng":151.0969672},"southwest":{"lat":-33.83870970000002,"lng":151.0897132}}}},{"place_id":"ChIJ17cWL3dt-TIRTWsiYVtqEJ0","name":"Davao Doctor's Hospital, Surgery Clinic - Rolley Rey P. Lobo, MD","address":"Room 505, Medical Tower Davao Doctor's Hospital, 118 E Quirino Avenue,, Davao City, 8000 Davao del Sur, Philippines","geo":{"location":{"lat":7.070166,"lng":125.60465},"viewport":{"northeast":{"lat":7.071514980291503,"lng":125.6059989802915},"southwest":{"lat":7.068817019708498,"lng":125.6033010197085}}}},{"place_id":"ChIJeT-k__i32YgRDbvEILFzasc","rating":3.5,"name":"Doctors Hospital","address":"5000 University Dr, Coral Gables, FL 33146, United States","geo":{"location":{"lat":25.7242591,"lng":-80.27418440000001},"viewport":{"northeast":{"lat":25.72565195,"lng":-80.2724788},"southwest":{"lat":25.72286455,"lng":-80.2752408}}}},{"place_id":"ChIJ0xwUOOTHlzMR1rum2onnxfk","name":"Sylvia R. Calingo, MD @ MPCP St. Therese of Lisiuex Doctors Hospital","address":"MPCP St. Therese of Lisiuex Doctors Hospital Armal Compound, C. Raymundo Avenue, Maybunga, Pasig City, Philippines","geo":{"location":{"lat":14.580806,"lng":121.087183},"viewport":{"northeast":{"lat":14.58215498029151,"lng":121.0885319802915},"southwest":{"lat":14.5794570197085,"lng":121.0858340197085}}}},{"place_id":"ChIJqzKQAZO02IcRe8T3hNCmuyo","rating":3,"name":"Barnes-Jewish Hospital","address":"1 Barnes Jewish Hospital Plaza, St. Louis, MO 63110, United States","geo":{"location":{"lat":38.63543629999999,"lng":-90.2635961},"viewport":{"northeast":{"lat":38.6396077,"lng":-90.26171749999997},"southwest":{"lat":38.6335537,"lng":-90.2659407}}}},{"place_id":"ChIJ08cqcLDT-YgRhm4qpWzpLVU","rating":3.1,"name":"Doctors Hospital","address":"3651 Wheeler Rd, Augusta, GA 30909, United States","geo":{"location":{"lat":33.4829634,"lng":-82.09018069999999},"viewport":{"northeast":{"lat":33.48431238029149,"lng":-82.08883171970848},"southwest":{"lat":33.48161441970849,"lng":-82.0915296802915}}}},{"place_id":"ChIJKfvNlVA2SogRJ957IegBEzI","name":"Stonewall Jackson Memorial Hospital - Physician Office Building","address":"29 Hospital Plaza, Weston, WV 26452, United States","geo":{"location":{"lat":39.0487589,"lng":-80.491636},"viewport":{"northeast":{"lat":39.0500226302915,"lng":-80.4903889197085},"southwest":{"lat":39.0473246697085,"lng":-80.4930868802915}}}}],"university":[{"place_id":"ChIJp8ECA4uxEmsRoAd6A2l9AR0","rating":4.5,"name":"UNSW Sydney","address":"Sydney NSW 2052, Australia","geo":{"location":{"lat":-33.917347,"lng":151.2312675},"viewport":{"northeast":{"lat":-33.9127803,"lng":151.2411959},"southwest":{"lat":-33.92234029999999,"lng":151.2211839}}}},{"place_id":"ChIJqVFKBy-wEmsRRpKBp2crZts","rating":2.5,"name":"The University of Sydney","address":"88 Mallett St, Camperdown NSW 2050, Australia","geo":{"location":{"lat":-33.8892998,"lng":151.1907203},"viewport":{"northeast":{"lat":-33.8878911697085,"lng":151.1920088302915},"southwest":{"lat":-33.8905891302915,"lng":151.1893108697085}}}},{"place_id":"ChIJ2fGeq9SxEmsRwAd6A2l9AR0","rating":4.2,"name":"The University of Sydney","address":"New South Wales 2006, Australia","geo":{"location":{"lat":-33.888584,"lng":151.1873473},"viewport":{"northeast":{"lat":-33.8815948,"lng":151.19708565},"southwest":{"lat":-33.89449599999999,"lng":151.18035385}}}},{"place_id":"ChIJedPIEBeuEmsRWRT29x-A5es","rating":4.1,"name":"Charles Sturt University Study Centres Sydney","address":"1/63 Oxford St, Darlinghurst NSW 2010, Australia","geo":{"location":{"lat":-33.8786466,"lng":151.2136407},"viewport":{"northeast":{"lat":-33.8772498697085,"lng":151.2151157302915},"southwest":{"lat":-33.8799478302915,"lng":151.2124177697085}}}},{"place_id":"ChIJdbFmD-SvEmsRE5EQ6tsAKTs","rating":3.5,"name":"University of Tasmania Sydney, Rozelle Campus","address":"Church St, Lilyfield NSW 2040, Australia","geo":{"location":{"lat":-33.87037000000001,"lng":151.157022},"viewport":{"northeast":{"lat":-33.8692470697085,"lng":151.1584599802915},"southwest":{"lat":-33.8719450302915,"lng":151.1557620197085}}}},{"place_id":"ChIJS_nmIKC6EmsRcm7nR2orH3c","rating":3.2,"name":"Macquarie University Summer Hill Outpatient Clinic & Research Centre","address":"40 Lackey St, Summer Hill NSW 2130, Australia","geo":{"location":{"lat":-33.8914395,"lng":151.1383105},"viewport":{"northeast":{"lat":-33.8901031197085,"lng":151.1395624302915},"southwest":{"lat":-33.8928010802915,"lng":151.1368644697085}}}},{"place_id":"ChIJxbHugtaxEmsRcOHpmBC02-I","rating":4,"name":"International House, The University of Sydney","address":"96 City Rd, Sydney NSW 2008, Australia","geo":{"location":{"lat":-33.8881516,"lng":151.1928911},"viewport":{"northeast":{"lat":-33.8867411197085,"lng":151.1941785802915},"southwest":{"lat":-33.8894390802915,"lng":151.1914806197085}}}},{"place_id":"ChIJCw8u1w-uEmsRGuOQ28f66Gk","rating":5,"name":"University of Tasmania Sydney, Darlinghurst campus","address":"Education Centre, 1 Leichhardt St, Darlinghurst NSW 2010, Australia","geo":{"location":{"lat":-33.8805262,"lng":151.2218878},"viewport":{"northeast":{"lat":-33.87909226970849,"lng":151.2234332802915},"southwest":{"lat":-33.88179023029149,"lng":151.2207353197085}}}},{"place_id":"ChIJzTF2CjyuEmsRUqpHpt14FDM","rating":4.2,"name":"The University of Newcastle, Sydney Campus","address":"55 Elizabeth St, Sydney NSW 2000, Australia","geo":{"location":{"lat":-33.868338,"lng":151.210336},"viewport":{"northeast":{"lat":-33.8669954697085,"lng":151.2117750302915},"southwest":{"lat":-33.8696934302915,"lng":151.2090770697085}}}},{"place_id":"ChIJgYpadiiuEmsR0jjbvo7J2Qw","rating":3.9,"name":"The University of Notre Dame Australia, Darlinghurst","address":"160 Oxford St, Darlinghurst NSW 2010, Australia","geo":{"location":{"lat":-33.8810546,"lng":151.2187066},"viewport":{"northeast":{"lat":-33.8797043697085,"lng":151.2200692302915},"southwest":{"lat":-33.8824023302915,"lng":151.2173712697085}}}},{"place_id":"ChIJp8AsWyCyEmsRyloZIsthFmM","rating":5,"name":"UNSW Medicine","address":"Wallace Wurth Building, 18 High St, Kensington NSW 2052, Australia","geo":{"location":{"lat":-33.9172098,"lng":151.2360412},"viewport":{"northeast":{"lat":-33.9158879697085,"lng":151.2375550802915},"southwest":{"lat":-33.9185859302915,"lng":151.2348571197085}}}},{"place_id":"ChIJQ6G0WyauEmsRV6mPvbIk4hY","rating":4.3,"name":"University of Technology Sydney","address":"15 Broadway, Ultimo NSW 2007, Australia","geo":{"location":{"lat":-33.88323759999999,"lng":151.2004942},"viewport":{"northeast":{"lat":-33.88136545000001,"lng":151.2040561},"southwest":{"lat":-33.88521124999999,"lng":151.1964021}}}},{"place_id":"ChIJK5EQdCiuEmsRwBpV_KVPuUA","rating":4,"name":"The University of Notre Dame Australia, Sydney Campus, Chippendale, New South Wales","address":"104 Broadway, Chippendale NSW 2008, Australia","geo":{"location":{"lat":-33.8848931,"lng":151.1982848},"viewport":{"northeast":{"lat":-33.8832693697085,"lng":151.1996212802915},"southwest":{"lat":-33.8859673302915,"lng":151.1969233197085}}}},{"place_id":"ChIJv6ILAj67EmsRQyoXY69KFa0","rating":4.4,"name":"Australian Catholic University, Strathfield Campus","address":"25A Barker Rd, Strathfield NSW 2135, Australia","geo":{"location":{"lat":-33.8760526,"lng":151.0763293},"viewport":{"northeast":{"lat":-33.8748220197085,"lng":151.08037085},"southwest":{"lat":-33.8775199802915,"lng":151.07360905}}}},{"place_id":"ChIJeSj6qSauEmsRrzx4VR45nPs","rating":5,"name":"Charles Darwin University, Sydney Campus","address":"10, 815 George St, Haymarket NSW 2043, Australia","geo":{"location":{"lat":-33.8828683,"lng":151.203438},"viewport":{"northeast":{"lat":-33.8815084697085,"lng":151.2051016302915},"southwest":{"lat":-33.8842064302915,"lng":151.2024036697085}}}},{"place_id":"ChIJ8X6v7fGuEmsRylScj-lcOQg","rating":3.8,"name":"Australian Catholic University, North Sydney Campus","address":"40 Edward St, North Sydney NSW 2060, Australia","geo":{"location":{"lat":-33.8376628,"lng":151.2035099},"viewport":{"northeast":{"lat":-33.83570459999999,"lng":151.20745535},"southwest":{"lat":-33.8402294,"lng":151.20219475}}}},{"place_id":"ChIJ15sqRR2yEmsRc1OcszMJI4Y","rating":3.4,"name":"UNSW Randwick Campus","address":"22-32 King St, Randwick NSW 2031, Australia","geo":{"location":{"lat":-33.9064636,"lng":151.2345473},"viewport":{"northeast":{"lat":-33.90521286970849,"lng":151.2358747802915},"southwest":{"lat":-33.90791083029149,"lng":151.2331768197085}}}},{"place_id":"ChIJ2z0-uNOxEmsRekRdZ1znTO4","rating":4.8,"name":"The University of Sydney Business School","address":"H70, Abercrombie St & Codrington St, Darlington NSW 2006, Australia","geo":{"location":{"lat":-33.8921201,"lng":151.1908812},"viewport":{"northeast":{"lat":-33.89068141970849,"lng":151.1926274802915},"southwest":{"lat":-33.89337938029149,"lng":151.1899295197085}}}},{"place_id":"ChIJ50QsiTyuEmsRs7IAnjUz4Qg","rating":3.3,"name":"Victoria University, VU Sydney Campus","address":"160 Sussex St, Sydney NSW 2000, Australia","geo":{"location":{"lat":-33.8697767,"lng":151.2040035},"viewport":{"northeast":{"lat":-33.8684371697085,"lng":151.2052158302915},"southwest":{"lat":-33.87113513029149,"lng":151.2025178697085}}}},{"place_id":"ChIJlWgSXzCuEmsRnox66i6yMQ8","name":"Torrens University Sydney, Pyrmont Campus","address":"5/235 Pyrmont St, Pyrmont NSW 2009, Australia","geo":{"location":{"lat":-33.8733476,"lng":151.1969254},"viewport":{"northeast":{"lat":-33.8720020697085,"lng":151.1982791802915},"southwest":{"lat":-33.8747000302915,"lng":151.1955812197085}}}}],"schools":[{"place_id":"ChIJocWlZq-xEmsRKrtugRgzEHQ","rating":4,"name":"Gardeners Road Public School","address":"827 Botany Rd, Rosebery NSW 2018, Australia","geo":{"location":{"lat":-33.92078,"lng":151.198012},"viewport":{"northeast":{"lat":-33.9192479197085,"lng":151.1991062802915},"southwest":{"lat":-33.9219458802915,"lng":151.1964083197085}}}},{"place_id":"ChIJjVe3igixEmsRwlOzWox1GsE","rating":4.7,"name":"J.J. Cahill Memorial High School","address":"Sutherland St, Mascot NSW 2020, Australia","geo":{"location":{"lat":-33.92745,"lng":151.201151},"viewport":{"northeast":{"lat":-33.9260634197085,"lng":151.2022367302915},"southwest":{"lat":-33.92876138029149,"lng":151.1995387697085}}}},{"place_id":"ChIJibpTAUawEmsRA5uJu6OLwxw","rating":2.7,"name":"Camdenville Public School","address":"Laura St, Newtown NSW 2042, Australia","geo":{"location":{"lat":-33.906273,"lng":151.1759643},"viewport":{"northeast":{"lat":-33.9050740697085,"lng":151.1773838302915},"southwest":{"lat":-33.9077720302915,"lng":151.1746858697085}}}},{"place_id":"ChIJcd7FKDWwEmsRhPfRp2l7qyQ","rating":4,"name":"Erskineville Public School","address":"Swanson St, Erskineville NSW 2043, Australia","geo":{"location":{"lat":-33.9005295,"lng":151.1862267},"viewport":{"northeast":{"lat":-33.8989581697085,"lng":151.1876208302915},"southwest":{"lat":-33.9016561302915,"lng":151.1849228697085}}}},{"place_id":"ChIJxRD8v86xEmsR5Z117ul5P70","rating":4,"name":"Alexandria Park Community School Senior Campus","address":"7 Park Rd, Alexandria NSW 2015, Australia","geo":{"location":{"lat":-33.901253,"lng":151.196533},"viewport":{"northeast":{"lat":-33.89907785,"lng":151.1973199302915},"southwest":{"lat":-33.90197805,"lng":151.1946219697085}}}},{"place_id":"ChIJsSaJBDqwEmsRyMPzyCPSzn0","rating":4.4,"name":"The Athena School","address":"28 Oxford St, Newtown NSW 2042, Australia","geo":{"location":{"lat":-33.8955679,"lng":151.1744726},"viewport":{"northeast":{"lat":-33.8941644697085,"lng":151.1760081302915},"southwest":{"lat":-33.8968624302915,"lng":151.1733101697085}}}},{"place_id":"ChIJxR4sy3-wEmsRe8fvOcyyZ2o","rating":3.9,"name":"Marrickville High School","address":"Northcote St, Marrickville NSW 2204, Australia","geo":{"location":{"lat":-33.9056344,"lng":151.1560957},"viewport":{"northeast":{"lat":-33.90455026970849,"lng":151.1578586802915},"southwest":{"lat":-33.90724823029149,"lng":151.1551607197085}}}},{"place_id":"ChIJtdkRJymuEmsRuGzcEdNUnMw","rating":4,"name":"International Grammar School","address":"4-8 Kelly St, Ultimo NSW 2007, Australia","geo":{"location":{"lat":-33.8814864,"lng":151.1954142},"viewport":{"northeast":{"lat":-33.8801374197085,"lng":151.1967631802915},"southwest":{"lat":-33.8828353802915,"lng":151.1940652197085}}}},{"place_id":"ChIJQ4Q-8wywEmsR6Sz4sTJNv04","rating":3,"name":"The John Berne School","address":"5 Thomas St, Lewisham NSW 2049, Australia","geo":{"location":{"lat":-33.8923953,"lng":151.1478407},"viewport":{"northeast":{"lat":-33.8911259697085,"lng":151.1490209302915},"southwest":{"lat":-33.8938239302915,"lng":151.1463229697085}}}},{"place_id":"ChIJ7xObFjyuEmsRbOco8y-YxaM","rating":4.1,"name":"St Andrew's Cathedral School","address":"Sydney Square, 474 Kent St, Sydney NSW 2000, Australia","geo":{"location":{"lat":-33.8738398,"lng":151.205699},"viewport":{"northeast":{"lat":-33.87254601970851,"lng":151.2071508302915},"southwest":{"lat":-33.87524398029151,"lng":151.2044528697085}}}},{"place_id":"ChIJPRtybxauEmsR0tsOqj8fST0","rating":3.8,"name":"Sydney Grammar School","address":"College St, Darlinghurst NSW 2010, Australia","geo":{"location":{"lat":-33.8749641,"lng":151.2133071},"viewport":{"northeast":{"lat":-33.8736151197085,"lng":151.2146560802915},"southwest":{"lat":-33.8763130802915,"lng":151.2119581197085}}}},{"place_id":"ChIJK5ezmNC6EmsRCXD1pxBgb3k","rating":4,"name":"MLC School, Sydney","address":"Rowley St, Burwood NSW 2134, Australia","geo":{"location":{"lat":-33.8715657,"lng":151.1010192},"viewport":{"northeast":{"lat":-33.8702729697085,"lng":151.1023573802915},"southwest":{"lat":-33.8729709302915,"lng":151.0996594197085}}}},{"place_id":"ChIJ2-djuuyuEmsRsXtWKlBwitk","rating":3.8,"name":"Wenona School","address":"176 Walker St, North Sydney NSW 2060, Australia","geo":{"location":{"lat":-33.833717,"lng":151.209284},"viewport":{"northeast":{"lat":-33.8324114697085,"lng":151.2109307302915},"southwest":{"lat":-33.8351094302915,"lng":151.2082327697085}}}},{"place_id":"ChIJ1SOoN8OxEmsRzHZvcWsi_b0","rating":5,"name":"Our Lady of Mt Carmel Catholic Primary","address":"4 Kellick St, Waterloo NSW 2017, Australia","geo":{"location":{"lat":-33.8995148,"lng":151.2056783},"viewport":{"northeast":{"lat":-33.8979610697085,"lng":151.2071026802915},"southwest":{"lat":-33.90065903029149,"lng":151.2044047197085}}}},{"place_id":"ChIJx9dqaJ-wEmsRWo_4ZVxTzZM","rating":3.1,"name":"Brighton le Sands Public School","address":"35 Crawford Rd, Brighton-Le-Sands NSW 2216, Australia","geo":{"location":{"lat":-33.9624075,"lng":151.14923},"viewport":{"northeast":{"lat":-33.96128236970849,"lng":151.1510085802915},"southwest":{"lat":-33.96398033029149,"lng":151.1483106197085}}}},{"place_id":"ChIJE8fVOhu5EmsRAUFakHsbZqw","rating":5,"name":"Mortdale Public School","address":"Coleborne Ave, Mortdale NSW 2223, Australia","geo":{"location":{"lat":-33.97219499999999,"lng":151.0811707},"viewport":{"northeast":{"lat":-33.97077016970849,"lng":151.0826469302915},"southwest":{"lat":-33.97346813029149,"lng":151.0799489697085}}}},{"place_id":"ChIJIXVeYHewEmsRSfY0r81Cyvc","rating":3.6,"name":"Dulwich High School of Visual Arts and Design","address":"Seaview St, Dulwich Hill NSW 2203, Australia","geo":{"location":{"lat":-33.9036858,"lng":151.1447949},"viewport":{"northeast":{"lat":-33.9021830197085,"lng":151.1459811802915},"southwest":{"lat":-33.90488098029149,"lng":151.1432832197085}}}},{"place_id":"ChIJPZ_7nxexEmsRqImeoLzg254","rating":3.7,"name":"St Bernard's Catholic Primary School","address":"Ramsgate Street, Botany NSW 2019, Australia","geo":{"location":{"lat":-33.9455316,"lng":151.2003122},"viewport":{"northeast":{"lat":-33.9442216697085,"lng":151.2016945802915},"southwest":{"lat":-33.9469196302915,"lng":151.1989966197085}}}},{"place_id":"ChIJga3M2DCwEmsRCy0v93zAFKw","rating":4,"name":"Australia Street Infants School","address":"229 Australia St, Newtown NSW 2042, Australia","geo":{"location":{"lat":-33.895615,"lng":151.177677},"viewport":{"northeast":{"lat":-33.8942307197085,"lng":151.1791554302915},"southwest":{"lat":-33.8969286802915,"lng":151.1764574697085}}}},{"place_id":"ChIJc7UyhpS5EmsRxtLtWQ5_uf8","rating":3.9,"name":"Sydney Technical High School","address":"686 Forest Rd, Bexley NSW 2207, Australia","geo":{"location":{"lat":-33.9624329,"lng":151.1129152},"viewport":{"northeast":{"lat":-33.9608307197085,"lng":151.1147946802915},"southwest":{"lat":-33.9635286802915,"lng":151.1120967197085}}}}],"parks":[{"place_id":"ChIJyxinz6mxEmsRPxlZ8QEocl4","rating":3.9,"name":"Mascot Memorial Park","address":"149 Coward St, Mascot NSW 2020, Australia","geo":{"location":{"lat":-33.9254805,"lng":151.1938984},"viewport":{"northeast":{"lat":-33.9240933197085,"lng":151.1956102302915},"southwest":{"lat":-33.92679128029149,"lng":151.1929122697085}}}},{"place_id":"ChIJn-xCjUuwEmsRTt-daMh7hC8","rating":4.6,"name":"Sydney Park","address":"Sydney Park Rd, St Peters NSW 2044, Australia","geo":{"location":{"lat":-33.90983370000001,"lng":151.1851663},"viewport":{"northeast":{"lat":-33.9034843,"lng":151.19332745},"southwest":{"lat":-33.9186467,"lng":151.17716765}}}},{"place_id":"ChIJa8DJ1PyxEmsRApdIJiwwWbY","rating":4.6,"name":"Centennial Parklands","address":"Grand Dr, Centennial Park NSW 2021, Australia","geo":{"location":{"lat":-33.9016126,"lng":151.2429711},"viewport":{"northeast":{"lat":-33.9002636197085,"lng":151.2443200802915},"southwest":{"lat":-33.9029615802915,"lng":151.2416221197085}}}},{"place_id":"ChIJaZrLHzuuEmsRYPzx-Wh9AQ8","rating":4.3,"name":"Tumbalong Park","address":"11 Harbour St, Sydney NSW 2000, Australia","geo":{"location":{"lat":-33.8756305,"lng":151.2018474},"viewport":{"northeast":{"lat":-33.8742815197085,"lng":151.2031963802915},"southwest":{"lat":-33.8769794802915,"lng":151.2004984197085}}}},{"place_id":"ChIJjTo6Y4WwEmsREP3w-Wh9AQ8","rating":4.5,"name":"Gough Whitlam Park","address":"Bayview Ave, Earlwood NSW 2206, Australia","geo":{"location":{"lat":-33.9240866,"lng":151.1512874},"viewport":{"northeast":{"lat":-33.9231938197085,"lng":151.1528424802915},"southwest":{"lat":-33.9258917802915,"lng":151.1501445197085}}}},{"place_id":"ChIJbw_ggs2vEmsRb8xy4RrG4RE","rating":4.6,"name":"Blackwattle Bay Park","address":"53 Leichhardt St, Glebe NSW 2037, Australia","geo":{"location":{"lat":-33.8720274,"lng":151.1839467},"viewport":{"northeast":{"lat":-33.8707344197085,"lng":151.1853626302915},"southwest":{"lat":-33.8734323802915,"lng":151.1826646697085}}}},{"place_id":"ChIJSY7c-JG6EmsR05LcZ73lLMg","rating":5,"name":"Peace Park Car Park, Ashbury","address":"Trevenar St, Ashbury NSW 2193, Australia","geo":{"location":{"lat":-33.8975522,"lng":151.1229888},"viewport":{"northeast":{"lat":-33.8961407697085,"lng":151.1242927302915},"southwest":{"lat":-33.8988387302915,"lng":151.1215947697085}}}},{"place_id":"ChIJFQDEa2C3EmsRoD7y-Wh9AQ8","rating":3.7,"name":"Scarborough Park","address":"Monterey NSW 2217, Australia","geo":{"location":{"lat":-33.9749084,"lng":151.1415966},"viewport":{"northeast":{"lat":-33.97039399999999,"lng":151.14563485},"southwest":{"lat":-33.97845519999999,"lng":151.13793265}}}},{"place_id":"ChIJ0yioCEKuEmsRkPHx-Wh9AQ8","rating":4.4,"name":"Macquarie Place Park","address":"50 Bridge St, Sydney NSW 2000, Australia","geo":{"location":{"lat":-33.8629498,"lng":151.2100825},"viewport":{"northeast":{"lat":-33.8618199697085,"lng":151.2115753302915},"southwest":{"lat":-33.8645179302915,"lng":151.2088773697085}}}},{"place_id":"ChIJcTcj_uSvEmsRgNnx-Wh9AQ8","rating":4.4,"name":"Leichhardt Park","address":"Glover St, Sydney NSW 2040, Australia","geo":{"location":{"lat":-33.8686071,"lng":151.1547712},"viewport":{"northeast":{"lat":-33.86739816970849,"lng":151.1577508},"southwest":{"lat":-33.87009613029149,"lng":151.1517823999999}}}},{"place_id":"ChIJn_RwrJa6EmsRsA3y-Wh9AQ8","rating":4.2,"name":"Pratten Park","address":"40 Arthur St, Ashfield NSW 2131, Australia","geo":{"location":{"lat":-33.8927686,"lng":151.1231695},"viewport":{"northeast":{"lat":-33.89069590000001,"lng":151.1242493802915},"southwest":{"lat":-33.89457829999999,"lng":151.1215514197085}}}},{"place_id":"ChIJvzAk0OSvEmsRmeyXiG9I-oQ","rating":4.2,"name":"Leichhardt Park Playground","address":"Lilyfield NSW 2040, Australia","geo":{"location":{"lat":-33.8676769,"lng":151.1523018},"viewport":{"northeast":{"lat":-33.8663279197085,"lng":151.1536507802915},"southwest":{"lat":-33.8690258802915,"lng":151.1509528197085}}}},{"place_id":"ChIJZ6DWeEOuEmsRYO_x-Wh9AQ8","rating":4.6,"name":"Observatory Hill Park","address":"Upper Fort St, Millers Point NSW 2000, Australia","geo":{"location":{"lat":-33.8594215,"lng":151.2047704},"viewport":{"northeast":{"lat":-33.8582862,"lng":151.2069895},"southwest":{"lat":-33.8618874,"lng":151.2026271}}}},{"place_id":"ChIJ_f2STU6uEmsRSt4tsWdD7xM","rating":4.4,"name":"Thornton Park","address":"1 Darling St, Balmain East NSW 2041, Australia","geo":{"location":{"lat":-33.8568936,"lng":151.1954107},"viewport":{"northeast":{"lat":-33.8556350197085,"lng":151.1967779302915},"southwest":{"lat":-33.8583329802915,"lng":151.1940799697085}}}},{"place_id":"ChIJodmQerC6EmsRW8eLNVF3D8s","rating":3.7,"name":"Hammond Park","address":"Frederick Street, Ashfield NSW 2131, Australia","geo":{"location":{"lat":-33.877828,"lng":151.1264282},"viewport":{"northeast":{"lat":-33.8766861197085,"lng":151.1284627},"southwest":{"lat":-33.8793840802915,"lng":151.1247899}}}},{"place_id":"ChIJqVW1dIyuEmsRsOTx-Wh9AQ8","rating":4.7,"name":"Milson Park","address":"McDougall St, Kirribilli NSW 2061, Australia","geo":{"location":{"lat":-33.8441847,"lng":151.214418},"viewport":{"northeast":{"lat":-33.8430459197085,"lng":151.2165835},"southwest":{"lat":-33.8457438802915,"lng":151.2126171}}}},{"place_id":"ChIJRQtt9zShEmsRgPPy-Wh9AQ8","rating":3.2,"name":"Koala Park Sanctuary","address":"84 Castle Hill Rd, West Pennant Hills NSW 2125, Australia","geo":{"location":{"lat":-33.742098,"lng":151.0451289},"viewport":{"northeast":{"lat":-33.7409816697085,"lng":151.0463803302915},"southwest":{"lat":-33.7436796302915,"lng":151.0436823697085}}}},{"place_id":"ChIJyW5Ga0ywEmsRIe96mwcw9yI","rating":2.8,"name":"Sydney Park Kiosk","address":"Sydney Park, Sydney Park Rd, St Peters NSW 2044, Australia","geo":{"location":{"lat":-33.909266,"lng":151.1828177},"viewport":{"northeast":{"lat":-33.9079170197085,"lng":151.1841666802915},"southwest":{"lat":-33.91061498029149,"lng":151.1814687197085}}}},{"place_id":"ChIJxRD8v86xEmsR5Z117ul5P70","rating":4,"name":"Alexandria Park Community School Senior Campus","address":"7 Park Rd, Alexandria NSW 2015, Australia","geo":{"location":{"lat":-33.901253,"lng":151.196533},"viewport":{"northeast":{"lat":-33.89907785,"lng":151.1973199302915},"southwest":{"lat":-33.90197805,"lng":151.1946219697085}}}},{"place_id":"ChIJ-Q8SY1PuEmsRgFry-Wh9AQ8","rating":4.4,"name":"Koshigaya Park","address":"Hurley St & Camden Rd, Campbelltown NSW 2560, Australia","geo":{"location":{"lat":-34.0704597,"lng":150.8082449},"viewport":{"northeast":{"lat":-34.0689392197085,"lng":150.8092247302915},"southwest":{"lat":-34.0716371802915,"lng":150.8065267697085}}}}],"alcohol":[{"place_id":"ChIJ5UR9pAaxEmsRgnnK_oEbLdc","rating":5,"name":"Tennyson Hotel Bottle Shop","address":"1 High St, Mascot NSW 2020, Australia","geo":{"location":{"lat":-33.9306488,"lng":151.1938265},"viewport":{"northeast":{"lat":-33.9294351197085,"lng":151.1954196302915},"southwest":{"lat":-33.9321330802915,"lng":151.1927216697085}}}},{"place_id":"ChIJP_TX0aWxEmsRjrB4KviY0Po","rating":4,"name":"The Bottle-O - Rosebery Green Bottle","address":"435 Gardeners Rd, Rosebery NSW 2018, Australia","geo":{"location":{"lat":-33.9223,"lng":151.201},"viewport":{"northeast":{"lat":-33.9208482697085,"lng":151.2023695802915},"southwest":{"lat":-33.9235462302915,"lng":151.1996716197085}}}},{"place_id":"ChIJ11euQFWwEmsRWicPMFh6CIg","rating":4.5,"name":"BWS Church Ave Mascot","address":"55 Church Ave, Mascot NSW 2020, Australia","geo":{"location":{"lat":-33.9229528,"lng":151.1859674},"viewport":{"northeast":{"lat":-33.9211710697085,"lng":151.1874106802915},"southwest":{"lat":-33.9238690302915,"lng":151.1847127197085}}}},{"place_id":"ChIJ--U5uKOxEmsRpgvoshSd9F0","name":"Liquor Stax Outlets - Lakes Hotel","address":"307 Gardeners Rd, Rosebery NSW 2018, Australia","geo":{"location":{"lat":-33.92294680000001,"lng":151.2065291},"viewport":{"northeast":{"lat":-33.9215457197085,"lng":151.2078882802915},"southwest":{"lat":-33.9242436802915,"lng":151.2051903197085}}}},{"place_id":"ChIJQct95LixEmsRnzds5CRT0hI","rating":3.7,"name":"Bottlemart - Rosebery Hotel","address":"569 Botany Rd, Rosebery NSW 2018, Australia","geo":{"location":{"lat":-33.9102858,"lng":151.2024619},"viewport":{"northeast":{"lat":-33.9089209197085,"lng":151.2037429302915},"southwest":{"lat":-33.9116188802915,"lng":151.2010449697085}}}},{"place_id":"ChIJo8wFaSiuEmsRUYNv39uho6c","rating":4,"name":"Red Bottle Central","address":"28 Broadway, Chippendale NSW 2008, Australia","geo":{"location":{"lat":-33.8847606,"lng":151.200332},"viewport":{"northeast":{"lat":-33.8834116197085,"lng":151.2016809802915},"southwest":{"lat":-33.8861095802915,"lng":151.1989830197085}}}},{"place_id":"ChIJvXnPozyuEmsR84AIvB9cm0U","rating":5,"name":"Red Bottle Chinatown","address":"1.04/9-13 Hay St, Haymarket NSW 2000, Australia","geo":{"location":{"lat":-33.8796226,"lng":151.2033206},"viewport":{"northeast":{"lat":-33.8782736197085,"lng":151.2046695802915},"southwest":{"lat":-33.8809715802915,"lng":151.2019716197085}}}},{"place_id":"ChIJvXnPozyuEmsRfVLEUDtdex0","rating":4.3,"name":"Red Bottle","address":"374 Sussex St, Sydney NSW 2000, Australia","geo":{"location":{"lat":-33.8768455,"lng":151.2047689},"viewport":{"northeast":{"lat":-33.87550381970851,"lng":151.2060301802915},"southwest":{"lat":-33.8782017802915,"lng":151.2033322197085}}}},{"place_id":"ChIJNZMNJz2uEmsRR1OnAbbqX84","rating":4.5,"name":"Red Bottle Pitt St","address":"343 Pitt St, Sydney NSW 2000, Australia","geo":{"location":{"lat":-33.8753839,"lng":151.2078984},"viewport":{"northeast":{"lat":-33.87403491970851,"lng":151.2092473802915},"southwest":{"lat":-33.87673288029151,"lng":151.2065494197085}}}},{"place_id":"ChIJg9-xfAqyEmsR0bfiCJhNhLM","rating":4.7,"name":"The Robin Hood Hotel Bottleshop","address":"203 Bronte Rd, Waverley NSW 2024, Australia","geo":{"location":{"lat":-33.9011504,"lng":151.2536626},"viewport":{"northeast":{"lat":-33.8997367197085,"lng":151.2551810302915},"southwest":{"lat":-33.9024346802915,"lng":151.2524830697085}}}},{"place_id":"ChIJr0DucfGtEmsRHPQnJjkYpjQ","rating":2.6,"name":"The Bottle-O Tea Gardens Hotel","address":"2-4 Bronte Rd, Bondi Junction NSW 2022, Australia","geo":{"location":{"lat":-33.89252,"lng":151.2500054},"viewport":{"northeast":{"lat":-33.8911533697085,"lng":151.2512180802915},"southwest":{"lat":-33.8938513302915,"lng":151.2485201197085}}}},{"place_id":"ChIJgdyBV0CuEmsRbPfBKcO7jr4","rating":2.8,"name":"The Bottle Shop","address":"1 Palings Lane, 320 George Street, Sydney NSW 2000, Australia","geo":{"location":{"lat":-33.8663179,"lng":151.2076574},"viewport":{"northeast":{"lat":-33.8649946197085,"lng":151.2087893802915},"southwest":{"lat":-33.8676925802915,"lng":151.2060914197085}}}},{"place_id":"ChIJi7ZO7QaxEmsRHamCB2g5pjA","rating":3.8,"name":"Mascot Liquor","address":"1153-1155 Botany Ln, Sydney NSW 2020, Australia","geo":{"location":{"lat":-33.930299,"lng":151.194879},"viewport":{"northeast":{"lat":-33.9289669197085,"lng":151.1963557302915},"southwest":{"lat":-33.9316648802915,"lng":151.1936577697085}}}},{"place_id":"ChIJrZQjBCmvEmsR2Bl63SM-Aw4","name":"Bottle Shops","address":"128 Hampden Rd, Artarmon NSW 2064, Australia","geo":{"location":{"lat":-33.808171,"lng":151.1835067},"viewport":{"northeast":{"lat":-33.8067562197085,"lng":151.1849329302915},"southwest":{"lat":-33.8094541802915,"lng":151.1822349697085}}}},{"place_id":"ChIJCXYiZEawEmsRe7SP91waN18","rating":3,"name":"Bottlemart Express - Golden Barley Hotel","address":"167 Edgeware Rd, Enmore NSW 2042, Australia","geo":{"location":{"lat":-33.9046252,"lng":151.1728653},"viewport":{"northeast":{"lat":-33.9032368197085,"lng":151.1743440802915},"southwest":{"lat":-33.90593478029149,"lng":151.1716461197085}}}},{"place_id":"ChIJ8RL2zbSxEmsRaRPNPTr4k-w","rating":4.1,"name":"Red Bottle Alexandria","address":"219 Mitchell Rd, Alexandria NSW 2015, Australia","geo":{"location":{"lat":-33.90674,"lng":151.1876467},"viewport":{"northeast":{"lat":-33.90536076970849,"lng":151.1890930302915},"southwest":{"lat":-33.90805873029149,"lng":151.1863950697085}}}},{"place_id":"ChIJcyT0rE23EmsR-Xm8HZTt97Y","name":"Liquor Stax Australia PTY Ltd.","address":"3/354 Bay St, Brighton-Le-Sands NSW 2216, Australia","geo":{"location":{"lat":-33.9598826,"lng":151.1546817},"viewport":{"northeast":{"lat":-33.9586542697085,"lng":151.1559561302915},"southwest":{"lat":-33.9613522302915,"lng":151.1532581697085}}}},{"place_id":"ChIJlSeuHPSuEmsR8HlW3WHHhOA","rating":4,"name":"Commodore Hotel Bottle Shop","address":"206 Blues Point Rd, McMahons Point NSW 2060, Australia","geo":{"location":{"lat":-33.8428017,"lng":151.2047783},"viewport":{"northeast":{"lat":-33.8415002697085,"lng":151.2062181802915},"southwest":{"lat":-33.8441982302915,"lng":151.2035202197085}}}},{"place_id":"ChIJJZ8-dqiwEmsR_Fqvb1j0gls","name":"Liquor Stax Australia PTY Ltd.","address":"299-307 Princes Hwy, Arncliffe NSW 2205, Australia","geo":{"location":{"lat":-33.94394,"lng":151.141881},"viewport":{"northeast":{"lat":-33.9426595697085,"lng":151.1433672302915},"southwest":{"lat":-33.9453575302915,"lng":151.1406692697085}}}},{"place_id":"ChIJ2YYmUhixEmsR9EIT5Pw-kmE","rating":4,"name":"BWS Botany Botany Road","address":"1128 Botany Rd, Botany NSW 2019, Australia","geo":{"location":{"lat":-33.945038,"lng":151.196278},"viewport":{"northeast":{"lat":-33.9436268697085,"lng":151.1978008302915},"southwest":{"lat":-33.9463248302915,"lng":151.1951028697085}}}}],"library":[{"place_id":"ChIJ2UkvyAaxEmsRMFmp7uG937Y","rating":3.2,"name":"Mascot Library","address":"2 Hatfield St, Mascot NSW 2020, Australia","geo":{"location":{"lat":-33.9301236,"lng":151.1934518},"viewport":{"northeast":{"lat":-33.9286526197085,"lng":151.1947418802915},"southwest":{"lat":-33.9313505802915,"lng":151.1920439197085}}}},{"place_id":"ChIJx61B8l6wEmsRgLEIIcBmYPc","rating":4,"name":"Sydenham Library","address":"39 Unwins Bridge Rd, Sydenham NSW 2044, Australia","geo":{"location":{"lat":-33.915479,"lng":151.1674117},"viewport":{"northeast":{"lat":-33.91422486970851,"lng":151.1688644302915},"southwest":{"lat":-33.9169228302915,"lng":151.1661664697085}}}},{"place_id":"ChIJox0-TWWxEmsRjZOh-5ouuV0","rating":4,"name":"CITY OF BOTANY BAY LIBRARY","address":"152 Bunnerong Rd, Eastgardens NSW 2036, Australia","geo":{"location":{"lat":-33.9442101,"lng":151.2231837},"viewport":{"northeast":{"lat":-33.9428611197085,"lng":151.2245326802915},"southwest":{"lat":-33.9455590802915,"lng":151.2218347197085}}}},{"place_id":"ChIJ7yo0noqxEmsReGdCxqgUzUY","rating":4.5,"name":"UNSW Library","address":"17 High St, Kensington NSW 2033, Australia","geo":{"location":{"lat":-33.9173152,"lng":151.23348},"viewport":{"northeast":{"lat":-33.9158317197085,"lng":151.23615705},"southwest":{"lat":-33.9185296802915,"lng":151.22983885}}}},{"place_id":"ChIJ5_LIzKWxEmsRTL_6ixOyAT0","name":"Rosebery Toy Library","address":"G2/414 Gardeners Rd, Rosebery NSW 2018, Australia","geo":{"location":{"lat":-33.9213984,"lng":151.1990432},"viewport":{"northeast":{"lat":-33.9202657697085,"lng":151.2003737302915},"southwest":{"lat":-33.9229637302915,"lng":151.1976757697085}}}},{"place_id":"ChIJR4Lkf4yxEmsRoVz23vT29t0","rating":4.9,"name":"UNSW Law Library","address":"Union Rd, Kensington NSW 2033, Australia","geo":{"location":{"lat":-33.9169588,"lng":151.227675},"viewport":{"northeast":{"lat":-33.9154960197085,"lng":151.2290467802915},"southwest":{"lat":-33.9181939802915,"lng":151.2263488197085}}}},{"place_id":"ChIJk__cK2WxEmsRdAEBNxsokc8","name":"Eastgardens Library","address":"Eastgardens NSW 2036, Australia","geo":{"location":{"lat":-33.9445604,"lng":151.2244514},"viewport":{"northeast":{"lat":-33.9432114197085,"lng":151.2258003802915},"southwest":{"lat":-33.9459093802915,"lng":151.2231024197085}}}},{"place_id":"ChIJDz278WSwEmsRhcuxLSW6s6g","rating":5,"name":"Chargebar @ Marrickville Library & Health Services","address":"Petersham Rd, Marrickville NSW 2204, Australia","geo":{"location":{"lat":-33.9089304,"lng":151.1543062},"viewport":{"northeast":{"lat":-33.9075874697085,"lng":151.1557310302915},"southwest":{"lat":-33.91028543029149,"lng":151.1530330697085}}}},{"place_id":"ChIJP0gJQq5QDWsR_1ezBn_A0FY","rating":4,"name":"Hornsby Shire Council - Berowra Library","address":"Community Centre, The Gully Rd, Berowra NSW 2081, Australia","geo":{"location":{"lat":-33.62156549999999,"lng":151.1502543},"viewport":{"northeast":{"lat":-33.62070071970849,"lng":151.1518849302915},"southwest":{"lat":-33.62339868029149,"lng":151.1491869697085}}}},{"place_id":"ChIJ9VHldWFiDWsRXEots6DM3zk","rating":4.9,"name":"Hawkesbury Central Library","address":"300 George St, Windsor NSW 2756, Australia","geo":{"location":{"lat":-33.6094102,"lng":150.8178234},"viewport":{"northeast":{"lat":-33.6078134697085,"lng":150.8189298302915},"southwest":{"lat":-33.6105114302915,"lng":150.8162318697085}}}},{"place_id":"ChIJhUgcE5luEmsRcHY7A7PKK8k","rating":4.6,"name":"Katoomba Library","address":"30 Parke St, Katoomba NSW 2780, Australia","geo":{"location":{"lat":-33.713948,"lng":150.310725},"viewport":{"northeast":{"lat":-33.71254421970851,"lng":150.3116697802915},"southwest":{"lat":-33.7152421802915,"lng":150.3089718197085}}}}],"fitness":[{"place_id":"ChIJ9014paqxEmsRvaxI23ZkAI4","rating":3.2,"name":"Anytime Fitness Mascot","address":"230 Coward St, Mascot NSW 2020, Australia","geo":{"location":{"lat":-33.9240685,"lng":151.1875699},"viewport":{"northeast":{"lat":-33.9228587197085,"lng":151.1888897302915},"southwest":{"lat":-33.9255566802915,"lng":151.1861917697085}}}},{"place_id":"ChIJgWkrPgSxEmsR7KtOMko1sl8","name":"CrossFit Gym","address":"1225 Botany Rd, Sydney NSW 2020, Australia","geo":{"location":{"lat":-33.9325736,"lng":151.1941493},"viewport":{"northeast":{"lat":-33.9312226697085,"lng":151.1954631302915},"southwest":{"lat":-33.9339206302915,"lng":151.1927651697085}}}},{"place_id":"ChIJ3_qmPayxEmsRgSGQvk2lICA","rating":3.3,"name":"UFC Gym Sydney","address":"Level 2/93 O'Riordan St, Alexandria NSW 2015, Australia","geo":{"location":{"lat":-33.919236,"lng":151.1919026},"viewport":{"northeast":{"lat":-33.91802551970849,"lng":151.1935733302915},"southwest":{"lat":-33.92072348029149,"lng":151.1908753697085}}}},{"place_id":"ChIJ9_qK08OxEmsRTg8mp44HHIw","rating":4.8,"name":"Ultimate Pilates Sydney","address":"103/30-40 Harcourt Parade, Rosebery NSW 2018, Australia","geo":{"location":{"lat":-33.92008879999999,"lng":151.2026857},"viewport":{"northeast":{"lat":-33.9188532197085,"lng":151.2039968302915},"southwest":{"lat":-33.92155118029149,"lng":151.2012988697085}}}},{"place_id":"ChIJBQ6Ov7qxEmsRAaDZW8sRHgI","name":"SRG Thai Boxing Gym","address":"2a/576 Botany Rd, Alexandria NSW 2015, Australia","geo":{"location":{"lat":-33.916328,"lng":151.200035},"viewport":{"northeast":{"lat":-33.9150024197085,"lng":151.2014815802915},"southwest":{"lat":-33.9177003802915,"lng":151.1987836197085}}}},{"place_id":"ChIJm8h1BK2xEmsR2l5UcP-JdO4","rating":4.1,"name":"All Sorts Fitness & Wellbeing Centre","address":"1/184 Bourke Rd, Alexandria NSW 2015, Australia","geo":{"location":{"lat":-33.9167379,"lng":151.1899439},"viewport":{"northeast":{"lat":-33.9153438697085,"lng":151.1912199302915},"southwest":{"lat":-33.9180418302915,"lng":151.1885219697085}}}},{"place_id":"ChIJQ87vrRmxEmsR_Awgtj1-j14","rating":4.5,"name":"Anytime Fitness Botany","address":"1116 Botany Rd, Botany NSW 2019, Australia","geo":{"location":{"lat":-33.9445712,"lng":151.1961024},"viewport":{"northeast":{"lat":-33.9431688697085,"lng":151.1975914302915},"southwest":{"lat":-33.9458668302915,"lng":151.1948934697085}}}},{"place_id":"ChIJX36GyViwEmsRSI9KI2YUAfU","rating":4.9,"name":"Darkside MMA","address":"407 Princes Hwy, Sydenham NSW 2044, Australia","geo":{"location":{"lat":-33.918154,"lng":151.169797},"viewport":{"northeast":{"lat":-33.9169799697085,"lng":151.1713294802915},"southwest":{"lat":-33.9196779302915,"lng":151.1686315197085}}}},{"place_id":"ChIJA-ZldLuxEmsRok4DGK_6WyE","rating":5,"name":"F45 Rosebery","address":"36 Morley Ave, Rosebery NSW 2018, Australia","geo":{"location":{"lat":-33.9162374,"lng":151.2026462},"viewport":{"northeast":{"lat":-33.9147400697085,"lng":151.2040472302915},"southwest":{"lat":-33.9174380302915,"lng":151.2013492697085}}}},{"place_id":"ChIJ36cDW7qxEmsR2RK_1U4DScc","rating":2.9,"name":"Jetts Alexandria","address":"1/540 Botany Rd, Alexandria NSW 2015, Australia","geo":{"location":{"lat":-33.91474849999999,"lng":151.2004203},"viewport":{"northeast":{"lat":-33.91344241970849,"lng":151.2019444302915},"southwest":{"lat":-33.91614038029149,"lng":151.1992464697085}}}},{"place_id":"ChIJEWeBjrCxEmsRSOfAN1tU8RA","rating":5,"name":"Chalk Up: CrossFit Alexandria Sydney","address":"Warehouse 20, 30/32 Beaconsfield St, Alexandria NSW 2015, Australia","geo":{"location":{"lat":-33.913917,"lng":151.197512},"viewport":{"northeast":{"lat":-33.9122918697085,"lng":151.1990094302915},"southwest":{"lat":-33.9149898302915,"lng":151.1963114697085}}}},{"place_id":"ChIJlRj5M7GxEmsRIJhlds0DtaM","rating":4.6,"name":"Plus Fitness 24/7 Alexandria","address":"G03/90-96 Bourke Rd, Alexandria NSW 2015, Australia","geo":{"location":{"lat":-33.91123829999999,"lng":151.195444},"viewport":{"northeast":{"lat":-33.9097391697085,"lng":151.1965568802915},"southwest":{"lat":-33.9124371302915,"lng":151.1938589197085}}}},{"place_id":"ChIJJ0WL8VCwEmsRRrpRPsf0wIg","rating":5,"name":"FITNESS EMPIRE","address":"B2/238 Princes Hwy, St Peters NSW 2044, Australia","geo":{"location":{"lat":-33.914924,"lng":151.176947},"viewport":{"northeast":{"lat":-33.91346486970851,"lng":151.1782157302915},"southwest":{"lat":-33.9161628302915,"lng":151.1755177697085}}}},{"place_id":"ChIJkXfL8Ey3EmsRyl4586ySkkg","rating":5,"name":"Revive Gym and Fitness","address":"2 Princess St, Brighton-Le-Sands NSW 2216, Australia","geo":{"location":{"lat":-33.9594043,"lng":151.1559316},"viewport":{"northeast":{"lat":-33.9581577197085,"lng":151.1572163302915},"southwest":{"lat":-33.96085568029149,"lng":151.1545183697085}}}},{"place_id":"ChIJK5_W9ymuEmsRq-Nlv-7eHcg","rating":2.6,"name":"Anytime Fitness Glebe","address":"1/9 Glebe Point Rd, Glebe NSW 2037, Australia","geo":{"location":{"lat":-33.88409,"lng":151.19287},"viewport":{"northeast":{"lat":-33.8828178697085,"lng":151.1941371802915},"southwest":{"lat":-33.8855158302915,"lng":151.1914392197085}}}},{"place_id":"ChIJ2wbW3RiyEmsRO7SoK5IPXsY","rating":2.9,"name":"Anytime Fitness Randwick","address":"ANZ ATM Royal Randwick Shopping Centre, 73 Belmore Rd, Randwick NSW 2031, Australia","geo":{"location":{"lat":-33.9154072,"lng":151.2406596},"viewport":{"northeast":{"lat":-33.9140582197085,"lng":151.2420085802915},"southwest":{"lat":-33.9167561802915,"lng":151.2393106197085}}}},{"place_id":"ChIJJ_cy0GCwEmsRHWSnVNboROA","rating":4.3,"name":"Anytime Fitness Marrickville","address":"142 Marrickville Rd, Marrickville NSW 2204, Australia","geo":{"location":{"lat":-33.9133537,"lng":151.1613648},"viewport":{"northeast":{"lat":-33.9118838697085,"lng":151.1628366802915},"southwest":{"lat":-33.9145818302915,"lng":151.1601387197085}}}},{"place_id":"ChIJAdp74q2xEmsRF_303IQAX0M","rating":5,"name":"SkyFIT - Alexandria","address":"75 O'Riordan St, Mascot NSW 2020, Australia","geo":{"location":{"lat":-33.9165445,"lng":151.1927359},"viewport":{"northeast":{"lat":-33.91548341970851,"lng":151.1947443302915},"southwest":{"lat":-33.91818138029151,"lng":151.1920463697085}}}},{"place_id":"ChIJ13zYPdSzEmsR76nAVLD0iRE","rating":2,"name":"Curves","address":"Shop 2&3, 818 Anzac Parade, Maroubra NSW 2035, Australia","geo":{"location":{"lat":-33.9391768,"lng":151.2390933},"viewport":{"northeast":{"lat":-33.9378278197085,"lng":151.2404422802915},"southwest":{"lat":-33.9405257802915,"lng":151.2377443197085}}}},{"place_id":"ChIJKZGaQgSxEmsRftr7ippmFvU","rating":5,"name":"Achieve Pole Studio","address":"1263 Botany Rd, Mascot NSW 2020, Australia","geo":{"location":{"lat":-33.933216,"lng":151.194093},"viewport":{"northeast":{"lat":-33.9318479197085,"lng":151.1953635802915},"southwest":{"lat":-33.93454588029149,"lng":151.1926656197085}}}}],"junk":[{"place_id":"ChIJy9y08AKxEmsRZYLAoj_LFEc","rating":3.5,"name":"McDonald's Sydney Airport- Gateway","address":"9 Ross Smith Ave, Mascot NSW 2020, Australia","geo":{"location":{"lat":-33.93274,"lng":151.188577},"viewport":{"northeast":{"lat":-33.9315246697085,"lng":151.1899346802915},"southwest":{"lat":-33.9342226302915,"lng":151.1872367197085}}}},{"place_id":"ChIJXbfZBFmwEmsRKkJWVsnXIdI","rating":3.7,"name":"Hungry Jack's St Peters","address":"400 Princes Hwy, St Peters NSW 2044, Australia","geo":{"location":{"lat":-33.9179908,"lng":151.171415},"viewport":{"northeast":{"lat":-33.91655571970851,"lng":151.1726752302915},"southwest":{"lat":-33.9192536802915,"lng":151.1699772697085}}}},{"place_id":"ChIJLQdyde2wEmsR433qpoHh4pA","rating":3,"name":"Subway¬Æ Restaurant","address":"Sydney International Airport, LF05, Mascot NSW 2020, Australia","geo":{"location":{"lat":-33.93717229999999,"lng":151.1663851},"viewport":{"northeast":{"lat":-33.9358233197085,"lng":151.1677340802915},"southwest":{"lat":-33.9385212802915,"lng":151.1650361197085}}}},{"place_id":"ChIJ9Qtr3Y6xEmsRg6yljQog6HU","rating":3.5,"name":"Oporto - Kingsford","address":"287/291 Anzac Parade, Kingsford NSW 2032, Australia","geo":{"location":{"lat":-33.921166,"lng":151.226535},"viewport":{"northeast":{"lat":-33.9198069197085,"lng":151.2279676802915},"southwest":{"lat":-33.9225048802915,"lng":151.2252697197085}}}},{"place_id":"ChIJYzEAjziwEmsRf_n1I3P6S0Q","rating":3.7,"name":"Faheem Fast Food","address":"194-196 Enmore Rd, Enmore NSW 2042, Australia","geo":{"location":{"lat":-33.8993476,"lng":151.1717533},"viewport":{"northeast":{"lat":-33.8978826197085,"lng":151.1730880302915},"southwest":{"lat":-33.9005805802915,"lng":151.1703900697085}}}},{"place_id":"ChIJAdVaon6xEmsR7Bw1jKKEHXw","rating":2.9,"name":"KFC Pagewood","address":"279 Bunnerong Rd, Maroubra NSW 2035, Australia","geo":{"location":{"lat":-33.9399397,"lng":151.2290652},"viewport":{"northeast":{"lat":-33.9385907197085,"lng":151.2304141802915},"southwest":{"lat":-33.9412886802915,"lng":151.2277162197085}}}},{"place_id":"ChIJWXQscuuwEmsRKDC39XzCzyY","rating":4.3,"name":"McDonald's","address":"1666 Departure Plaza, Mascot NSW 2020, Australia","geo":{"location":{"lat":-33.9354356,"lng":151.1659687},"viewport":{"northeast":{"lat":-33.93408661970849,"lng":151.1673176802915},"southwest":{"lat":-33.93678458029149,"lng":151.1646197197085}}}},{"place_id":"ChIJrc8SIDewEmsRfpFE1ae-ifM","rating":3.7,"name":"Oporto","address":"1-19 Enmore Rd, Newtown NSW 2042, Australia","geo":{"location":{"lat":-33.8979199,"lng":151.1773764},"viewport":{"northeast":{"lat":-33.89668451970849,"lng":151.1787881802915},"southwest":{"lat":-33.89938248029149,"lng":151.1760902197085}}}},{"place_id":"ChIJaSid0WSxEmsRmJIeIqHaLPw","rating":2.7,"name":"McDonald's","address":"152 Bunnerong Road, Eastgardens NSW 2036, Australia","geo":{"location":{"lat":-33.9449115,"lng":151.2230265},"viewport":{"northeast":{"lat":-33.94356251970849,"lng":151.2243754802915},"southwest":{"lat":-33.94626048029149,"lng":151.2216775197085}}}},{"place_id":"ChIJ_baKL2WxEmsR_p83kjMXIo8","rating":3.2,"name":"Oporto - Eastgardens","address":"Shop 269, Westfield Eastgardens, 152 Bunnerong Rd, Eastgardens NSW 2036, Australia","geo":{"location":{"lat":-33.944835,"lng":151.223295},"viewport":{"northeast":{"lat":-33.94348601970849,"lng":151.2246439802915},"southwest":{"lat":-33.94618398029149,"lng":151.2219460197085}}}},{"place_id":"ChIJ_3YGF2SwEmsRyTNC-X0tmX0","rating":3.5,"name":"Oporto - Marrickville","address":"229 Marrickville Rd, Marrickville NSW 2204, Australia","geo":{"location":{"lat":-33.91056589999999,"lng":151.1569683},"viewport":{"northeast":{"lat":-33.9092890697085,"lng":151.1582698802915},"southwest":{"lat":-33.9119870302915,"lng":151.1555719197085}}}},{"place_id":"ChIJF_LNCSywEmsRBhnWsmjpyrQ","rating":3.6,"name":"The Corner McCaf√©","address":"8b Missenden Rd, Camperdown NSW 2050, Australia","geo":{"location":{"lat":-33.8888324,"lng":151.1820357},"viewport":{"northeast":{"lat":-33.88752511970851,"lng":151.1833016802915},"southwest":{"lat":-33.8902230802915,"lng":151.1806037197085}}}},