{"1655":{"pharmacy":[{"place_id":"ChIJ2VhOLgmrEmsR1MMgWhWmsDQ","rating":4.5,"name":"Priceline Pharmacy Manly","geo":{"location":{"lat":-33.798829,"lng":151.2853855},"viewport":{"northeast":{"lat":-33.7974449197085,"lng":151.2866872302915},"southwest":{"lat":-33.8001428802915,"lng":151.2839892697085}}}},{"place_id":"ChIJn7KNdCiItAERKmc5xaXblbs","rating":4.7,"name":"Malouf Manly Pharmacy","geo":{"location":{"lat":-33.79806099999999,"lng":151.286586},"viewport":{"northeast":{"lat":-33.79666441970849,"lng":151.2878931302915},"southwest":{"lat":-33.79936238029148,"lng":151.2851951697085}}}},{"place_id":"ChIJOTH3KwmrEmsRkrHSL2iv3hc","name":"The Corso Pharmacy","geo":{"location":{"lat":-33.7988905,"lng":151.2854343},"viewport":{"northeast":{"lat":-33.7974756697085,"lng":151.2867116302915},"southwest":{"lat":-33.8001736302915,"lng":151.2840136697085}}}},{"place_id":"ChIJ500aPA-rEmsRW0dYv-Kpv2A","rating":3,"name":"Summer Pharmacy","geo":{"location":{"lat":-33.798042,"lng":151.287184},"viewport":{"northeast":{"lat":-33.7965332697085,"lng":151.2883925302915},"southwest":{"lat":-33.7992312302915,"lng":151.2856945697085}}}},{"place_id":"ChIJcbFqUqarEmsRJ3-W7uocGr0","rating":4.7,"name":"Fairlight Pharmacy","geo":{"location":{"lat":-33.7957578,"lng":151.2770278},"viewport":{"northeast":{"lat":-33.7945096197085,"lng":151.2783666802915},"southwest":{"lat":-33.7972075802915,"lng":151.2756687197085}}}},{"place_id":"ChIJE4hf0girEmsRnMPPpjo6sMw","rating":3,"name":"Chemist Warehouse Manly Beach","geo":{"location":{"lat":-33.7980703,"lng":151.2858474},"viewport":{"northeast":{"lat":-33.79681686970849,"lng":151.2872803802915},"southwest":{"lat":-33.79951483029149,"lng":151.2845824197085}}}}],"hospitals":[{"place_id":"ChIJazVpqxOrEmsRhFrnttejQP8","rating":3.8,"name":"Manly Hospital","geo":{"location":{"lat":-33.805435,"lng":151.2948677},"viewport":{"northeast":{"lat":-33.8042088697085,"lng":151.29641475},"southwest":{"lat":-33.8069068302915,"lng":151.29275975}}}},{"place_id":"ChIJS0sQqhOrEmsR9AzjQ9fgF7A","rating":5,"name":"Maternity Unit, Manly Hospital","geo":{"location":{"lat":-33.8060477,"lng":151.295085},"viewport":{"northeast":{"lat":-33.8046987197085,"lng":151.2964339802915},"southwest":{"lat":-33.8073966802915,"lng":151.2937360197085}}}},{"place_id":"ChIJ32oCDBKrEmsRHsRS2LlSrVc","rating":4.7,"name":"Bear Cottage","geo":{"location":{"lat":-33.8036669,"lng":151.2920425},"viewport":{"northeast":{"lat":-33.8024155697085,"lng":151.2932537802915},"southwest":{"lat":-33.8051135302915,"lng":151.2905558197085}}}}],"dentist":[{"place_id":"ChIJSbFQuAirEmsRmOUpY8uEuto","rating":5,"name":"Sydney Road Dental Care","geo":{"location":{"lat":-33.797058,"lng":151.28518},"viewport":{"northeast":{"lat":-33.79569326970851,"lng":151.2864295802915},"southwest":{"lat":-33.79839123029151,"lng":151.2837316197085}}}},{"place_id":"ChIJk881NQmrEmsRDNwJshE0iuo","name":"Geoff Thomas Dental","geo":{"location":{"lat":-33.799867,"lng":151.286011},"viewport":{"northeast":{"lat":-33.7986239697085,"lng":151.2872481802915},"southwest":{"lat":-33.8013219302915,"lng":151.2845502197085}}}},{"place_id":"ChIJRdjYtA6rEmsRQ4-f7XBm_EA","rating":3,"name":"Manly Smiles - General & Emergency 7 Day 24 Hour Dentist","geo":{"location":{"lat":-33.8001747,"lng":151.2863267},"viewport":{"northeast":{"lat":-33.79891486970851,"lng":151.2875426802915},"southwest":{"lat":-33.8016128302915,"lng":151.2848447197085}}}},{"place_id":"ChIJHXkVPAmrEmsRjqUMp1UEBD0","rating":4,"name":"Manly Dental Care","geo":{"location":{"lat":-33.79928269999999,"lng":151.2848132},"viewport":{"northeast":{"lat":-33.7979869697085,"lng":151.2861153802915},"southwest":{"lat":-33.8006849302915,"lng":151.2834174197085}}}},{"place_id":"ChIJqw9xNg-rEmsR4JYjDB5QJHE","rating":4.6,"name":"Manly Dentistry","geo":{"location":{"lat":-33.79773529999999,"lng":151.2865315},"viewport":{"northeast":{"lat":-33.79645566970849,"lng":151.2879414802915},"southwest":{"lat":-33.79915363029149,"lng":151.2852435197085}}}},{"place_id":"ChIJxY5-SAGrEmsRuPZ7tSQ6KNg","rating":5,"name":"The Friendly Dentist","geo":{"location":{"lat":-33.7900287,"lng":151.2848983},"viewport":{"northeast":{"lat":-33.7886657197085,"lng":151.2863239302915},"southwest":{"lat":-33.7913636802915,"lng":151.2836259697085}}}},{"place_id":"ChIJXxjJPQmrEmsRERzW_mYAkdM","rating":5,"name":"Manly Wharf Dental","geo":{"location":{"lat":-33.7992162,"lng":151.2847514},"viewport":{"northeast":{"lat":-33.7979634697085,"lng":151.2861265802915},"southwest":{"lat":-33.80066143029149,"lng":151.2834286197085}}}},{"place_id":"ChIJXxjJPQmrEmsR2k1ARf_o1W4","rating":5,"name":"Manly Family & General Dental Practice","geo":{"location":{"lat":-33.7997883,"lng":151.2868458},"viewport":{"northeast":{"lat":-33.7983569197085,"lng":151.2883095802915},"southwest":{"lat":-33.8010548802915,"lng":151.2856116197085}}}},{"place_id":"ChIJ2w9rxA6rEmsRxE17-dDts8s","rating":5,"name":"Dentaland - Dental Implants - All On 4 Manly","geo":{"location":{"lat":-33.7997821,"lng":151.2868924},"viewport":{"northeast":{"lat":-33.7984114197085,"lng":151.2883806302915},"southwest":{"lat":-33.8011093802915,"lng":151.2856826697085}}}},{"place_id":"ChIJvYkWPAmrEmsR5omG6k3lv90","name":"Manly Active Dental","geo":{"location":{"lat":-33.799286,"lng":151.284858},"viewport":{"northeast":{"lat":-33.7979370197085,"lng":151.2862069802915},"southwest":{"lat":-33.8006349802915,"lng":151.2835090197085}}}},{"place_id":"ChIJvYkWPAmrEmsRpKBbeWGWARs","name":"Peter Heyworth & Associates","geo":{"location":{"lat":-33.797138,"lng":151.28804},"viewport":{"northeast":{"lat":-33.7957890197085,"lng":151.2893889802915},"southwest":{"lat":-33.79848698029149,"lng":151.2866910197085}}}},{"place_id":"ChIJC3zySgmrEmsRg7n-PbpNhZw","name":"Dr Geoffrey Thomas","geo":{"location":{"lat":-33.79985120000001,"lng":151.2860761},"viewport":{"northeast":{"lat":-33.7986204197085,"lng":151.2872866802915},"southwest":{"lat":-33.8013183802915,"lng":151.2845887197085}}}},{"place_id":"ChIJC3zySgmrEmsRON7lE9FSu6I","rating":5,"name":"Exceldent","geo":{"location":{"lat":-33.7998384,"lng":151.2860246},"viewport":{"northeast":{"lat":-33.79860176970849,"lng":151.2872328802915},"southwest":{"lat":-33.80129973029149,"lng":151.2845349197085}}}},{"place_id":"ChIJAQqhxgirEmsRnVzpCMwFAKY","name":"Pilatos Dimitrios","geo":{"location":{"lat":-33.7974854,"lng":151.2851878},"viewport":{"northeast":{"lat":-33.7960203697085,"lng":151.2863998802915},"southwest":{"lat":-33.7987183302915,"lng":151.2837019197085}}}},{"place_id":"ChIJKaD2DwarEmsRRl1kcjeyE3w","rating":5,"name":"Dr Daniel Pechar","geo":{"location":{"lat":-33.7952954,"lng":151.2853694},"viewport":{"northeast":{"lat":-33.7939464197085,"lng":151.2867183802915},"southwest":{"lat":-33.7966443802915,"lng":151.2840204197085}}}},{"place_id":"ChIJyXFfwQ6rEmsRrwp6sPI9Sa0","name":"DR RICHARD JANUSIC DR ELIZABETH GLUHIN","geo":{"location":{"lat":-33.7997883,"lng":151.2868458},"viewport":{"northeast":{"lat":-33.7983569197085,"lng":151.2883095802915},"southwest":{"lat":-33.8010548802915,"lng":151.2856116197085}}}},{"place_id":"ChIJv1-1BgarEmsRqet0Ui84I80","rating":5,"name":"Dr Abraham Elbouch","geo":{"location":{"lat":-33.79572400000001,"lng":151.2857568},"viewport":{"northeast":{"lat":-33.7943953197085,"lng":151.2868479302915},"southwest":{"lat":-33.7970932802915,"lng":151.2841499697085}}}},{"place_id":"ChIJxY5-SAGrEmsRjh9jmyxvMj8","rating":5,"name":"Dr Anthony Cassimaty","geo":{"location":{"lat":-33.790046,"lng":151.2847355},"viewport":{"northeast":{"lat":-33.7886743697085,"lng":151.2862425302915},"southwest":{"lat":-33.79137233029149,"lng":151.2835445697085}}}},{"place_id":"ChIJHxJPuAirEmsRw6oVGobt7Sg","name":"Dr Ben Chuang","geo":{"location":{"lat":-33.7970569,"lng":151.2851796},"viewport":{"northeast":{"lat":-33.79569326970851,"lng":151.2864294802915},"southwest":{"lat":-33.79839123029151,"lng":151.2837315197085}}}},{"place_id":"ChIJJxNPuAirEmsRL7GgB2im3jU","name":"Dr Fay Callaghan","geo":{"location":{"lat":-33.797058,"lng":151.28518},"viewport":{"northeast":{"lat":-33.79569326970851,"lng":151.2864295802915},"southwest":{"lat":-33.79839123029151,"lng":151.2837316197085}}}},{"place_id":"ChIJC3zySgmrEmsRXshiLM9Gpl4","name":"Dr Brown, Denis","geo":{"location":{"lat":-33.7998281,"lng":151.285985},"viewport":{"northeast":{"lat":-33.7986045197085,"lng":151.2872351802915},"southwest":{"lat":-33.8013024802915,"lng":151.2845372197085}}}},{"place_id":"ChIJJxNPuAirEmsR6FPC_UckmZw","name":"Dr Jamie Jones","geo":{"location":{"lat":-33.7970569,"lng":151.2851796},"viewport":{"northeast":{"lat":-33.79569326970851,"lng":151.2864294802915},"southwest":{"lat":-33.79839123029151,"lng":151.2837315197085}}}},{"place_id":"ChIJ59bftQ6rEmsR5hJmvbho3-A","name":"Dr Steven Shi BDSc Hons (Melb)","geo":{"location":{"lat":-33.8001305,"lng":151.2863856},"viewport":{"northeast":{"lat":-33.79878151970851,"lng":151.2877345802915},"southwest":{"lat":-33.8014794802915,"lng":151.2850366197085}}}},{"place_id":"ChIJk881NQmrEmsRmfzAelmfYk0","rating":5,"name":"Manly Orthodontics","geo":{"location":{"lat":-33.7998384,"lng":151.2860246},"viewport":{"northeast":{"lat":-33.7986096697085,"lng":151.2872549802915},"southwest":{"lat":-33.8013076302915,"lng":151.2845570197085}}}},{"place_id":"ChIJC3zySgmrEmsRWE5BvrsLUmc","rating":5,"name":"Manly Orthodontics","geo":{"location":{"lat":-33.799867,"lng":151.286011},"viewport":{"northeast":{"lat":-33.7986239697085,"lng":151.2872481802915},"southwest":{"lat":-33.8013219302915,"lng":151.2845502197085}}}}],"doctors":[{"place_id":"ChIJzcbeAwarEmsRM4tVjkEd4Ls","rating":5,"name":"Raglan Street Family Medical Centre - Dr. Ly Lin","geo":{"location":{"lat":-33.79572539999999,"lng":151.2855067},"viewport":{"northeast":{"lat":-33.7944177697085,"lng":151.2867212302915},"southwest":{"lat":-33.7971157302915,"lng":151.2840232697085}}}},{"place_id":"ChIJk881NQmrEmsR6VtIAtfBy9M","rating":2,"name":"Dr Bannister Mike","geo":{"location":{"lat":-33.799867,"lng":151.286011},"viewport":{"northeast":{"lat":-33.7986239697085,"lng":151.2872481802915},"southwest":{"lat":-33.8013219302915,"lng":151.2845502197085}}}},{"place_id":"ChIJe66iUqarEmsRypYTrk7_OK4","rating":5,"name":"Williams Gavin DR","geo":{"location":{"lat":-33.79584,"lng":151.277195},"viewport":{"northeast":{"lat":-33.7945571197085,"lng":151.2785363302915},"southwest":{"lat":-33.79725508029149,"lng":151.2758383697085}}}},{"place_id":"ChIJu30MrQirEmsRfKoK1Z-3pK0","name":"Dr Hon Chan","geo":{"location":{"lat":-33.79661230000001,"lng":151.2858617},"viewport":{"northeast":{"lat":-33.7952633197085,"lng":151.2872106802915},"southwest":{"lat":-33.7979612802915,"lng":151.2845127197085}}}},{"place_id":"ChIJWeXzEA-rEmsR44oNTleSrfw","name":"Dr Efstathios","geo":{"location":{"lat":-33.79838890000001,"lng":151.2879744},"viewport":{"northeast":{"lat":-33.7970754197085,"lng":151.2893511302915},"southwest":{"lat":-33.7997733802915,"lng":151.2866531697085}}}},{"place_id":"ChIJyXFfwQ6rEmsRZI9SxG07XH8","name":"Dr Paul Fowler","geo":{"location":{"lat":-33.799788,"lng":151.286846},"viewport":{"northeast":{"lat":-33.7984143697085,"lng":151.2883574302915},"southwest":{"lat":-33.8011123302915,"lng":151.2856594697085}}}},{"place_id":"ChIJcS1qxA6rEmsRCesDgrm6Mhg","name":"Dr Kate Hale","geo":{"location":{"lat":-33.7997883,"lng":151.2868458},"viewport":{"northeast":{"lat":-33.7984100197085,"lng":151.2883535802915},"southwest":{"lat":-33.8011079802915,"lng":151.2856556197085}}}},{"place_id":"ChIJu_hxfvKuEmsRjPGzJTY81nQ","rating":1,"name":"Dr Warwick Harper","geo":{"location":{"lat":-33.797253,"lng":151.28413},"viewport":{"northeast":{"lat":-33.7959207197085,"lng":151.2855843302915},"southwest":{"lat":-33.7986186802915,"lng":151.2828863697085}}}},{"place_id":"ChIJUdrOww6rEmsRjyfWY7LrDPs","rating":5,"name":"Dr James Ferry","geo":{"location":{"lat":-33.7997883,"lng":151.2868458},"viewport":{"northeast":{"lat":-33.7983676697085,"lng":151.2883174802915},"southwest":{"lat":-33.8010656302915,"lng":151.2856195197085}}}},{"place_id":"ChIJ3wMiKw-rEmsRexvzNGGISCQ","name":"Dr Nigel Ackroyd Vascular & Endovascular Surgeon","geo":{"location":{"lat":-33.79985120000001,"lng":151.2860761},"viewport":{"northeast":{"lat":-33.79842301970851,"lng":151.2873546302915},"southwest":{"lat":-33.8011209802915,"lng":151.2846566697085}}}},{"place_id":"ChIJfaDOww6rEmsRtWJG1jOF7DA","name":"Dr Sarah Woodbury","geo":{"location":{"lat":-33.7997883,"lng":151.2868458},"viewport":{"northeast":{"lat":-33.7984393197085,"lng":151.2881947802915},"southwest":{"lat":-33.8011372802915,"lng":151.2854968197085}}}},{"place_id":"ChIJWeXzEA-rEmsRvbXoHNZtuo4","name":"Dr.Jonathan Page","geo":{"location":{"lat":-33.7982431,"lng":151.2876889},"viewport":{"northeast":{"lat":-33.7970350697085,"lng":151.2891480802915},"southwest":{"lat":-33.7997330302915,"lng":151.2864501197085}}}},{"place_id":"ChIJLzxVrwirEmsRPneab6YuGRs","name":"Goktogan Safak DR","geo":{"location":{"lat":-33.796349,"lng":151.28542},"viewport":{"northeast":{"lat":-33.7949795697085,"lng":151.2866312802915},"southwest":{"lat":-33.7976775302915,"lng":151.2839333197085}}}},{"place_id":"ChIJLzxVrwirEmsRnJ6qWlpkqD0","rating":3,"name":"Dr Gabrielle Howard","geo":{"location":{"lat":-33.796349,"lng":151.28542},"viewport":{"northeast":{"lat":-33.7949791197085,"lng":151.2866313802915},"southwest":{"lat":-33.7976770802915,"lng":151.2839334197085}}}},{"place_id":"ChIJyXFfwQ6rEmsRrwp6sPI9Sa0","name":"DR RICHARD JANUSIC DR ELIZABETH GLUHIN","geo":{"location":{"lat":-33.7997883,"lng":151.2868458},"viewport":{"northeast":{"lat":-33.7983569197085,"lng":151.2883095802915},"southwest":{"lat":-33.8010548802915,"lng":151.2856116197085}}}},{"place_id":"ChIJXT8EIg-rEmsRAH-jUj1vMFo","rating":3.8,"name":"Manly Medical Centre","geo":{"location":{"lat":-33.7989666,"lng":151.2890434},"viewport":{"northeast":{"lat":-33.79758246970849,"lng":151.2904617802915},"southwest":{"lat":-33.80028043029149,"lng":151.2877638197085}}}},{"place_id":"ChIJJxNPuAirEmsR_Up5WiY-dzA","name":"Dr Alan Marel","geo":{"location":{"lat":-33.797058,"lng":151.28518},"viewport":{"northeast":{"lat":-33.7956931697085,"lng":151.2864289802915},"southwest":{"lat":-33.7983911302915,"lng":151.2837310197085}}}},{"place_id":"ChIJe66iUqarEmsRACd5U20tmM0","rating":4.1,"name":"Myora Medical General Practice PTY LTD","geo":{"location":{"lat":-33.7958423,"lng":151.2772017},"viewport":{"northeast":{"lat":-33.7945585197085,"lng":151.2785431302915},"southwest":{"lat":-33.79725648029149,"lng":151.2758451697085}}}},{"place_id":"ChIJk881NQmrEmsR5EzeAJJooUk","name":"North Shore Dermatology","geo":{"location":{"lat":-33.799867,"lng":151.286011},"viewport":{"northeast":{"lat":-33.7985180197085,"lng":151.2873599802915},"southwest":{"lat":-33.8012159802915,"lng":151.2846620197085}}}},{"place_id":"ChIJnaKQMQ-rEmsRU-2f9ei1gZY","name":"Vickers C R","geo":{"location":{"lat":-33.7980291,"lng":151.2864577},"viewport":{"northeast":{"lat":-33.7966819697085,"lng":151.2878082802915},"southwest":{"lat":-33.7993799302915,"lng":151.2851103197085}}}},{"place_id":"ChIJVVVVVQirEmsRbWT6Po8EvAk","rating":5,"name":"Nihad Jackson","geo":{"location":{"lat":-33.7969047,"lng":151.2842017},"viewport":{"northeast":{"lat":-33.7954720197085,"lng":151.2855693802915},"southwest":{"lat":-33.7981699802915,"lng":151.2828714197085}}}},{"place_id":"ChIJPZtZHw-rEmsRAp5Ntatea0c","name":"Brandson A S","geo":{"location":{"lat":-33.79923300000001,"lng":151.286559},"viewport":{"northeast":{"lat":-33.7978840197085,"lng":151.2879079802915},"southwest":{"lat":-33.8005819802915,"lng":151.2852100197085}}}},{"place_id":"ChIJLzxVrwirEmsRE4YJsMPguxc","rating":3.9,"name":"Alternative Foot Solutions","geo":{"location":{"lat":-33.796349,"lng":151.28542},"viewport":{"northeast":{"lat":-33.7949699697085,"lng":151.2866330802915},"southwest":{"lat":-33.7976679302915,"lng":151.2839351197085}}}},{"place_id":"ChIJk881NQmrEmsRBSkRvEJoF80","name":". Freny Kalapesi -","geo":{"location":{"lat":-33.799867,"lng":151.286011},"viewport":{"northeast":{"lat":-33.7986239697085,"lng":151.2872481802915},"southwest":{"lat":-33.8013219302915,"lng":151.2845502197085}}}},{"place_id":"ChIJ2w9rxA6rEmsRwqFOYl6lgoI","rating":4,"name":"Genea | Manly, Northern Beaches | IVF & Fertility Clinic","geo":{"location":{"lat":-33.79976990000001,"lng":151.2868666},"viewport":{"northeast":{"lat":-33.7984076697085,"lng":151.2883677802915},"southwest":{"lat":-33.8011056302915,"lng":151.2856698197085}}}},{"place_id":"ChIJyXFfwQ6rEmsR4weFnwtKBh8","name":"Kennedy Michael","geo":{"location":{"lat":-33.7997883,"lng":151.2868458},"viewport":{"northeast":{"lat":-33.79841451970849,"lng":151.2883573302915},"southwest":{"lat":-33.80111248029149,"lng":151.2856593697085}}}},{"place_id":"ChIJvasnog6rEmsRzn1i8Bp0LbY","name":"Eaton Warwick R","geo":{"location":{"lat":-33.801248,"lng":151.287362},"viewport":{"northeast":{"lat":-33.7999865197085,"lng":151.2887817802915},"southwest":{"lat":-33.8026844802915,"lng":151.2860838197085}}}},{"place_id":"ChIJLzxVrwirEmsR7AzjOMJfZd4","name":"Sydney Insulin Pump Clinic","geo":{"location":{"lat":-33.796349,"lng":151.28542},"viewport":{"northeast":{"lat":-33.7949791197085,"lng":151.2866313802915},"southwest":{"lat":-33.7976770802915,"lng":151.2839334197085}}}},{"place_id":"ChIJYZ6h7girEmsRlRd8zqQlLbI","name":"Peninsula Plastic Surgery","geo":{"location":{"lat":-33.7972058,"lng":151.2841628},"viewport":{"northeast":{"lat":-33.7958568197085,"lng":151.2855117802915},"southwest":{"lat":-33.7985547802915,"lng":151.2828138197085}}}},{"place_id":"ChIJvasnog6rEmsRc_ecT8JDISw","name":"Howell Lesley K V","geo":{"location":{"lat":-33.801248,"lng":151.287362},"viewport":{"northeast":{"lat":-33.7999865197085,"lng":151.2887817802915},"southwest":{"lat":-33.8026844802915,"lng":151.2860838197085}}}},{"place_id":"ChIJvYkWPAmrEmsRpKBbeWGWARs","name":"Peter Heyworth & Associates","geo":{"location":{"lat":-33.797138,"lng":151.28804},"viewport":{"northeast":{"lat":-33.7957890197085,"lng":151.2893889802915},"southwest":{"lat":-33.79848698029149,"lng":151.2866910197085}}}},{"place_id":"ChIJRdjYtA6rEmsRFhojEcJxiR8","name":"Manly Cove Podiatry","geo":{"location":{"lat":-33.8001599,"lng":151.286481},"viewport":{"northeast":{"lat":-33.7988431197085,"lng":151.2875661302915},"southwest":{"lat":-33.80154108029149,"lng":151.2848681697085}}}},{"place_id":"ChIJk881NQmrEmsR2D8VBYdwUvQ","name":"Northern Peninsula Oral and Maxillofacial Surgery Manly","geo":{"location":{"lat":-33.799867,"lng":151.2860111},"viewport":{"northeast":{"lat":-33.7986239697085,"lng":151.2872482302915},"southwest":{"lat":-33.8013219302915,"lng":151.2845502697085}}}},{"place_id":"ChIJr0NCOA-rEmsR9U6hh2h5Yrw","name":"Elizabeth M D'Avigdor","geo":{"location":{"lat":-33.7976882,"lng":151.2869941},"viewport":{"northeast":{"lat":-33.79635036970849,"lng":151.2883532302915},"southwest":{"lat":-33.79904833029149,"lng":151.2856552697085}}}},{"place_id":"ChIJiyK3RoSqEmsRFGXmti3bJdE","name":"Plastic Surgery Cosmetic Surgery","geo":{"location":{"lat":-33.7985209,"lng":151.2861201},"viewport":{"northeast":{"lat":-33.7971719197085,"lng":151.2874690802915},"southwest":{"lat":-33.7998698802915,"lng":151.2847711197085}}}},{"place_id":"ChIJAT0mWN2uEmsRW9felbRZRlo","name":"Diagnostic Insight","geo":{"location":{"lat":-33.7997983,"lng":151.2870436},"viewport":{"northeast":{"lat":-33.7984493197085,"lng":151.2883925802915},"southwest":{"lat":-33.8011472802915,"lng":151.2856946197085}}}}],"library":[{"place_id":"ChIJ9xolywirEmsRfX3Ip2j0Pkc","rating":4.5,"name":"Manly Library","geo":{"location":{"lat":-33.79752800000001,"lng":151.2860829},"viewport":{"northeast":{"lat":-33.7962766697085,"lng":151.2874531302915},"southwest":{"lat":-33.7989746302915,"lng":151.2847551697085}}}}],"alcohol":[{"place_id":"ChIJI9Bw1QirEmsRhpZU9wflW8g","rating":3.6,"name":"LiquorLand Manly Express","geo":{"location":{"lat":-33.7985953,"lng":151.2858057},"viewport":{"northeast":{"lat":-33.7971770197085,"lng":151.2870952802915},"southwest":{"lat":-33.79987498029149,"lng":151.2843973197085}}}},{"place_id":"ChIJC_X5Sg-rEmsRpofDfkLWouw","rating":4,"name":"LiquorLand Manly Sydney Rd Express","geo":{"location":{"lat":-33.7971687,"lng":151.2862767},"viewport":{"northeast":{"lat":-33.7956623197085,"lng":151.2869907802915},"southwest":{"lat":-33.7983602802915,"lng":151.2842928197085}}}},{"place_id":"ChIJqVmaQQmrEmsRZbcF2PKa9bk","rating":4.1,"name":"ALDI","geo":{"location":{"lat":-33.7997816,"lng":151.2845297},"viewport":{"northeast":{"lat":-33.7982207197085,"lng":151.2859650802915},"southwest":{"lat":-33.8009186802915,"lng":151.2832671197085}}}},{"place_id":"ChIJpU9SUKarEmsRky0cKY2jgzA","rating":3.5,"name":"Fairlight Cellars","geo":{"location":{"lat":-33.7957772,"lng":151.2767563},"viewport":{"northeast":{"lat":-33.7945100697085,"lng":151.2780970802915},"southwest":{"lat":-33.7972080302915,"lng":151.2753991197085}}}},{"place_id":"ChIJjTRMzQirEmsRM8KFSAmVvAY","rating":3.8,"name":"The Ivanhoe Hotel Manly","geo":{"location":{"lat":-33.7979838,"lng":151.2860124},"viewport":{"northeast":{"lat":-33.7967259197085,"lng":151.2874414802915},"southwest":{"lat":-33.7994238802915,"lng":151.2847435197085}}}},{"place_id":"ChIJ5_rQOQmrEmsRSAe4RJKUwh0","rating":4.5,"name":"4 Pines Brewing Company","geo":{"location":{"lat":-33.7994919,"lng":151.2854185},"viewport":{"northeast":{"lat":-33.7982426697085,"lng":151.2866567802915},"southwest":{"lat":-33.8009406302915,"lng":151.2839588197085}}}},{"place_id":"ChIJ5VOMTA-rEmsRBHEMZ04pASc","name":"Angus The Bull","geo":{"location":{"lat":-33.7970478,"lng":151.2861799},"viewport":{"northeast":{"lat":-33.7956018697085,"lng":151.2869423802915},"southwest":{"lat":-33.7982998302915,"lng":151.2842444197085}}}}],"train_station":[],"bars":[{"place_id":"ChIJjTRMzQirEmsRM8KFSAmVvAY","rating":3.8,"name":"The Ivanhoe Hotel Manly","geo":{"location":{"lat":-33.7979838,"lng":151.2860124},"viewport":{"northeast":{"lat":-33.7967259197085,"lng":151.2874414802915},"southwest":{"lat":-33.7994238802915,"lng":151.2847435197085}}}},{"place_id":"ChIJ5_rQOQmrEmsRSAe4RJKUwh0","rating":4.5,"name":"4 Pines Brewing Company","geo":{"location":{"lat":-33.7994919,"lng":151.2854185},"viewport":{"northeast":{"lat":-33.7982426697085,"lng":151.2866567802915},"southwest":{"lat":-33.8009406302915,"lng":151.2839588197085}}}}],"university":[],"physiotherapist":[{"place_id":"ChIJ6ZLfww6rEmsRdFzRJ3XzrgQ","rating":5,"name":"In Balance Physio and Pilates","geo":{"location":{"lat":-33.7997883,"lng":151.2868458},"viewport":{"northeast":{"lat":-33.7984292697085,"lng":151.2883663302915},"southwest":{"lat":-33.8011272302915,"lng":151.2856683697085}}}},{"place_id":"ChIJC3zySgmrEmsRXqj_rCVK5fY","rating":4.8,"name":"MGS Physiotherapy","geo":{"location":{"lat":-33.7976279,"lng":151.2853007},"viewport":{"northeast":{"lat":-33.7962854197085,"lng":151.2866900302915},"southwest":{"lat":-33.7989833802915,"lng":151.2839920697085}}}},{"place_id":"ChIJbdS7kgirEmsRDeOAMwntk2U","rating":4.9,"name":"Bioathletic","geo":{"location":{"lat":-33.796811,"lng":151.283911},"viewport":{"northeast":{"lat":-33.7954014197085,"lng":151.2852740302915},"southwest":{"lat":-33.7980993802915,"lng":151.2825760697085}}}},{"place_id":"ChIJu30MrQirEmsR5ibLelz3pSc","rating":5,"name":"pH Clinic","geo":{"location":{"lat":-33.796628,"lng":151.285873},"viewport":{"northeast":{"lat":-33.7953919697085,"lng":151.2867961802915},"southwest":{"lat":-33.79808993029149,"lng":151.2840982197085}}}},{"place_id":"ChIJpdpL0BGrEmsRJmg-Zy139cY","name":"Women Worth their Weight","geo":{"location":{"lat":-33.7976091,"lng":151.2839178},"viewport":{"northeast":{"lat":-33.79626011970849,"lng":151.2852667802915},"southwest":{"lat":-33.79895808029149,"lng":151.2825688197085}}}},{"place_id":"ChIJS9CtigyrEmsRnxaG8c_Vow0","name":"Knee Pain Relief - Knee Pain Brace | Knee Pain Support | Knee Pain Guar","geo":{"location":{"lat":-33.8041974,"lng":151.2874686},"viewport":{"northeast":{"lat":-33.8027325197085,"lng":151.2887181802915},"southwest":{"lat":-33.8054304802915,"lng":151.2860202197085}}}}],"mcd":[{"place_id":"ChIJh_zWFAmrEmsRJWCrbqkvQxU","rating":3.1,"name":"McDonald's Manly Wharf","geo":{"location":{"lat":-33.79964219999999,"lng":151.2844054},"viewport":{"northeast":{"lat":-33.7981603697085,"lng":151.2859180302915},"southwest":{"lat":-33.80085833029149,"lng":151.2832200697085}}}},{"place_id":"ChIJD99ePg-rEmsR66R7Dqdf93I","rating":3.6,"name":"Hungry Jack's","geo":{"location":{"lat":-33.797949,"lng":151.287318},"viewport":{"northeast":{"lat":-33.7964452697085,"lng":151.2885263802915},"southwest":{"lat":-33.7991432302915,"lng":151.2858284197085}}}}],"schools":[{"place_id":"ChIJe6x52Q6rEmsRu2ujTUviNu8","rating":1,"name":"Manly Village Public School","geo":{"location":{"lat":-33.7992015,"lng":151.2869546},"viewport":{"northeast":{"lat":-33.79785251970849,"lng":151.2883035802915},"southwest":{"lat":-33.80055048029149,"lng":151.2856056197085}}}},{"place_id":"ChIJWUqBDg-rEmsRLLDtcf-Et3Y","name":"Royal Far West School","geo":{"location":{"lat":-33.7984393,"lng":151.2884749},"viewport":{"northeast":{"lat":-33.79701051970851,"lng":151.2897566302915},"southwest":{"lat":-33.79970848029151,"lng":151.2870586697085}}}},{"place_id":"ChIJocIKCgarEmsR3BflWDlJ8vU","rating":3.5,"name":"St Mary’s Catholic School","geo":{"location":{"lat":-33.795496,"lng":151.286585},"viewport":{"northeast":{"lat":-33.79368626970849,"lng":151.2879994302915},"southwest":{"lat":-33.79638423029149,"lng":151.2853014697085}}}},{"place_id":"ChIJX2_oPgarEmsRVCOC38TH2yI","name":"Kangaroo Street Pre-School","geo":{"location":{"lat":-33.794605,"lng":151.284308},"viewport":{"northeast":{"lat":-33.7932417197085,"lng":151.2855461302915},"southwest":{"lat":-33.7959396802915,"lng":151.2828481697085}}}},{"place_id":"ChIJeeinYxKrEmsR0mPFwRTIG1c","rating":4.3,"name":"St Paul's Catholic College","geo":{"location":{"lat":-33.8057439,"lng":151.2924765},"viewport":{"northeast":{"lat":-33.8040127697085,"lng":151.2939555802915},"southwest":{"lat":-33.80671073029149,"lng":151.2912576197085}}}},{"place_id":"ChIJ-2_LVaarEmsR1vpC66EnQuE","rating":5,"name":"Studio Make","geo":{"location":{"lat":-33.79618179999999,"lng":151.2769994},"viewport":{"northeast":{"lat":-33.79435704999999,"lng":151.2897143},"southwest":{"lat":-33.80165605000001,"lng":151.2727611}}}}],"parks":[{"place_id":"ChIJFXeQegirEmsRUOPy-Wh9AQ8","rating":4.2,"name":"Ivanhoe Park","geo":{"location":{"lat":-33.796354,"lng":151.2819528},"viewport":{"northeast":{"lat":-33.79396550000001,"lng":151.2870972},"southwest":{"lat":-33.7976343,"lng":151.2789176}}}},{"place_id":"ChIJu6r64AirEmsRPma4XXLR_Eo","rating":3.9,"name":"Gilbert Park","geo":{"location":{"lat":-33.7980755,"lng":151.2844359},"viewport":{"northeast":{"lat":-33.7967050697085,"lng":151.2856513302915},"southwest":{"lat":-33.7994030302915,"lng":151.2829533697085}}}},{"place_id":"ChIJpRU4EqmrEmsR3u5AONd-PG4","rating":3,"name":"Dog park","geo":{"location":{"lat":-33.7900881,"lng":151.2764235},"viewport":{"northeast":{"lat":-33.7887391197085,"lng":151.2777724802915},"southwest":{"lat":-33.7914370802915,"lng":151.2750745197085}}}}],"fitness":[{"place_id":"ChIJVYfQ1girEmsRnzkqp9pGyL8","rating":5,"name":"Fight Gym","geo":{"location":{"lat":-33.7988893,"lng":151.2854383},"viewport":{"northeast":{"lat":-33.79758896970851,"lng":151.2864782802915},"southwest":{"lat":-33.80028693029151,"lng":151.2837803197085}}}},{"place_id":"ChIJsW7_bAarEmsRiavIhaPgg84","rating":4.7,"name":"Plus Fitness Manly Gym","geo":{"location":{"lat":-33.794508,"lng":151.285061},"viewport":{"northeast":{"lat":-33.7931756197085,"lng":151.2865155802915},"southwest":{"lat":-33.7958735802915,"lng":151.2838176197085}}}},{"place_id":"ChIJm6HuGQarEmsRltlmeSPo-58","rating":3.8,"name":"Anytime Fitness Manly","geo":{"location":{"lat":-33.7951859,"lng":151.2849952},"viewport":{"northeast":{"lat":-33.7938330197085,"lng":151.2864235802915},"southwest":{"lat":-33.7965309802915,"lng":151.2837256197085}}}},{"place_id":"ChIJCQ7nUw-rEmsRNI_qljEUfI0","rating":4.8,"name":"F45 Training Manly","geo":{"location":{"lat":-33.7965963,"lng":151.2863635},"viewport":{"northeast":{"lat":-33.7952616197085,"lng":151.2878136302915},"southwest":{"lat":-33.7979595802915,"lng":151.2851156697085}}}},{"place_id":"ChIJo4SK7wWrEmsRE4FCG6vEjHM","rating":4.2,"name":"Manly Beach Health Club","geo":{"location":{"lat":-33.7956706,"lng":151.2868653},"viewport":{"northeast":{"lat":-33.7943696197085,"lng":151.2882045802915},"southwest":{"lat":-33.7970675802915,"lng":151.2855066197085}}}},{"place_id":"ChIJXYR6QAGrEmsRg6L-TDaBjOg","rating":5,"name":"38X Fitness","geo":{"location":{"lat":-33.78939769999999,"lng":151.2846183},"viewport":{"northeast":{"lat":-33.78807026970851,"lng":151.2861234302915},"southwest":{"lat":-33.7907682302915,"lng":151.2834254697085}}}},{"place_id":"ChIJ52eNxgOrEmsRLyhw6V4u4Dg","rating":5,"name":"Pure Fitness Manly","geo":{"location":{"lat":-33.7950037,"lng":151.2876543},"viewport":{"northeast":{"lat":-33.7936815697085,"lng":151.2888368802915},"southwest":{"lat":-33.7963795302915,"lng":151.2861389197085}}}},{"place_id":"ChIJbdS7kgirEmsRDeOAMwntk2U","rating":4.9,"name":"Bioathletic","geo":{"location":{"lat":-33.796811,"lng":151.283911},"viewport":{"northeast":{"lat":-33.7954014197085,"lng":151.2852740302915},"southwest":{"lat":-33.7980993802915,"lng":151.2825760697085}}}},{"place_id":"ChIJ84JGOwmrEmsRDtEIes7f8aI","rating":5,"name":"Manly BJJ","geo":{"location":{"lat":-33.7990929,"lng":151.2851003},"viewport":{"northeast":{"lat":-33.7975815197085,"lng":151.2865066802915},"southwest":{"lat":-33.8002794802915,"lng":151.2838087197085}}}},{"place_id":"ChIJ14FEOQmrEmsRz38Q1aX4kHQ","rating":5,"name":"Xtend Barre Manly","geo":{"location":{"lat":-33.799431,"lng":151.285211},"viewport":{"northeast":{"lat":-33.7981696197085,"lng":151.2864868302915},"southwest":{"lat":-33.8008675802915,"lng":151.2837888697085}}}},{"place_id":"ChIJc5Kb2AmrEmsRGMWyjxAIxm0","rating":5,"name":"Manly Beach Running Club","geo":{"location":{"lat":-33.7980998,"lng":151.2802163},"viewport":{"northeast":{"lat":-33.7967508197085,"lng":151.2815652802915},"southwest":{"lat":-33.7994487802915,"lng":151.2788673197085}}}},{"place_id":"ChIJk4FO9AWrEmsRNu2PiK7q2Pk","rating":5,"name":"100Strong","geo":{"location":{"lat":-33.796246,"lng":151.287248},"viewport":{"northeast":{"lat":-33.79489701970849,"lng":151.2885969802915},"southwest":{"lat":-33.79759498029149,"lng":151.2858990197085}}}},{"place_id":"ChIJMSI7GwCrEmsR-PC0bVym3hA","rating":5,"name":"OzSquad","geo":{"location":{"lat":-33.79005,"lng":151.287147},"viewport":{"northeast":{"lat":-33.7886988697085,"lng":151.2884149302915},"southwest":{"lat":-33.7913968302915,"lng":151.2857169697085}}}},{"place_id":"ChIJ-W8zNwmrEmsRxlCysNyHq1A","rating":5,"name":"The Healthy Mummy","geo":{"location":{"lat":-33.7994919,"lng":151.2854185},"viewport":{"northeast":{"lat":-33.7981429197085,"lng":151.2867674802915},"southwest":{"lat":-33.8008408802915,"lng":151.2840695197085}}}},{"place_id":"ChIJoZalyQWrEmsRs3bfgH9XSA8","name":"Pure Fitness Manly Beach Training","geo":{"location":{"lat":-33.7943238,"lng":151.2873361},"viewport":{"northeast":{"lat":-33.7929748197085,"lng":151.2886850802915},"southwest":{"lat":-33.7956727802915,"lng":151.2859871197085}}}},{"place_id":"ChIJGa-0fA-rEmsRiXKNvxmQnFM","name":"Battle at the Beaches","geo":{"location":{"lat":-33.79669619999999,"lng":151.2876022},"viewport":{"northeast":{"lat":-33.7953128197085,"lng":151.2890810302915},"southwest":{"lat":-33.79801078029149,"lng":151.2863830697085}}}},{"place_id":"ChIJ3wMiKw-rEmsRuhhmXN7MhLI","name":"flow mOcean","geo":{"location":{"lat":-33.7985209,"lng":151.2861202},"viewport":{"northeast":{"lat":-33.79750361970851,"lng":151.2870138},"southwest":{"lat":-33.80020158029151,"lng":151.2834394}}}},{"place_id":"ChIJrTL92QirEmsRF8tmKBdq5JA","rating":3.7,"name":"Qi Health & Yoga","geo":{"location":{"lat":-33.798313,"lng":151.285465},"viewport":{"northeast":{"lat":-33.7970552197085,"lng":151.2868921802915},"southwest":{"lat":-33.7997531802915,"lng":151.2841942197085}}}},{"place_id":"ChIJ6ZLfww6rEmsRdFzRJ3XzrgQ","rating":5,"name":"In Balance Physio and Pilates","geo":{"location":{"lat":-33.7997883,"lng":151.2868458},"viewport":{"northeast":{"lat":-33.7984292697085,"lng":151.2883663302915},"southwest":{"lat":-33.8011272302915,"lng":151.2856683697085}}}},{"place_id":"ChIJaS61JAmrEmsRZGSFHWCPdbM","rating":5,"name":"Manly Brazilia Jiu-jitsu","geo":{"location":{"lat":-33.7990618,"lng":151.2850193},"viewport":{"northeast":{"lat":-33.79756396970849,"lng":151.2864604802915},"southwest":{"lat":-33.80026193029149,"lng":151.2837625197085}}}},{"place_id":"ChIJ3UysDwarEmsR4_gjn7Dc8UA","name":"Manly Rush","geo":{"location":{"lat":-33.795184,"lng":151.28545},"viewport":{"northeast":{"lat":-33.7938470197085,"lng":151.2866504302915},"southwest":{"lat":-33.7965449802915,"lng":151.2839524697085}}}},{"place_id":"ChIJC3zySgmrEmsRXqj_rCVK5fY","rating":4.8,"name":"MGS Physiotherapy","geo":{"location":{"lat":-33.7976279,"lng":151.2853007},"viewport":{"northeast":{"lat":-33.7962854197085,"lng":151.2866900302915},"southwest":{"lat":-33.7989833802915,"lng":151.2839920697085}}}},{"place_id":"ChIJVwIIbQarEmsR2eC1A_Xx3RI","rating":5,"name":"Dynamic Pilates Manly","geo":{"location":{"lat":-33.79444550000001,"lng":151.2851048},"viewport":{"northeast":{"lat":-33.7930620697085,"lng":151.2864591302915},"southwest":{"lat":-33.7957600302915,"lng":151.2837611697085}}}},{"place_id":"ChIJkR8NSQ-rEmsRSHD9m0ne5wQ","rating":4.8,"name":"Power Living Australia Yoga - Manly","geo":{"location":{"lat":-33.7973092,"lng":151.286529},"viewport":{"northeast":{"lat":-33.79573256970851,"lng":151.28729005},"southwest":{"lat":-33.7984305302915,"lng":151.28424585}}}}],"meal_takeaway":[{"place_id":"ChIJ67yuSA-rEmsRswlmfmyWKMc","rating":4.3,"name":"Benbry Burgers","geo":{"location":{"lat":-33.7972007,"lng":151.2867147},"viewport":{"northeast":{"lat":-33.7956783197085,"lng":151.2875686},"southwest":{"lat":-33.79837628029149,"lng":151.284153}}}},{"place_id":"ChIJUdrOww6rEmsRn5UYhMMFKw8","rating":3.9,"name":"Beaches Pizza Bar","geo":{"location":{"lat":-33.799809,"lng":151.287048},"viewport":{"northeast":{"lat":-33.79845236970851,"lng":151.2884770302915},"southwest":{"lat":-33.80115033029151,"lng":151.2857790697085}}}},{"place_id":"ChIJN73E9AWrEmsRsvSKgzDCh8M","rating":4,"name":"Pizza Capanna","geo":{"location":{"lat":-33.7960739,"lng":151.2873876},"viewport":{"northeast":{"lat":-33.7946953197085,"lng":151.2888577802915},"southwest":{"lat":-33.7973932802915,"lng":151.2861598197085}}}},{"place_id":"ChIJByMEEAmrEmsR2afV4UfJb24","rating":3.1,"name":"Criniti's Manly","geo":{"location":{"lat":-33.7989709,"lng":151.2843251},"viewport":{"northeast":{"lat":-33.7976867697085,"lng":151.2856324302915},"southwest":{"lat":-33.8003847302915,"lng":151.2829344697085}}}},{"place_id":"ChIJmWtC1QirEmsRVXlBwIyeDgk","rating":3.3,"name":"Mortar & Pestle Thai","geo":{"location":{"lat":-33.798793,"lng":151.286183},"viewport":{"northeast":{"lat":-33.7973902697085,"lng":151.2875889802915},"southwest":{"lat":-33.8000882302915,"lng":151.2848910197085}}}},{"place_id":"ChIJCecqXQ-rEmsREFFrtqrjbBs","rating":4,"name":"Ashiana Indian Restaurant","geo":{"location":{"lat":-33.797079,"lng":151.287321},"viewport":{"northeast":{"lat":-33.7957215197085,"lng":151.2887230802915},"southwest":{"lat":-33.79841948029149,"lng":151.2860251197085}}}},{"place_id":"ChIJlTVbtAirEmsR9szY1zC6BRw","rating":4,"name":"Domino's Pizza Manly","geo":{"location":{"lat":-33.79713,"lng":151.285801},"viewport":{"northeast":{"lat":-33.7956429697085,"lng":151.2867529302915},"southwest":{"lat":-33.79834093029149,"lng":151.2840549697085}}}},{"place_id":"ChIJh_zWFAmrEmsRJWCrbqkvQxU","rating":3.1,"name":"McDonald's Manly Wharf","geo":{"location":{"lat":-33.79964219999999,"lng":151.2844054},"viewport":{"northeast":{"lat":-33.7981603697085,"lng":151.2859180302915},"southwest":{"lat":-33.80085833029149,"lng":151.2832200697085}}}},{"place_id":"ChIJzw_HXA-rEmsRX5fpvUcQrjQ","rating":4.5,"name":"Manly Thai Gourmet","geo":{"location":{"lat":-33.7968961,"lng":151.2872378},"viewport":{"northeast":{"lat":-33.7956042197085,"lng":151.2886682802915},"southwest":{"lat":-33.7983021802915,"lng":151.2859703197085}}}},{"place_id":"ChIJudeRqAirEmsRTDyEWUqsu5M","rating":4.3,"name":"Jerry's Pizza Pasta Restaurant","geo":{"location":{"lat":-33.79608270000001,"lng":151.2853461},"viewport":{"northeast":{"lat":-33.7947132197085,"lng":151.2866191302915},"southwest":{"lat":-33.7974111802915,"lng":151.2839211697085}}}},{"place_id":"ChIJ70rJRwGrEmsRWW5tQmnSabo","rating":4.1,"name":"Thup Tim Siam Restaurant","geo":{"location":{"lat":-33.7899632,"lng":151.284907},"viewport":{"northeast":{"lat":-33.7885917697085,"lng":151.2863195302915},"southwest":{"lat":-33.79128973029149,"lng":151.2836215697085}}}},{"place_id":"ChIJkyhybQ-rEmsRTlucbPRxNpg","name":"Si-am Bay Thai","geo":{"location":{"lat":-33.797807,"lng":151.288148},"viewport":{"northeast":{"lat":-33.79640071970849,"lng":151.2896300802915},"southwest":{"lat":-33.79909868029149,"lng":151.2869321197085}}}},{"place_id":"ChIJ2e7Lbw-rEmsRZbqDp1wapcI","rating":3.7,"name":"Manly Ocean Foods","geo":{"location":{"lat":-33.79734689999999,"lng":151.2879342},"viewport":{"northeast":{"lat":-33.7959120197085,"lng":151.2892112302915},"southwest":{"lat":-33.79860998029149,"lng":151.2865132697085}}}},{"place_id":"ChIJD99ePg-rEmsRfUE__yXAYV0","name":"Fruit Frenzy","geo":{"location":{"lat":-33.797949,"lng":151.287318},"viewport":{"northeast":{"lat":-33.7964452697085,"lng":151.2885263802915},"southwest":{"lat":-33.7991432302915,"lng":151.2858284197085}}}},{"place_id":"ChIJo3LSQg-rEmsRB3nw9mmCNxs","rating":3.7,"name":"E-do Japanese and Korean","geo":{"location":{"lat":-33.797079,"lng":151.287321},"viewport":{"northeast":{"lat":-33.7957205697085,"lng":151.2887228802915},"southwest":{"lat":-33.7984185302915,"lng":151.2860249197085}}}},{"place_id":"ChIJcWOEPAmrEmsRkpucOVeukOw","name":"Nonna's Pasta & Salad Bar","geo":{"location":{"lat":-33.798378,"lng":151.286573},"viewport":{"northeast":{"lat":-33.7968806697085,"lng":151.2877915302915},"southwest":{"lat":-33.79957863029149,"lng":151.2850935697085}}}},{"place_id":"ChIJmdlAlQ6rEmsRoGDzyQ6lMYk","rating":5,"name":"Yupin's Thai","geo":{"location":{"lat":-33.80047100000001,"lng":151.287511},"viewport":{"northeast":{"lat":-33.7990704197085,"lng":151.2889496802915},"southwest":{"lat":-33.8017683802915,"lng":151.2862517197085}}}}],"gas_station":[{"place_id":"ChIJEfdjSQGrEmsRM2f5GoQo-Io","rating":3.7,"name":"BP Manly","geo":{"location":{"lat":-33.7902786,"lng":151.2849318},"viewport":{"northeast":{"lat":-33.7889490697085,"lng":151.2863730802915},"southwest":{"lat":-33.7916470302915,"lng":151.2836751197085}}}},{"place_id":"ChIJz8wFggarEmsRDkg3IofsqYg","name":"Caltex Star Mart Manly","geo":{"location":{"lat":-33.7930688,"lng":151.285802},"viewport":{"northeast":{"lat":-33.7917070697085,"lng":151.2870488302915},"southwest":{"lat":-33.7944050302915,"lng":151.2843508697085}}}},{"place_id":"ChIJz8wFggarEmsRpuzHMHFiUFw","rating":3.8,"name":"Caltex Star Mart","geo":{"location":{"lat":-33.7930745,"lng":151.2858023},"viewport":{"northeast":{"lat":-33.7917126697085,"lng":151.2870484802915},"southwest":{"lat":-33.7944106302915,"lng":151.2843505197085}}}},{"place_id":"ChIJjV4AsqerEmsRbqF3m_SQXQs","rating":3,"name":"Avo's Auto Repairs","geo":{"location":{"lat":-33.795785,"lng":151.277687},"viewport":{"northeast":{"lat":-33.7945362197085,"lng":151.2790330802915},"southwest":{"lat":-33.7972341802915,"lng":151.2763351197085}}}}],"kfc":[{"place_id":"ChIJ6wjJPQmrEmsR9pLzCiyu-2Y","rating":2.2,"name":"KFC Manly","geo":{"location":{"lat":-33.79925899999999,"lng":151.2848531},"viewport":{"northeast":{"lat":-33.7979851197085,"lng":151.2861397302915},"southwest":{"lat":-33.8006830802915,"lng":151.2834417697085}}}},{"place_id":"ChIJdQpyPAmrEmsRTIukq86Uy5Q","rating":5,"name":"KFC Manly Corso","geo":{"location":{"lat":-33.7992552,"lng":151.2848917},"viewport":{"northeast":{"lat":-33.7979837197085,"lng":151.2861705302915},"southwest":{"lat":-33.8006816802915,"lng":151.2834725697085}}}}],"dominos":[{"place_id":"ChIJlTVbtAirEmsR9szY1zC6BRw","rating":4,"name":"Domino's Pizza Manly","geo":{"location":{"lat":-33.79713,"lng":151.285801},"viewport":{"northeast":{"lat":-33.7956429697085,"lng":151.2867529302915},"southwest":{"lat":-33.79834093029149,"lng":151.2840549697085}}}}]},"2000":{"library":[{"place_id":"ChIJ-zNYUWquEmsRMaHK_PnWcxE","rating":4.4,"name":"State Library of New South Wales","geo":{"location":{"lat":-33.86686749999999,"lng":151.2128511},"viewport":{"northeast":{"lat":-33.8653814697085,"lng":151.2139856302915},"southwest":{"lat":-33.86807943029149,"lng":151.2112876697085}}}},{"place_id":"ChIJ90XGMGauEmsRx3_piT0QSws","name":"Conservatorium Library - The University of Sydney Library","geo":{"location":{"lat":-33.8634417,"lng":151.213636},"viewport":{"northeast":{"lat":-33.8619360197085,"lng":151.2153491802915},"southwest":{"lat":-33.8646339802915,"lng":151.2126512197085}}}},{"place_id":"ChIJ6VOq0GquEmsR7MS8_BLv5jg","rating":4.2,"name":"Caroline Simpson Library & Research Collection","geo":{"location":{"lat":-33.8689869,"lng":151.2127485},"viewport":{"northeast":{"lat":-33.8676052697085,"lng":151.2137757802915},"southwest":{"lat":-33.8703032302915,"lng":151.2110778197085}}}},{"place_id":"ChIJCZ5rATyuEmsRODtVekV-KYc","rating":4.4,"name":"Customs House Library","geo":{"location":{"lat":-33.8622091,"lng":151.2108596},"viewport":{"northeast":{"lat":-33.8605724697085,"lng":151.2124426302915},"southwest":{"lat":-33.8632704302915,"lng":151.2097446697085}}}},{"place_id":"ChIJncbhbSOuEmsRMUXksbF59j0","rating":3.6,"name":"Library Express","geo":{"location":{"lat":-33.8730127,"lng":151.2054393},"viewport":{"northeast":{"lat":-33.8716682197085,"lng":151.2066219802915},"southwest":{"lat":-33.8743661802915,"lng":151.2039240197085}}}},{"place_id":"ChIJEbnHkD2uEmsRbSxs4yfjeWo","name":"Navitas Library","geo":{"location":{"lat":-33.87571239999999,"lng":151.2092035},"viewport":{"northeast":{"lat":-33.87438066970849,"lng":151.2107505802915},"southwest":{"lat":-33.87707863029149,"lng":151.2080526197085}}}},{"place_id":"ChIJA_UUhzuuEmsRuI_GPMHs1lg","name":"Gabriela Mistral Library","geo":{"location":{"lat":-33.8746056,"lng":151.204061},"viewport":{"northeast":{"lat":-33.8732449197085,"lng":151.2055411802915},"southwest":{"lat":-33.8759428802915,"lng":151.2028432197085}}}},{"place_id":"ChIJJbaa2CmuEmsRZOQr3cMEGHM","rating":4.4,"name":"Instituto Cervantes Sydney","geo":{"location":{"lat":-33.874641,"lng":151.204095},"viewport":{"northeast":{"lat":-33.8732816197085,"lng":151.2055606302915},"southwest":{"lat":-33.8759795802915,"lng":151.2028626697085}}}},{"place_id":"ChIJvVaKgT6uEmsRnM6VopUH0JE","rating":4,"name":"City of Sydney","geo":{"location":{"lat":-33.87317480000001,"lng":151.2061605},"viewport":{"northeast":{"lat":-33.8718549697085,"lng":151.2079415802915},"southwest":{"lat":-33.8745529302915,"lng":151.2052436197085}}}},{"place_id":"ChIJXWpy2z2uEmsRLSvHKBErBY4","name":"Sydney Mechanics’ School of Arts","geo":{"location":{"lat":-33.874151,"lng":151.208264},"viewport":{"northeast":{"lat":-33.8727947197085,"lng":151.2094959802915},"southwest":{"lat":-33.87549268029149,"lng":151.2067980197085}}}},{"place_id":"ChIJ0_liA0SuEmsRSWCtG2Svhb0","rating":5,"name":"Society of Australian Genealogists","geo":{"location":{"lat":-33.861277,"lng":151.203976},"viewport":{"northeast":{"lat":-33.86027306970851,"lng":151.2052353302915},"southwest":{"lat":-33.8629710302915,"lng":151.2025373697085}}}},{"place_id":"ChIJBc2S2j2uEmsRD4geuAykijg","rating":5,"name":"Sydney Mechanics' School of Arts","geo":{"location":{"lat":-33.87418199999999,"lng":151.208183},"viewport":{"northeast":{"lat":-33.8728281697085,"lng":151.2094538802915},"southwest":{"lat":-33.8755261302915,"lng":151.2067559197085}}}}],"hospitals":[{"place_id":"ChIJG9EFhhOuEmsR9GiyglmAwZw","rating":3.6,"name":"East Sydney Private Hospital","geo":{"location":{"lat":-33.8737415,"lng":151.2159518},"viewport":{"northeast":{"lat":-33.8722821197085,"lng":151.2175504802915},"southwest":{"lat":-33.8749800802915,"lng":151.2148525197085}}}},{"place_id":"ChIJVdTm9WquEmsRtnsndCFQGFQ","name":"Centre for Hand Surgery","geo":{"location":{"lat":-33.866998,"lng":151.212042},"viewport":{"northeast":{"lat":-33.8656607197085,"lng":151.2135459802915},"southwest":{"lat":-33.8683586802915,"lng":151.2108480197085}}}},{"place_id":"ChIJ1SBA92quEmsRHC4GJYcaxl4","name":"Colorectal Surgeons Sydney","geo":{"location":{"lat":-33.8671672,"lng":151.2120209},"viewport":{"northeast":{"lat":-33.8658300197085,"lng":151.2135261802915},"southwest":{"lat":-33.8685279802915,"lng":151.2108282197085}}}},{"place_id":"ChIJ3z9najyuEmsRUeekyF5pJrM","name":"Dr. Elisabeth Rippy","geo":{"location":{"lat":-33.8744757,"lng":151.205788},"viewport":{"northeast":{"lat":-33.8730236197085,"lng":151.2071506802915},"southwest":{"lat":-33.8757215802915,"lng":151.2044527197085}}}}],"university":[{"place_id":"ChIJWYaJ3T6uEmsR4LMfpFrYp4I","rating":4.3,"name":"La Trobe University Sydney Campus","geo":{"location":{"lat":-33.875641,"lng":151.209343},"viewport":{"northeast":{"lat":-33.8743036697085,"lng":151.2108255302915},"southwest":{"lat":-33.8770016302915,"lng":151.2081275697085}}}},{"place_id":"ChIJtf9d2ECuEmsR9ZHYETjQ9ao","rating":5,"name":"Western Sydney University Sydney City Campus","geo":{"location":{"lat":-33.87571239999999,"lng":151.2092036},"viewport":{"northeast":{"lat":-33.87438066970849,"lng":151.2107506302915},"southwest":{"lat":-33.87707863029149,"lng":151.2080526697085}}}},{"place_id":"ChIJ50QsiTyuEmsRs7IAnjUz4Qg","rating":3.3,"name":"Victoria University, VU Sydney Campus","geo":{"location":{"lat":-33.8697767,"lng":151.2040035},"viewport":{"northeast":{"lat":-33.8684371697085,"lng":151.2052158302915},"southwest":{"lat":-33.87113513029149,"lng":151.2025178697085}}}},{"place_id":"ChIJPdMIND6uEmsRnt9cUwCabdY","rating":3,"name":"The University of Sydney","geo":{"location":{"lat":-33.8715262,"lng":151.2090603},"viewport":{"northeast":{"lat":-33.8701908697085,"lng":151.2105700802915},"southwest":{"lat":-33.87288883029149,"lng":151.2078721197085}}}},{"place_id":"ChIJEbnHkD2uEmsRI_j-lau-Ep4","name":"Western Sydney University, Sydney City Campus","geo":{"location":{"lat":-33.87571239999999,"lng":151.2092035},"viewport":{"northeast":{"lat":-33.87438066970849,"lng":151.2107505802915},"southwest":{"lat":-33.87707863029149,"lng":151.2080526197085}}}},{"place_id":"ChIJw1l7rDiuEmsR21vQrBQkGv4","rating":4.1,"name":"CQUniversity Sydney","geo":{"location":{"lat":-33.871517,"lng":151.2049777},"viewport":{"northeast":{"lat":-33.87016971970849,"lng":151.20710445},"southwest":{"lat":-33.87286768029149,"lng":151.20416545}}}},{"place_id":"ChIJ76iu3GmuEmsR9o2E7Pf0JqE","rating":4.7,"name":"Southern Cross University, Sydney Campus","geo":{"location":{"lat":-33.8624857,"lng":151.211001},"viewport":{"northeast":{"lat":-33.8611665197085,"lng":151.2124395802915},"southwest":{"lat":-33.8638644802915,"lng":151.2097416197085}}}},{"place_id":"ChIJx65FIkCuEmsR9rtPPPApEdg","rating":3,"name":"Western Sydney University","geo":{"location":{"lat":-33.867374,"lng":151.2103352},"viewport":{"northeast":{"lat":-33.86618671970849,"lng":151.2113779802915},"southwest":{"lat":-33.86888468029149,"lng":151.2086800197085}}}},{"place_id":"ChIJzTF2CjyuEmsRUqpHpt14FDM","rating":4.2,"name":"The University of Newcastle, Sydney Campus","geo":{"location":{"lat":-33.868338,"lng":151.210336},"viewport":{"northeast":{"lat":-33.8669954697085,"lng":151.2117750302915},"southwest":{"lat":-33.8696934302915,"lng":151.2090770697085}}}},{"place_id":"ChIJV2sXvWmuEmsR7qqSWcLbYKA","rating":5,"name":"Southern Cross University","geo":{"location":{"lat":-33.863048,"lng":151.212323},"viewport":{"northeast":{"lat":-33.8617198197085,"lng":151.2139621802915},"southwest":{"lat":-33.8644177802915,"lng":151.2112642197085}}}},{"place_id":"ChIJQ8NR1BeuEmsRAXBc4bSsJck","rating":4.2,"name":"Sydney Business School","geo":{"location":{"lat":-33.86192629999999,"lng":151.2097777},"viewport":{"northeast":{"lat":-33.8606603697085,"lng":151.2109970802915},"southwest":{"lat":-33.8633583302915,"lng":151.2082991197085}}}},{"place_id":"ChIJlWgSXzCuEmsRnox66i6yMQ8","name":"Torrens University Sydney, Pyrmont Campus","geo":{"location":{"lat":-33.8733476,"lng":151.1969254},"viewport":{"northeast":{"lat":-33.8720020697085,"lng":151.1982791802915},"southwest":{"lat":-33.8747000302915,"lng":151.1955812197085}}}},{"place_id":"ChIJq9YnFkKuEmsRkavGib488uQ","name":"MGSM CBD Campus","geo":{"location":{"lat":-33.8662815,"lng":151.2089465},"viewport":{"northeast":{"lat":-33.8651520697085,"lng":151.2100627802915},"southwest":{"lat":-33.8678500302915,"lng":151.2073648197085}}}},{"place_id":"ChIJAQAAAEGuEmsRbjBsiNO21fE","name":"Macquarie Graduate School of Management","geo":{"location":{"lat":-33.86670540000001,"lng":151.208328},"viewport":{"northeast":{"lat":-33.86536461970851,"lng":151.2097912302915},"southwest":{"lat":-33.8680625802915,"lng":151.2070932697085}}}},{"place_id":"ChIJo0bQtMKuEmsRw3Shbr3Spio","rating":4.6,"name":"Blue Mountains International Hotel Management School","geo":{"location":{"lat":-33.873285,"lng":151.207397},"viewport":{"northeast":{"lat":-33.8719206197085,"lng":151.2085587802915},"southwest":{"lat":-33.8746185802915,"lng":151.2058608197085}}}},{"place_id":"ChIJkWHTIWquEmsRPPqDxIjQ0GQ","rating":4.5,"name":"The Hotel School Sydney","geo":{"location":{"lat":-33.864359,"lng":151.21199},"viewport":{"northeast":{"lat":-33.8629123197085,"lng":151.2132055802915},"southwest":{"lat":-33.8656102802915,"lng":151.2105076197085}}}},{"place_id":"ChIJOXb02ECuEmsRataHQ5pJNTk","rating":5,"name":"Macquarie City Campus","geo":{"location":{"lat":-33.8662815,"lng":151.2089465},"viewport":{"northeast":{"lat":-33.8649325197085,"lng":151.2102954802915},"southwest":{"lat":-33.8676304802915,"lng":151.2075975197085}}}},{"place_id":"ChIJU-PL6UGuEmsRQtl9xbIcLuQ","name":"Macquarie Applied Finance Centre","geo":{"location":{"lat":-33.8666126,"lng":151.2083917},"viewport":{"northeast":{"lat":-33.8652699197085,"lng":151.2098281302915},"southwest":{"lat":-33.8679678802915,"lng":151.2071301697085}}}},{"place_id":"ChIJK85o70CuEmsRVR_4lfBGNRE","name":"Sydney U3A","geo":{"location":{"lat":-33.8661158,"lng":151.2066122},"viewport":{"northeast":{"lat":-33.8647570697085,"lng":151.2078204302915},"southwest":{"lat":-33.8674550302915,"lng":151.2051224697085}}}}],"parks":[{"place_id":"ChIJDflB7BWuEmsRYPbx-Wh9AQ8","rating":4.5,"name":"Hyde Park","geo":{"location":{"lat":-33.8731383,"lng":151.2112757},"viewport":{"northeast":{"lat":-33.86633475,"lng":151.21383735},"southwest":{"lat":-33.88032175,"lng":151.20861235}}}},{"place_id":"ChIJDRF76ECuEmsREAnz-Wh9AQ8","rating":3.7,"name":"Wynyard Park","geo":{"location":{"lat":-33.8663648,"lng":151.2060209},"viewport":{"northeast":{"lat":-33.86414814999999,"lng":151.2073741802915},"southwest":{"lat":-33.86789195000001,"lng":151.2046762197085}}}},{"place_id":"ChIJaZrLHzuuEmsRYPzx-Wh9AQ8","rating":4.3,"name":"Tumbalong Park","geo":{"location":{"lat":-33.8756305,"lng":151.2018474},"viewport":{"northeast":{"lat":-33.8742815197085,"lng":151.2031963802915},"southwest":{"lat":-33.8769794802915,"lng":151.2004984197085}}}},{"place_id":"ChIJGc4QODauEmsRPyDYYycA4Yg","rating":4.3,"name":"Pyrmont Bay Park","geo":{"location":{"lat":-33.86812,"lng":151.1969113},"viewport":{"northeast":{"lat":-33.86677101970849,"lng":151.1982602802915},"southwest":{"lat":-33.86946898029149,"lng":151.1955623197085}}}},{"place_id":"ChIJmdH3lkKuEmsRkAfz-Wh9AQ8","rating":4.2,"name":"First Fleet Park","geo":{"location":{"lat":-33.860781,"lng":151.2090992},"viewport":{"northeast":{"lat":-33.8595652697085,"lng":151.2105115302915},"southwest":{"lat":-33.8622632302915,"lng":151.2078135697085}}}},{"place_id":"ChIJTxfjQUGuEmsRgCDx-Wh9AQ8","rating":4,"name":"Lang Park","geo":{"location":{"lat":-33.8636582,"lng":151.2057819},"viewport":{"northeast":{"lat":-33.8624113697085,"lng":151.2071237302915},"southwest":{"lat":-33.8651093302915,"lng":151.2044257697085}}}},{"place_id":"ChIJCz9SQkiuEmsRsPTy-Wh9AQ8","rating":4.3,"name":"Ballaarat Park","geo":{"location":{"lat":-33.8639378,"lng":151.1970414},"viewport":{"northeast":{"lat":-33.8625073697085,"lng":151.1982796302915},"southwest":{"lat":-33.8652053302915,"lng":151.1955816697085}}}}],"schools":[{"place_id":"ChIJPRtybxauEmsR0tsOqj8fST0","rating":3.8,"name":"Sydney Grammar School","geo":{"location":{"lat":-33.8749641,"lng":151.2133071},"viewport":{"northeast":{"lat":-33.8736151197085,"lng":151.2146560802915},"southwest":{"lat":-33.8763130802915,"lng":151.2119581197085}}}},{"place_id":"ChIJ7xObFjyuEmsRbOco8y-YxaM","rating":4.1,"name":"St Andrew's Cathedral School","geo":{"location":{"lat":-33.8738398,"lng":151.205699},"viewport":{"northeast":{"lat":-33.87254601970851,"lng":151.2071508302915},"southwest":{"lat":-33.87524398029151,"lng":151.2044528697085}}}},{"place_id":"ChIJFVDVMWquEmsRC93D6ynxzvE","rating":4.4,"name":"Conservatorium High School","geo":{"location":{"lat":-33.8634829,"lng":151.2143572},"viewport":{"northeast":{"lat":-33.8620390197085,"lng":151.2155363302915},"southwest":{"lat":-33.8647369802915,"lng":151.2128383697085}}}},{"place_id":"ChIJPwiLX9yxEmsRyZnOgW-PRxw","rating":4.2,"name":"Fort Street Public School","geo":{"location":{"lat":-33.8604618,"lng":151.2049161},"viewport":{"northeast":{"lat":-33.8591703197085,"lng":151.2062490302915},"southwest":{"lat":-33.8618682802915,"lng":151.2035510697085}}}},{"place_id":"ChIJxUgzo0CuEmsR5VjUp6pKyFY","name":"Sydney School for Self Knowledge","geo":{"location":{"lat":-33.8671309,"lng":151.2056547},"viewport":{"northeast":{"lat":-33.8657751197085,"lng":151.2070977802915},"southwest":{"lat":-33.86847308029149,"lng":151.2043998197085}}}},{"place_id":"ChIJC0nCCz-uEmsRBnF75E3NUho","rating":3.5,"name":"Australian Barista School - Sydney","geo":{"location":{"lat":-33.8698849,"lng":151.207526},"viewport":{"northeast":{"lat":-33.8685360197085,"lng":151.2085840302915},"southwest":{"lat":-33.8712339802915,"lng":151.2058860697085}}}},{"place_id":"ChIJPdM6LTyuEmsRwdmbpY3pCj8","rating":4,"name":"Macquarie English School","geo":{"location":{"lat":-33.87390999999999,"lng":151.207275},"viewport":{"northeast":{"lat":-33.87254621970849,"lng":151.2084562302915},"southwest":{"lat":-33.87524418029149,"lng":151.2057582697085}}}},{"place_id":"ChIJ48rlWjyuEmsRl6U0pdWTvf0","rating":5,"name":"Australian International High School","geo":{"location":{"lat":-33.8749,"lng":151.205827},"viewport":{"northeast":{"lat":-33.8736374197085,"lng":151.2075688302915},"southwest":{"lat":-33.8763353802915,"lng":151.2048708697085}}}},{"place_id":"ChIJAQAAAEGuEmsRbjBsiNO21fE","name":"Macquarie Graduate School of Management","geo":{"location":{"lat":-33.86670540000001,"lng":151.208328},"viewport":{"northeast":{"lat":-33.86536461970851,"lng":151.2097912302915},"southwest":{"lat":-33.8680625802915,"lng":151.2070932697085}}}},{"place_id":"ChIJ53fNpj2uEmsRHIqGsjiTQi8","name":"Australasia International School (AIS)","geo":{"location":{"lat":-33.8760344,"lng":151.2084116},"viewport":{"northeast":{"lat":-33.8746854197085,"lng":151.2097605802915},"southwest":{"lat":-33.8773833802915,"lng":151.2070626197085}}}},{"place_id":"ChIJ3_X_BPOtEmsRFM6h8qX0YhE","name":"ultimo public school","geo":{"location":{"lat":-33.8762012,"lng":151.1947965},"viewport":{"northeast":{"lat":-33.8747579197085,"lng":151.1963883302915},"southwest":{"lat":-33.8774558802915,"lng":151.1936903697085}}}},{"place_id":"ChIJlTrB1xOuEmsRPmf2quXd0xY","rating":4.7,"name":"Sceggs Darlinghurst","geo":{"location":{"lat":-33.87642770000001,"lng":151.2187158},"viewport":{"northeast":{"lat":-33.87508751970851,"lng":151.2201273302915},"southwest":{"lat":-33.8777854802915,"lng":151.2174293697085}}}},{"place_id":"ChIJ3_eJlD6uEmsRkHpetc_reJ0","rating":5,"name":"KU Children's Services - Central Office","geo":{"location":{"lat":-33.871987,"lng":151.206169},"viewport":{"northeast":{"lat":-33.8706307697085,"lng":151.2076419802915},"southwest":{"lat":-33.8733287302915,"lng":151.2049440197085}}}}],"physiotherapist":[{"place_id":"ChIJxxfmaz6uEmsRIpn6uNP0Adg","rating":4,"name":"Livewell Physiotherapy","geo":{"location":{"lat":-33.872669,"lng":151.208465},"viewport":{"northeast":{"lat":-33.8713150197085,"lng":151.2096572802915},"southwest":{"lat":-33.8740129802915,"lng":151.2069593197085}}}},{"place_id":"ChIJwaI0TECuEmsRD_4zJtUbXsc","rating":5,"name":"Sydney Physiotherapy","geo":{"location":{"lat":-33.866221,"lng":151.208246},"viewport":{"northeast":{"lat":-33.8648849697085,"lng":151.2097750302915},"southwest":{"lat":-33.8675829302915,"lng":151.2070770697085}}}},{"place_id":"ChIJE4-sEUCuEmsRgV75M8D7zxM","rating":4.6,"name":"City Physiotherapy & Sports Injury Centre","geo":{"location":{"lat":-33.8678955,"lng":151.2096088},"viewport":{"northeast":{"lat":-33.8664434697085,"lng":151.2109715302915},"southwest":{"lat":-33.8691414302915,"lng":151.2082735697085}}}},{"place_id":"ChIJpW8u9GquEmsRZSu2xppgbgI","rating":5,"name":"Sydney Physio Clinic","geo":{"location":{"lat":-33.8670835,"lng":151.2120446},"viewport":{"northeast":{"lat":-33.8657457697085,"lng":151.2135426802915},"southwest":{"lat":-33.8684437302915,"lng":151.2108447197085}}}},{"place_id":"ChIJwfXEMdSoEmsRTbIZJIJ9nrI","rating":4.6,"name":"CBD Physiotherapy","geo":{"location":{"lat":-33.8699099,"lng":151.2073612},"viewport":{"northeast":{"lat":-33.86856091970849,"lng":151.2087101802915},"southwest":{"lat":-33.87125888029149,"lng":151.2060122197085}}}},{"place_id":"ChIJi7TJ7UGuEmsR0nTP-JunOH4","rating":5,"name":"Domain Physiotherapy","geo":{"location":{"lat":-33.8643842,"lng":151.2090671},"viewport":{"northeast":{"lat":-33.86302146970851,"lng":151.2103039302915},"southwest":{"lat":-33.86571943029151,"lng":151.2076059697085}}}},{"place_id":"ChIJiSqkwmmuEmsR358JwJoFFBk","rating":5,"name":"Ergoworks Physiotherapy and Consulting","geo":{"location":{"lat":-33.864832,"lng":151.211898},"viewport":{"northeast":{"lat":-33.8634830197085,"lng":151.2132469802915},"southwest":{"lat":-33.8661809802915,"lng":151.2105490197085}}}},{"place_id":"ChIJSYHx5GmuEmsR8TUmE940KSU","rating":5,"name":"The Sarah Key Physiotherapy Centre","geo":{"location":{"lat":-33.863229,"lng":151.210911},"viewport":{"northeast":{"lat":-33.86188001970851,"lng":151.2122599802915},"southwest":{"lat":-33.86457798029151,"lng":151.2095620197085}}}},{"place_id":"ChIJCc0MiGmuEmsRkYA2D5na_lY","rating":5,"name":"Sydney Physiotherapy Solutions","geo":{"location":{"lat":-33.8644407,"lng":151.2124013},"viewport":{"northeast":{"lat":-33.86316756970849,"lng":151.2139037302915},"southwest":{"lat":-33.86586553029149,"lng":151.2112057697085}}}},{"place_id":"ChIJ-UJ00ECuEmsRjJJ9MAd2QLc","name":"Sports Focus Physiotherapy","geo":{"location":{"lat":-33.8659108,"lng":151.2051583},"viewport":{"northeast":{"lat":-33.8645698697085,"lng":151.2064013802915},"southwest":{"lat":-33.8672678302915,"lng":151.2037034197085}}}},{"place_id":"ChIJfzqeJD6uEmsR-POQolkOGM8","rating":5,"name":"Castlereagh Physiotherapy and Sports Injuries","geo":{"location":{"lat":-33.87235390000001,"lng":151.2096115},"viewport":{"northeast":{"lat":-33.87101071970851,"lng":151.2107964302915},"southwest":{"lat":-33.87370868029151,"lng":151.2080984697085}}}},{"place_id":"ChIJMWcsz0auEmsRZTieZSpt0Hw","rating":5,"name":"Evoker Premium Physiotherapy Spaces - Sydney CBD","geo":{"location":{"lat":-33.863816,"lng":151.203551},"viewport":{"northeast":{"lat":-33.8624491697085,"lng":151.2051143302915},"southwest":{"lat":-33.8651471302915,"lng":151.2024163697085}}}},{"place_id":"ChIJqQoGrEGuEmsRWdz1XEjTZBQ","name":"ASAP Physiotherapy","geo":{"location":{"lat":-33.8657528,"lng":151.2076023},"viewport":{"northeast":{"lat":-33.86430031970851,"lng":151.2089696802915},"southwest":{"lat":-33.8669982802915,"lng":151.2062717197085}}}},{"place_id":"ChIJVdMTYkCuEmsRVA8sjAhf_FM","rating":4.8,"name":"Physiotherapy on Pitt","geo":{"location":{"lat":-33.8739925,"lng":151.207658},"viewport":{"northeast":{"lat":-33.8726554697085,"lng":151.2091984302915},"southwest":{"lat":-33.8753534302915,"lng":151.2065004697085}}}},{"place_id":"ChIJVdTm9WquEmsRdC4kKvAczxo","rating":5,"name":"Macquarie Street Physiotherapy","geo":{"location":{"lat":-33.866972,"lng":151.212317},"viewport":{"northeast":{"lat":-33.8656295697085,"lng":151.2136671802915},"southwest":{"lat":-33.8683275302915,"lng":151.2109692197085}}}},{"place_id":"ChIJ2QJrYkCuEmsR_u87AVJEcEw","name":"ASAP Physiotherapy","geo":{"location":{"lat":-33.8672209,"lng":151.2073756},"viewport":{"northeast":{"lat":-33.8659922197085,"lng":151.2087059302915},"southwest":{"lat":-33.8686901802915,"lng":151.2060079697085}}}},{"place_id":"ChIJ1QkzaUCuEmsRhUqoNUXY1H4","name":"Physio & Pilates","geo":{"location":{"lat":-33.867302,"lng":151.207835},"viewport":{"northeast":{"lat":-33.8660575697085,"lng":151.2091677802915},"southwest":{"lat":-33.8687555302915,"lng":151.2064698197085}}}},{"place_id":"ChIJtzYjiEGuEmsRl-JWLAR4vF0","rating":5,"name":"Circular Quay Physio & Pilates","geo":{"location":{"lat":-33.86464,"lng":151.209928},"viewport":{"northeast":{"lat":-33.8632763197085,"lng":151.2114192302915},"southwest":{"lat":-33.8659742802915,"lng":151.2087212697085}}}},{"place_id":"ChIJD-OCKD-uEmsRFvIkOhOo9CQ","rating":5,"name":"Sydney CBD Physiotherapy","geo":{"location":{"lat":-33.8718678,"lng":151.2061887},"viewport":{"northeast":{"lat":-33.8705109197085,"lng":151.2076477802915},"southwest":{"lat":-33.8732088802915,"lng":151.2049498197085}}}},{"place_id":"ChIJs5NMET-uEmsR6_0kCAWPwWA","rating":5,"name":"Sydney Specialist Physiotherapy Centre","geo":{"location":{"lat":-33.86966699999999,"lng":151.206245},"viewport":{"northeast":{"lat":-33.86832226970851,"lng":151.2075340802915},"southwest":{"lat":-33.8710202302915,"lng":151.2048361197085}}}},{"place_id":"ChIJV3S_OECuEmsRSbYTtlCQfz4","rating":5,"name":"Fix Physio","geo":{"location":{"lat":-33.866916,"lng":151.208884},"viewport":{"northeast":{"lat":-33.8655546197085,"lng":151.2100604302915},"southwest":{"lat":-33.8682525802915,"lng":151.2073624697085}}}},{"place_id":"ChIJz4-EfkeuEmsRwgCTjeyHtRM","rating":5,"name":"Bend + Mend: Martin Place","geo":{"location":{"lat":-33.86731710000001,"lng":151.2078175},"viewport":{"northeast":{"lat":-33.86606431970851,"lng":151.2091515802915},"southwest":{"lat":-33.86876228029151,"lng":151.2064536197085}}}},{"place_id":"ChIJAQAAAEGuEmsRswi7Yyo61v0","name":"Your Mobile Physio","geo":{"location":{"lat":-33.8657305,"lng":151.20733},"viewport":{"northeast":{"lat":-33.8643815197085,"lng":151.2086789802915},"southwest":{"lat":-33.8670794802915,"lng":151.2059810197085}}}},{"place_id":"ChIJmTTYQTyuEmsROdJy4eOfErk","name":"Sherin Jarvis, Pelvic Floor Physiotherapist","geo":{"location":{"lat":-33.87447470000001,"lng":151.2059431},"viewport":{"northeast":{"lat":-33.87302896970851,"lng":151.2073029802915},"southwest":{"lat":-33.87572693029151,"lng":151.2046050197085}}}},{"place_id":"ChIJZQfHsEauEmsRCqjynGReNSY","rating":5,"name":"Dynamic Physio And Chiro","geo":{"location":{"lat":-33.86326340000001,"lng":151.2035617},"viewport":{"northeast":{"lat":-33.86149225000001,"lng":151.2050341302915},"southwest":{"lat":-33.86857685,"lng":151.2023361697085}}}},{"place_id":"ChIJn-6d40GuEmsRAAU0tdmLZK4","rating":5,"name":"Circular Quay Physio & Pilates","geo":{"location":{"lat":-33.86464,"lng":151.209944},"viewport":{"northeast":{"lat":-33.8633486197085,"lng":151.2113629302915},"southwest":{"lat":-33.8660465802915,"lng":151.2086649697085}}}},{"place_id":"ChIJp6AxnkGuEmsRr02dNbQMTUs","name":"Momentum Physiotherapy & Health Services","geo":{"location":{"lat":-33.8640279,"lng":151.2071112},"viewport":{"northeast":{"lat":-33.8626879697085,"lng":151.2086136802915},"southwest":{"lat":-33.8653859302915,"lng":151.2059157197085}}}},{"place_id":"ChIJf3vKIz6uEmsRu4dN-H5338o","rating":5,"name":"The Fix Program Sydney CBD","geo":{"location":{"lat":-33.86828,"lng":151.205696},"viewport":{"northeast":{"lat":-33.8669201197085,"lng":151.2071897802915},"southwest":{"lat":-33.8696180802915,"lng":151.2044918197085}}}},{"place_id":"ChIJEa6Y9D6uEmsRSIVCL2xH9F8","rating":5,"name":"Bodyaware Physiotherapy","geo":{"location":{"lat":-33.872691,"lng":151.209168},"viewport":{"northeast":{"lat":-33.8711467697085,"lng":151.2105778802915},"southwest":{"lat":-33.8738447302915,"lng":151.2078799197085}}}},{"place_id":"ChIJs48a70GuEmsR749gTvIYd4Y","rating":4.4,"name":"Elevate Sydney CBD Clinic","geo":{"location":{"lat":-33.86462,"lng":151.209371},"viewport":{"northeast":{"lat":-33.8632228697085,"lng":151.2106684802915},"southwest":{"lat":-33.8659208302915,"lng":151.2079705197085}}}},{"place_id":"ChIJSYHx5GmuEmsR1Dc-iPHFfAs","rating":5,"name":"Quaytherapy","geo":{"location":{"lat":-33.865107,"lng":151.209982},"viewport":{"northeast":{"lat":-33.86375801970851,"lng":151.2113309802915},"southwest":{"lat":-33.8664559802915,"lng":151.2086330197085}}}},{"place_id":"ChIJyR_TWj6uEmsRej9x8J6dRSE","rating":5,"name":"Bodyaware Physiotherapy","geo":{"location":{"lat":-33.8717997,"lng":151.2080523},"viewport":{"northeast":{"lat":-33.87045271970851,"lng":151.2094700302915},"southwest":{"lat":-33.8731506802915,"lng":151.2067720697085}}}},{"place_id":"ChIJz4-EfkeuEmsRVctCG3k4wlU","rating":5,"name":"Bend + Mend: Barangaroo - King Street Wharf","geo":{"location":{"lat":-33.8663485,"lng":151.2021377},"viewport":{"northeast":{"lat":-33.8651528697085,"lng":151.2036944302914},"southwest":{"lat":-33.8678508302915,"lng":151.2009964697085}}}},{"place_id":"ChIJe-NN3GmuEmsRno8xPDuuKbc","name":"Bend + Mend Circular Quay","geo":{"location":{"lat":-33.8625822,"lng":151.2107417},"viewport":{"northeast":{"lat":-33.86122236970851,"lng":151.2119589302915},"southwest":{"lat":-33.86392033029151,"lng":151.2092609697085}}}},{"place_id":"ChIJv3c4jz-uEmsRTZw397Og25M","rating":4,"name":"Your Health Domain","geo":{"location":{"lat":-33.8684096,"lng":151.2081278},"viewport":{"northeast":{"lat":-33.8672706697085,"lng":151.2094383802915},"southwest":{"lat":-33.8699686302915,"lng":151.2067404197085}}}},{"place_id":"ChIJ99F3KGquEmsRT7knw9ojXFg","rating":5,"name":"Mr. Stuart Baptist","geo":{"location":{"lat":-33.86449410000001,"lng":151.2124016},"viewport":{"northeast":{"lat":-33.86320146970851,"lng":151.2139029302915},"southwest":{"lat":-33.86589943029151,"lng":151.2112049697085}}}},{"place_id":"ChIJA1kuvECuEmsRpR6xo2sX15c","name":"Joint Health","geo":{"location":{"lat":-33.86793,"lng":151.205628},"viewport":{"northeast":{"lat":-33.8664700697085,"lng":151.2069706302915},"southwest":{"lat":-33.8691680302915,"lng":151.2042726697085}}}},{"place_id":"ChIJs5NMET-uEmsRQH06OoadYD4","name":"Michael Ryan","geo":{"location":{"lat":-33.86966699999999,"lng":151.206245},"viewport":{"northeast":{"lat":-33.86832181970849,"lng":151.2075340302915},"southwest":{"lat":-33.87101978029149,"lng":151.2048360697085}}}},{"place_id":"ChIJceZMPEKuEmsRgHSFkHwdZ4o","rating":5,"name":"Activate Health Clinics","geo":{"location":{"lat":-33.862644,"lng":151.208598},"viewport":{"northeast":{"lat":-33.86123526970849,"lng":151.2099297302915},"southwest":{"lat":-33.86393323029149,"lng":151.2072317697085}}}},{"place_id":"ChIJSZln0D2uEmsRhX0aFbLlG3U","rating":5,"name":"Sydney Physiotherapy Solutions","geo":{"location":{"lat":-33.872122,"lng":151.209016},"viewport":{"northeast":{"lat":-33.8707730197085,"lng":151.2103649802915},"southwest":{"lat":-33.8734709802915,"lng":151.2076670197085}}}},{"place_id":"ChIJw5-HMD6uEmsR3YnNJUTfGmU","rating":5,"name":"Sydney Health Physiotherapy","geo":{"location":{"lat":-33.871935,"lng":151.209011},"viewport":{"northeast":{"lat":-33.87059961970851,"lng":151.2105202302915},"southwest":{"lat":-33.87329758029151,"lng":151.2078222697085}}}},{"place_id":"ChIJJ5VsXz-uEmsRu48lAq9SaYg","name":"Gant Robyn","geo":{"location":{"lat":-33.86793,"lng":151.205628},"viewport":{"northeast":{"lat":-33.8664700697085,"lng":151.2069706302915},"southwest":{"lat":-33.8691680302915,"lng":151.2042726697085}}}},{"place_id":"ChIJCc0MiGmuEmsR31p6ilZ6YBA","name":"Gillingham Emma","geo":{"location":{"lat":-33.8644407,"lng":151.2124013},"viewport":{"northeast":{"lat":-33.86317476970849,"lng":151.2139027802915},"southwest":{"lat":-33.86587273029149,"lng":151.2112048197085}}}},{"place_id":"ChIJPUgOGD6uEmsRDCPMLzag7A4","name":"Maleeka Rayner","geo":{"location":{"lat":-33.87273099999999,"lng":151.209575},"viewport":{"northeast":{"lat":-33.8713697697085,"lng":151.2107594302915},"southwest":{"lat":-33.8740677302915,"lng":151.2080614697085}}}},{"place_id":"ChIJ0zrqqkGuEmsRyyGz07q75vE","rating":5,"name":"Active Muscle & Spine","geo":{"location":{"lat":-33.8656718,"lng":151.207441},"viewport":{"northeast":{"lat":-33.8643176697085,"lng":151.2087174302915},"southwest":{"lat":-33.8670156302915,"lng":151.2060194697085}}}},{"place_id":"ChIJNcckvj6uEmsR6Qp2pK9F8a8","rating":5,"name":"4D Health and Performance","geo":{"location":{"lat":-33.87193099999999,"lng":151.205746},"viewport":{"northeast":{"lat":-33.87058201970849,"lng":151.2070949802915},"southwest":{"lat":-33.87327998029149,"lng":151.2043970197085}}}},{"place_id":"ChIJhzpqxTWuEmsRI6CO_6XW7nY","rating":5,"name":"bounceREHAB","geo":{"location":{"lat":-33.8709601,"lng":151.1944924},"viewport":{"northeast":{"lat":-33.8695411697085,"lng":151.1958950302915},"southwest":{"lat":-33.8722391302915,"lng":151.1931970697085}}}},{"place_id":"ChIJLWgKeD6uEmsRCJUSWG601Ns","name":"Viner Alison","geo":{"location":{"lat":-33.8736108,"lng":151.2077649},"viewport":{"northeast":{"lat":-33.87227151970851,"lng":151.2092693802915},"southwest":{"lat":-33.8749694802915,"lng":151.2065714197085}}}},{"place_id":"ChIJ4YxP70GuEmsR98qQsgAl3Xk","name":"Sports Lab - Sydney CBD","geo":{"location":{"lat":-33.8646363,"lng":151.209464},"viewport":{"northeast":{"lat":-33.8632184197085,"lng":151.2107386302915},"southwest":{"lat":-33.8659163802915,"lng":151.2080406697085}}}},{"place_id":"ChIJLWgKeD6uEmsReVpFeJT3mOE","name":"Ryder Jacquelyn","geo":{"location":{"lat":-33.8736108,"lng":151.2077649},"viewport":{"northeast":{"lat":-33.87227151970851,"lng":151.2092693802915},"southwest":{"lat":-33.8749694802915,"lng":151.2065714197085}}}},{"place_id":"ChIJEzz8cT-uEmsRTdpDferi8nA","rating":5,"name":"George Street Chiropractic Sydney CBD","geo":{"location":{"lat":-33.8691995,"lng":151.2066856},"viewport":{"northeast":{"lat":-33.8678444197085,"lng":151.2081546802915},"southwest":{"lat":-33.8705423802915,"lng":151.2054567197085}}}},{"place_id":"ChIJKSNjRjyuEmsRMWZ93jsGqbE","name":"Active Health Sydney","geo":{"location":{"lat":-33.8747305,"lng":151.2064335},"viewport":{"northeast":{"lat":-33.8733815197085,"lng":151.2077824802915},"southwest":{"lat":-33.8760794802915,"lng":151.2050845197085}}}},{"place_id":"ChIJPQ0MAkSuEmsRJJ2LcEllPvI","name":"Cowen Gideon","geo":{"location":{"lat":-33.8621685,"lng":151.2043249},"viewport":{"northeast":{"lat":-33.8608363697085,"lng":151.2054201302915},"southwest":{"lat":-33.8635343302915,"lng":151.2027221697085}}}},{"place_id":"ChIJ0zrqqkGuEmsR_mskXls-XeQ","rating":4.6,"name":"Back Pain Solutions - Sydney CBD Chiropractors Osteopaths","geo":{"location":{"lat":-33.8661869,"lng":151.2069761},"viewport":{"northeast":{"lat":-33.8647624697085,"lng":151.2084654802915},"southwest":{"lat":-33.86746043029149,"lng":151.2057675197085}}}},{"place_id":"ChIJP8TLzjauEmsR6KPFAnyMNzs","rating":5,"name":"PhysioFit Health","geo":{"location":{"lat":-33.869753,"lng":151.1946},"viewport":{"northeast":{"lat":-33.8684040197085,"lng":151.1959489802915},"southwest":{"lat":-33.87110198029149,"lng":151.1932510197085}}}},{"place_id":"ChIJmTTYQTyuEmsRx7ajBlO8EoA","rating":3.7,"name":"Women's Health & Research Institute of Australia","geo":{"location":{"lat":-33.87448599999999,"lng":151.205939},"viewport":{"northeast":{"lat":-33.87303446970849,"lng":151.2072995302915},"southwest":{"lat":-33.87573243029149,"lng":151.2046015697085}}}}],"doctors":[{"place_id":"ChIJK4PYNECuEmsRr_H_CXPrnzM","rating":4.5,"name":"Sydney Doctors","geo":{"location":{"lat":-33.866142,"lng":151.208792},"viewport":{"northeast":{"lat":-33.86478676970851,"lng":151.2100541302915},"southwest":{"lat":-33.8674847302915,"lng":151.2073561697085}}}},{"place_id":"ChIJ64mlpj2uEmsRulhMLEJxa5Q","rating":3.4,"name":"City Doctors","geo":{"location":{"lat":-33.87591430000001,"lng":151.2084051},"viewport":{"northeast":{"lat":-33.87455986970851,"lng":151.2095013302915},"southwest":{"lat":-33.87725783029151,"lng":151.2068033697085}}}},{"place_id":"ChIJ6492oECuEmsR_Jk80OIlnIk","rating":4,"name":"Dr. Angelo Lazaris - Sydney Cosmetic Dentist","geo":{"location":{"lat":-33.867747,"lng":151.205667},"viewport":{"northeast":{"lat":-33.8664907697085,"lng":151.2071544302915},"southwest":{"lat":-33.8691887302915,"lng":151.2044564697085}}}},{"place_id":"ChIJq0jcJ2quEmsR7zQ2RvO-72k","name":"Dr Frank Martin","geo":{"location":{"lat":-33.86449410000001,"lng":151.2124016},"viewport":{"northeast":{"lat":-33.8631895197085,"lng":151.2139045302915},"southwest":{"lat":-33.8658874802915,"lng":151.2112065697085}}}},{"place_id":"ChIJzWGyLGauEmsRkwmOihDIEjs","rating":5,"name":"Maroun Paulette Dr","geo":{"location":{"lat":-33.8670835,"lng":151.2120446},"viewport":{"northeast":{"lat":-33.8657457697085,"lng":151.2135426802915},"southwest":{"lat":-33.8684437302915,"lng":151.2108447197085}}}},{"place_id":"ChIJRSFIVUCuEmsRXoQK8aMRuYE","name":"Dr Rosemary Aldous","geo":{"location":{"lat":-33.8652314,"lng":151.2099254},"viewport":{"northeast":{"lat":-33.8637909197085,"lng":151.2111699302915},"southwest":{"lat":-33.8664888802915,"lng":151.2084719697085}}}},{"place_id":"ChIJVdTm9WquEmsRkE6zNAZSjfw","rating":5,"name":"Dr Chang Andrew","geo":{"location":{"lat":-33.866998,"lng":151.212042},"viewport":{"northeast":{"lat":-33.8656607197085,"lng":151.2135459802915},"southwest":{"lat":-33.8683586802915,"lng":151.2108480197085}}}},{"place_id":"ChIJVdTm9WquEmsRVUInLQCci6c","name":"Dr. Ameer Ibrahim","geo":{"location":{"lat":-33.866998,"lng":151.212042},"viewport":{"northeast":{"lat":-33.8656607197085,"lng":151.2135459802915},"southwest":{"lat":-33.8683586802915,"lng":151.2108480197085}}}},{"place_id":"ChIJB4v2hWmuEmsRuqc4XdFKzV0","rating":4.4,"name":"Dr Morris","geo":{"location":{"lat":-33.8642583,"lng":151.2124146},"viewport":{"northeast":{"lat":-33.8629047197085,"lng":151.2139339302915},"southwest":{"lat":-33.8656026802915,"lng":151.2112359697085}}}},{"place_id":"ChIJGVqFYkCuEmsRE_FFdUvk1eE","rating":1,"name":"Dr Derek Lok","geo":{"location":{"lat":-33.8672209,"lng":151.2073756},"viewport":{"northeast":{"lat":-33.8659922197085,"lng":151.2087059302915},"southwest":{"lat":-33.8686901802915,"lng":151.2060079697085}}}},{"place_id":"ChIJ74qT9mquEmsRBkVZdAll9ho","rating":4,"name":"Dr Gareth Owen","geo":{"location":{"lat":-33.8670835,"lng":151.2120446},"viewport":{"northeast":{"lat":-33.8657457697085,"lng":151.2135426802915},"southwest":{"lat":-33.8684437302915,"lng":151.2108447197085}}}},{"place_id":"ChIJpW8u9GquEmsR8xlkKH9XlT8","rating":5,"name":"Dr Darren Gold","geo":{"location":{"lat":-33.867092,"lng":151.212071},"viewport":{"northeast":{"lat":-33.8657532197085,"lng":151.2135555302915},"southwest":{"lat":-33.86845118029149,"lng":151.2108575697085}}}},{"place_id":"ChIJxYJeOj6uEmsRJhuagalxZtM","name":"Dr Anthony Yap","geo":{"location":{"lat":-33.86506019999999,"lng":151.2019024},"viewport":{"northeast":{"lat":-33.8637112197085,"lng":151.2032513802915},"southwest":{"lat":-33.8664091802915,"lng":151.2005534197085}}}},{"place_id":"ChIJmWaTSkCuEmsRqQe3aKqaKiM","name":"Dr Anup Desai","geo":{"location":{"lat":-33.864459,"lng":151.212386},"viewport":{"northeast":{"lat":-33.8631264197085,"lng":151.2139029802915},"southwest":{"lat":-33.8658243802915,"lng":151.2112050197085}}}},{"place_id":"ChIJ74qT9mquEmsRA2_bFcgJHRU","name":"Dr Alina Stoita Gastroenterologist","geo":{"location":{"lat":-33.8670835,"lng":151.2120445},"viewport":{"northeast":{"lat":-33.8657457697085,"lng":151.2135426302915},"southwest":{"lat":-33.8684437302915,"lng":151.2108446697085}}}},{"place_id":"ChIJ7TLPJ2quEmsRn-x5IJauAOY","rating":5,"name":"Dr Michael Jones","geo":{"location":{"lat":-33.86449410000001,"lng":151.2124016},"viewport":{"northeast":{"lat":-33.8632036197085,"lng":151.2139026302915},"southwest":{"lat":-33.8659015802915,"lng":151.2112046697085}}}},{"place_id":"ChIJK4PYNECuEmsRoy5VwNY4YyA","name":"Sydney, Medical, Dental and Cosmetic Centre - Dr. Daniela Bitlan","geo":{"location":{"lat":-33.866131,"lng":151.2087178},"viewport":{"northeast":{"lat":-33.8647784697085,"lng":151.2100173302915},"southwest":{"lat":-33.86747643029149,"lng":151.2073193697085}}}},{"place_id":"ChIJx_H_YmiuEmsR0xRYOGZB-oM","name":"Centre for Hand Surgery - Dr Wheen Douglass","geo":{"location":{"lat":-33.866998,"lng":151.212042},"viewport":{"northeast":{"lat":-33.8656607197085,"lng":151.2135459802915},"southwest":{"lat":-33.8683586802915,"lng":151.2108480197085}}}},{"place_id":"ChIJB4v2hWmuEmsRjZuG7u6xyh0","rating":5,"name":"Dr. John Garvey","geo":{"location":{"lat":-33.86426240000001,"lng":151.2124134},"viewport":{"northeast":{"lat":-33.86298041970851,"lng":151.2139234302915},"southwest":{"lat":-33.86567838029151,"lng":151.2112254697085}}}},{"place_id":"ChIJJZwMxECuEmsRTqu5NKdT3tc","name":"Dr Jeffrey Persson","geo":{"location":{"lat":-33.8665519,"lng":151.2057468},"viewport":{"northeast":{"lat":-33.86521056970851,"lng":151.2070960302915},"southwest":{"lat":-33.86790853029151,"lng":151.2043980697085}}}},{"place_id":"ChIJhbtnqjiuEmsRuj5hpLOTLME","rating":5,"name":"Dr Mark Bowman","geo":{"location":{"lat":-33.86765409999999,"lng":151.2039547},"viewport":{"northeast":{"lat":-33.86630511970849,"lng":151.2053036802915},"southwest":{"lat":-33.86900308029148,"lng":151.2026057197085}}}},{"place_id":"ChIJW3LzovCtEmsRUYOD_Ae1Xyc","rating":2.6,"name":"Dr Angelo Tsirbas","geo":{"location":{"lat":-33.8642907,"lng":151.2125275},"viewport":{"northeast":{"lat":-33.8629559697085,"lng":151.2140056802915},"southwest":{"lat":-33.8656539302915,"lng":151.2113077197085}}}},{"place_id":"ChIJC_EfC0GuEmsR4YGYBe9Y8GU","rating":5,"name":"Dr Rob King","geo":{"location":{"lat":-33.86845499999999,"lng":151.211896},"viewport":{"northeast":{"lat":-33.86711991970849,"lng":151.2133818302915},"southwest":{"lat":-33.86981788029149,"lng":151.2106838697085}}}},{"place_id":"ChIJGzISx2quEmsR1WMwTDMpyLs","rating":5,"name":"Allergy Testing Laboratory - Dr Richard Stephen Baker","geo":{"location":{"lat":-33.86858,"lng":151.211812},"viewport":{"northeast":{"lat":-33.86723101970851,"lng":151.2131609802915},"southwest":{"lat":-33.8699289802915,"lng":151.2104630197085}}}},{"place_id":"ChIJhbtnqjiuEmsRg-JEcBkuzAU","name":"Dr Alison Gee","geo":{"location":{"lat":-33.8676229,"lng":151.2038282},"viewport":{"northeast":{"lat":-33.8662357197085,"lng":151.2054880802915},"southwest":{"lat":-33.8689336802915,"lng":151.2027901197085}}}},{"place_id":"ChIJJZwMxECuEmsRFrXiOYEkK24","name":"Dr Gavin Kemball","geo":{"location":{"lat":-33.8635856,"lng":151.2050884},"viewport":{"northeast":{"lat":-33.8621851697085,"lng":151.2065011802915},"southwest":{"lat":-33.8648831302915,"lng":151.2038032197085}}}},{"place_id":"ChIJgdF3KGquEmsRrqWv_JFH23o","rating":5,"name":"Dr Clare Fraser","geo":{"location":{"lat":-33.86449410000001,"lng":151.2124016},"viewport":{"northeast":{"lat":-33.8632014197085,"lng":151.2139029302915},"southwest":{"lat":-33.86589938029149,"lng":151.2112049697085}}}},{"place_id":"ChIJ5yZZWWquEmsRjR9TA19tzuo","name":"Tan Patrick Dr","geo":{"location":{"lat":-33.866642,"lng":151.21213},"viewport":{"northeast":{"lat":-33.8653107197085,"lng":151.2136150802915},"southwest":{"lat":-33.8680086802915,"lng":151.2109171197085}}}},{"place_id":"ChIJpcrCSDyuEmsR0mfNG8fpIuE","name":"Reid Michael DR","geo":{"location":{"lat":-33.8747966,"lng":151.2071479},"viewport":{"northeast":{"lat":-33.8733917697085,"lng":151.2083001302915},"southwest":{"lat":-33.8760897302915,"lng":151.2056021697085}}}},{"place_id":"ChIJGzISx2quEmsRHdx7GcWiU9c","name":"Dr Zion Chan Expert Cosmetic Surgeon Sydney","geo":{"location":{"lat":-33.868592,"lng":151.211939},"viewport":{"northeast":{"lat":-33.8672537697085,"lng":151.2133937302915},"southwest":{"lat":-33.8699517302915,"lng":151.2106957697085}}}},{"place_id":"ChIJVdTm9WquEmsRoZ9mVdBamGc","rating":5,"name":"Dr David Kowalski","geo":{"location":{"lat":-33.866998,"lng":151.212042},"viewport":{"northeast":{"lat":-33.8656607197085,"lng":151.2135459802915},"southwest":{"lat":-33.8683586802915,"lng":151.2108480197085}}}},{"place_id":"ChIJ0zrqqkGuEmsRCBdOAtDUnuQ","rating":5,"name":"City Feet Clinic Podiatry and Foot Doctor Sydney","geo":{"location":{"lat":-33.865715,"lng":151.2074495},"viewport":{"northeast":{"lat":-33.8643604197085,"lng":151.2087195302915},"southwest":{"lat":-33.8670583802915,"lng":151.2060215697085}}}},{"place_id":"ChIJH3vzeBOuEmsRckfzCaT3vzs","rating":5,"name":"Jenny Bromberger - Integrative Doctor, Sydney","geo":{"location":{"lat":-33.87361499999999,"lng":151.216335},"viewport":{"northeast":{"lat":-33.87223506970849,"lng":151.2176912302915},"southwest":{"lat":-33.87493303029149,"lng":151.2149932697085}}}},{"place_id":"ChIJRSFIVUCuEmsRR6MYoK86138","name":"Dr Lurie Edward","geo":{"location":{"lat":-33.8657882,"lng":151.2074364},"viewport":{"northeast":{"lat":-33.8644340697085,"lng":151.2087091802915},"southwest":{"lat":-33.8671320302915,"lng":151.2060112197085}}}},{"place_id":"ChIJVdTm9WquEmsRUuUaZWCgHBY","name":"Dr John Tawfik - Hand and Wrist Surgeon Sydney CBD, Potts Point and Wollongong.","geo":{"location":{"lat":-33.8669645,"lng":151.212056},"viewport":{"northeast":{"lat":-33.8656268197085,"lng":151.2135548802915},"southwest":{"lat":-33.86832478029149,"lng":151.2108569197085}}}},{"place_id":"ChIJB3IOh6qYEmsR00IgpF0MHw0","rating":5,"name":"Dr. Pouria Moradi","geo":{"location":{"lat":-33.8737172,"lng":151.2161722},"viewport":{"northeast":{"lat":-33.8723837697085,"lng":151.2176597802915},"southwest":{"lat":-33.8750817302915,"lng":151.2149618197085}}}},{"place_id":"ChIJtzYjiEGuEmsR_pyHuSB_Y7A","rating":5,"name":"Dr Juman Farjo","geo":{"location":{"lat":-33.863423,"lng":151.208165},"viewport":{"northeast":{"lat":-33.8621845197085,"lng":151.2095253302915},"southwest":{"lat":-33.8648824802915,"lng":151.2068273697085}}}},{"place_id":"ChIJk2Taji2wEmsRFyrfwy0KPAY","rating":5,"name":"Dr. Alex Phoon","geo":{"location":{"lat":-33.873746,"lng":151.2159531},"viewport":{"northeast":{"lat":-33.87243176970849,"lng":151.2175433802915},"southwest":{"lat":-33.87512973029149,"lng":151.2148454197085}}}},{"place_id":"ChIJi9xziGmuEmsR6zEJG44Hgj8","rating":5,"name":"Dr Jason Roth Ear, Nose Throat and Facial Plastic Surgeon Sydney CBD","geo":{"location":{"lat":-33.8644177,"lng":151.2123843},"viewport":{"northeast":{"lat":-33.8630544197085,"lng":151.2139088802915},"southwest":{"lat":-33.8657523802915,"lng":151.2112109197085}}}},{"place_id":"ChIJVdMTYkCuEmsRqjHZ1sPU_4w","name":"Benchmark Medical - Dr. Campion Ellen","geo":{"location":{"lat":-33.8672209,"lng":151.2073756},"viewport":{"northeast":{"lat":-33.8659922197085,"lng":151.2087059302915},"southwest":{"lat":-33.8686901802915,"lng":151.2060079697085}}}},{"place_id":"ChIJ74qT9mquEmsRnPrHBv4L_Is","name":"Dr Sophie Lynch Obstetrician and Gynecologist","geo":{"location":{"lat":-33.8670835,"lng":151.2120445},"viewport":{"northeast":{"lat":-33.8657457697085,"lng":151.2135426302915},"southwest":{"lat":-33.8684437302915,"lng":151.2108446697085}}}},{"place_id":"ChIJRSFIVUCuEmsRZdrqJaAqPXQ","name":"Dr Singer Hilary Anne","geo":{"location":{"lat":-33.8657972,"lng":151.2074096},"viewport":{"northeast":{"lat":-33.86444391970851,"lng":151.2086952802915},"southwest":{"lat":-33.86714188029151,"lng":151.2059973197085}}}},{"place_id":"ChIJGbvxw0GuEmsRapCEBo3IgbM","rating":3.4,"name":"Dr Mark Livingstone","geo":{"location":{"lat":-33.8652735,"lng":151.2093007},"viewport":{"northeast":{"lat":-33.8639245197085,"lng":151.2106496802915},"southwest":{"lat":-33.8666224802915,"lng":151.2079517197085}}}},{"place_id":"ChIJmzHn9WquEmsRo_9EiPe6lVY","rating":5,"name":"Dr Michael Delaney","geo":{"location":{"lat":-33.8670014,"lng":151.2120411},"viewport":{"northeast":{"lat":-33.8656641197085,"lng":151.2135453302915},"southwest":{"lat":-33.8683620802915,"lng":151.2108473697085}}}},{"place_id":"ChIJVdTm9WquEmsRXAENVd8_c3E","name":"Dr Colin I Clement - Eye Associates","geo":{"location":{"lat":-33.866998,"lng":151.212042},"viewport":{"northeast":{"lat":-33.8656607197085,"lng":151.2135459802915},"southwest":{"lat":-33.8683586802915,"lng":151.2108480197085}}}},{"place_id":"ChIJvf3d9WquEmsRSxe1-ASBA7s","name":"Dr John Tawfik - Hand and Wrist Surgeon","geo":{"location":{"lat":-33.8670104,"lng":151.2120424},"viewport":{"northeast":{"lat":-33.8656730197085,"lng":151.2135455302915},"southwest":{"lat":-33.86837098029149,"lng":151.2108475697085}}}},{"place_id":"ChIJ8wy__RauEmsRM3O3SU1FQxk","name":"Dr Jane Hunt","geo":{"location":{"lat":-33.8762019,"lng":151.2125549},"viewport":{"northeast":{"lat":-33.8748405197085,"lng":151.2137677802915},"southwest":{"lat":-33.8775384802915,"lng":151.2110698197085}}}},{"place_id":"ChIJw1btqDiuEmsRnhR5GwNdZyU","name":"Dr Robert Woolcott","geo":{"location":{"lat":-33.86758650000001,"lng":151.2037804},"viewport":{"northeast":{"lat":-33.86621321970851,"lng":151.2054637302915},"southwest":{"lat":-33.86891118029151,"lng":151.2027657697085}}}},{"place_id":"ChIJHVqyC0GuEmsRmY8kJnHhOds","rating":5,"name":"Dr Nadya Chami","geo":{"location":{"lat":-33.8646119,"lng":151.2071394},"viewport":{"northeast":{"lat":-33.86327121970849,"lng":151.2086078802915},"southwest":{"lat":-33.86596918029149,"lng":151.2059099197085}}}},{"place_id":"ChIJCy5N30GuEmsROiymozsIylE","name":"Dr Jason Kaplan","geo":{"location":{"lat":-33.8672485,"lng":151.2069473},"viewport":{"northeast":{"lat":-33.8659070697085,"lng":151.2083722302915},"southwest":{"lat":-33.8686050302915,"lng":151.2056742697085}}}},{"place_id":"ChIJLXP_hmmuEmsR9zK2h1s7PVI","name":"Dr. Peter Kim","geo":{"location":{"lat":-33.8642583,"lng":151.2124146},"viewport":{"northeast":{"lat":-33.86296171970851,"lng":151.2139456802915},"southwest":{"lat":-33.8656596802915,"lng":151.2112477197085}}}},{"place_id":"ChIJ1QkzaUCuEmsRBv1FRA5m86o","name":"Dr Katrina Rowan","geo":{"location":{"lat":-33.86738100000001,"lng":151.20826},"viewport":{"northeast":{"lat":-33.8661200197085,"lng":151.2095953802915},"southwest":{"lat":-33.8688179802915,"lng":151.2068974197085}}}},{"place_id":"ChIJJZwMxECuEmsRZRaQCTmhp9A","name":"Dr David Golovsky","geo":{"location":{"lat":-33.8635856,"lng":151.2050884},"viewport":{"northeast":{"lat":-33.8621851697085,"lng":151.2065011802915},"southwest":{"lat":-33.8648831302915,"lng":151.2038032197085}}}},{"place_id":"ChIJb5keKGquEmsRTHDCNnNPfaU","rating":5,"name":"Dr Caroline Catt","geo":{"location":{"lat":-33.864501,"lng":151.2125},"viewport":{"northeast":{"lat":-33.8631626197085,"lng":151.2139578302915},"southwest":{"lat":-33.8658605802915,"lng":151.2112598697085}}}},{"place_id":"ChIJ8wy__RauEmsRqZJ-ECFBZyM","name":"Dr Andrew Gowers","geo":{"location":{"lat":-33.8762019,"lng":151.2125549},"viewport":{"northeast":{"lat":-33.8748405197085,"lng":151.2137677802915},"southwest":{"lat":-33.8775384802915,"lng":151.2110698197085}}}},{"place_id":"ChIJ8wy__RauEmsRcKl_lHCLO8Q","name":"Dr Timothy Barnes","geo":{"location":{"lat":-33.8762019,"lng":151.2125549},"viewport":{"northeast":{"lat":-33.8748405197085,"lng":151.2137677802915},"southwest":{"lat":-33.8775384802915,"lng":151.2110698197085}}}},{"place_id":"ChIJHVqyC0GuEmsROnAZFBWhD7I","rating":5,"name":"Dr Stanley Green","geo":{"location":{"lat":-33.866221,"lng":151.2082461},"viewport":{"northeast":{"lat":-33.8648849697085,"lng":151.2097750802915},"southwest":{"lat":-33.8675829302915,"lng":151.2070771197085}}}},{"place_id":"ChIJCf3LbkCuEmsRKT-rB8ejJeU","name":"Dr Hilary F Joyce","geo":{"location":{"lat":-33.8672209,"lng":151.2073756},"viewport":{"northeast":{"lat":-33.8659922197085,"lng":151.2087059302915},"southwest":{"lat":-33.8686901802915,"lng":151.2060079697085}}}},{"place_id":"ChIJVdTm9WquEmsRC5Sz8ejwD48","name":"Dr.Riordan Christine","geo":{"location":{"lat":-33.8670046,"lng":151.2120769},"viewport":{"northeast":{"lat":-33.8656659697085,"lng":151.2135632302915},"southwest":{"lat":-33.8683639302915,"lng":151.2108652697085}}}},{"place_id":"ChIJR41UwkCuEmsRgFKFQbFfem8","name":"Dr Manny Mangat","geo":{"location":{"lat":-33.8661751,"lng":151.2054632},"viewport":{"northeast":{"lat":-33.8648031197085,"lng":151.2069404302915},"southwest":{"lat":-33.8675010802915,"lng":151.2042424697085}}}}],"pharmacy":[{"place_id":"ChIJU4HPCEGuEmsRSXREprm-8As","rating":2.3,"name":"Metcentre Amcal Pharmacy","geo":{"location":{"lat":-33.8647047,"lng":151.207065},"viewport":{"northeast":{"lat":-33.8633627697085,"lng":151.2085646802915},"southwest":{"lat":-33.86606073029149,"lng":151.2058667197085}}}},{"place_id":"ChIJmwPYyTyuEmsRYVcu8LRWv8E","rating":3.9,"name":"Priceline Pharmacy World Square","geo":{"location":{"lat":-33.87668219999999,"lng":151.2064819},"viewport":{"northeast":{"lat":-33.87533321970849,"lng":151.2078308802915},"southwest":{"lat":-33.87803118029149,"lng":151.2051329197085}}}},{"place_id":"ChIJy-li-j2uEmsR7H0LHDdmbvw","rating":3.2,"name":"Priceline Pharmacy Hyde Park","geo":{"location":{"lat":-33.8743518,"lng":151.2092177},"viewport":{"northeast":{"lat":-33.8730269197085,"lng":151.2108422802915},"southwest":{"lat":-33.8757248802915,"lng":151.2081443197085}}}},{"place_id":"ChIJ79-2-UCuEmsRhI0d3qQ8MTU","rating":3.9,"name":"Priceline Pharmacy Wynyard","geo":{"location":{"lat":-33.8660679,"lng":151.2070489},"viewport":{"northeast":{"lat":-33.86472636970851,"lng":151.2084999802915},"southwest":{"lat":-33.86742433029151,"lng":151.2058020197085}}}},{"place_id":"ChIJ3_oFBD-uEmsRDyINotowmVk","rating":4.1,"name":"Priceline Pharmacy","geo":{"location":{"lat":-33.8703464,"lng":151.2068291},"viewport":{"northeast":{"lat":-33.8690185197085,"lng":151.2079454802915},"southwest":{"lat":-33.8717164802915,"lng":151.2052475197085}}}},{"place_id":"ChIJ453w6z6uEmsR01zrB1LGFNA","rating":4.5,"name":"Newton's Pharmacy","geo":{"location":{"lat":-33.871557,"lng":151.206127},"viewport":{"northeast":{"lat":-33.8701990697085,"lng":151.2076006302915},"southwest":{"lat":-33.8728970302915,"lng":151.2049026697085}}}},{"place_id":"ChIJDZpopzCuEmsRUR1tH35pkqw","rating":3.8,"name":"Harbourside Pharmacy","geo":{"location":{"lat":-33.87054500000001,"lng":151.198853},"viewport":{"northeast":{"lat":-33.8691960197085,"lng":151.2002019802915},"southwest":{"lat":-33.8718939802915,"lng":151.1975040197085}}}},{"place_id":"ChIJL1UW82-LtAERkHr86QOo4v4","rating":3.6,"name":"Pyrmont Pharmacy","geo":{"location":{"lat":-33.8696901,"lng":151.1967408},"viewport":{"northeast":{"lat":-33.8684005197085,"lng":151.1980785302915},"southwest":{"lat":-33.8710984802915,"lng":151.1953805697085}}}},{"place_id":"ChIJMZJhP0CuEmsRe8QDQGF4pII","rating":4,"name":"CBD Pharmacies","geo":{"location":{"lat":-33.8670994,"lng":151.2086388},"viewport":{"northeast":{"lat":-33.86577611970851,"lng":151.2099194302915},"southwest":{"lat":-33.8684740802915,"lng":151.2072214697085}}}},{"place_id":"ChIJHweP62muEmsRfcoUDnhEVw4","rating":3,"name":"Health Line Pharmacy","geo":{"location":{"lat":-33.8630154,"lng":151.211428},"viewport":{"northeast":{"lat":-33.8618565197085,"lng":151.2127982802915},"southwest":{"lat":-33.8645544802915,"lng":151.2101003197085}}}},{"place_id":"ChIJD0lkZ2quEmsRT3kO5ce20Hc","name":"Chifley Plaza Pharmacy","geo":{"location":{"lat":-33.8662,"lng":151.21175},"viewport":{"northeast":{"lat":-33.8649213697085,"lng":151.2130955802915},"southwest":{"lat":-33.8676193302915,"lng":151.2103976197085}}}},{"place_id":"ChIJi013SjyuEmsRwCAs545UsXA","name":"Pavilion Pharmacy","geo":{"location":{"lat":-33.8746435,"lng":151.2070995},"viewport":{"northeast":{"lat":-33.8732528197085,"lng":151.2083016302915},"southwest":{"lat":-33.8759507802915,"lng":151.2056036697085}}}},{"place_id":"ChIJ8dVPLWiuEmsR4E4i17CziKQ","rating":4,"name":"Quay Pharmacy","geo":{"location":{"lat":-33.8614203,"lng":151.2109106},"viewport":{"northeast":{"lat":-33.8601537697085,"lng":151.2120749302915},"southwest":{"lat":-33.8628517302915,"lng":151.2093769697085}}}},{"place_id":"ChIJdZvUIzyuEmsREb3I1gVl_bI","name":"Town Hall Pharmacy","geo":{"location":{"lat":-33.873689,"lng":151.205683},"viewport":{"northeast":{"lat":-33.8723686697085,"lng":151.2067810802915},"southwest":{"lat":-33.8750666302915,"lng":151.2040831197085}}}},{"place_id":"ChIJ1SBA92quEmsRAEDVgWxoCjU","rating":3.8,"name":"Macquarie Street Pharmacy","geo":{"location":{"lat":-33.8671672,"lng":151.2120209},"viewport":{"northeast":{"lat":-33.8658300197085,"lng":151.2135261802915},"southwest":{"lat":-33.8685279802915,"lng":151.2108282197085}}}},{"place_id":"ChIJZVMZTECuEmsRFxuTrm0ugeg","rating":4.5,"name":"Hunter Connect Compounding Pharmacy","geo":{"location":{"lat":-33.86629000000001,"lng":151.208353},"viewport":{"northeast":{"lat":-33.86494991970851,"lng":151.2098253302915},"southwest":{"lat":-33.8676478802915,"lng":151.2071273697085}}}},{"place_id":"ChIJC_EfC0GuEmsRw1Sq6VsuJgI","rating":3.2,"name":"Health Line Pharmacy","geo":{"location":{"lat":-33.864486,"lng":151.207144},"viewport":{"northeast":{"lat":-33.8631433697085,"lng":151.2086122302915},"southwest":{"lat":-33.8658413302915,"lng":151.2059142697085}}}},{"place_id":"ChIJb4nwhz6uEmsR5Nvfye4serA","rating":4.1,"name":"Priceline Pharmacy Town Hall","geo":{"location":{"lat":-33.8726206,"lng":151.2071537},"viewport":{"northeast":{"lat":-33.87134536970849,"lng":151.2084322802915},"southwest":{"lat":-33.87404333029149,"lng":151.2057343197085}}}},{"place_id":"ChIJ80GR00CuEmsRZHZdb5zvjq0","rating":4.1,"name":"Priceline Pharmacy Margaret Street","geo":{"location":{"lat":-33.8656117,"lng":151.2046614},"viewport":{"northeast":{"lat":-33.8640194697085,"lng":151.2059990302915},"southwest":{"lat":-33.8667174302915,"lng":151.2033010697085}}}},{"place_id":"ChIJ0YP6mWquEmsRPGng-evmiEI","rating":5,"name":"Colonial Centre Pharmacy","geo":{"location":{"lat":-33.8675383,"lng":151.2109629},"viewport":{"northeast":{"lat":-33.8663133197085,"lng":151.2122986802915},"southwest":{"lat":-33.8690112802915,"lng":151.2096007197085}}}},{"place_id":"ChIJecl9mT2uEmsRdtCaPn4vF84","rating":4,"name":"Castlereagh Pharmacy","geo":{"location":{"lat":-33.87564039999999,"lng":151.2091933},"viewport":{"northeast":{"lat":-33.87444746970849,"lng":151.2103774802915},"southwest":{"lat":-33.87714543029149,"lng":151.2076795197085}}}},{"place_id":"ChIJ3y6L5z6uEmsRbXSgZ-KlWBE","rating":4,"name":"Health Line Pharmacy","geo":{"location":{"lat":-33.8711794,"lng":151.2061077},"viewport":{"northeast":{"lat":-33.8698221697085,"lng":151.2075713802915},"southwest":{"lat":-33.87252013029149,"lng":151.2048734197085}}}},{"place_id":"ChIJ3RcSt0auEmsRSMwnyR3eINY","name":"Kent Street Pharmacy","geo":{"location":{"lat":-33.8633447,"lng":151.2037719},"viewport":{"northeast":{"lat":-33.8619894197085,"lng":151.2051977302915},"southwest":{"lat":-33.8646873802915,"lng":151.2024997697085}}}},{"place_id":"ChIJ8zGu5z6uEmsRb2z5i_4VC5M","name":"Health Line Pharmacy","geo":{"location":{"lat":-33.8716153,"lng":151.2037853},"viewport":{"northeast":{"lat":-33.8702557697085,"lng":151.2052191802915},"southwest":{"lat":-33.8729537302915,"lng":151.2025212197085}}}},{"place_id":"ChIJGzISx2quEmsR3qQVbz_FO3Q","rating":5,"name":"Bland Centre Pharmacy","geo":{"location":{"lat":-33.868715,"lng":151.2117693},"viewport":{"northeast":{"lat":-33.8673843197085,"lng":151.2132987302915},"southwest":{"lat":-33.87008228029149,"lng":151.2106007697085}}}},{"place_id":"ChIJ1XMS_T6uEmsRYs_8SxKVgCk","rating":3.9,"name":"Priceline","geo":{"location":{"lat":-33.8700098,"lng":151.2084631},"viewport":{"northeast":{"lat":-33.8686608197085,"lng":151.2098120802915},"southwest":{"lat":-33.87135878029149,"lng":151.2071141197085}}}},{"place_id":"ChIJrVTq9zyuEmsRZ_8Sr3naWds","rating":3.7,"name":"Chemist Warehouse Sydney Central","geo":{"location":{"lat":-33.8757925,"lng":151.20658},"viewport":{"northeast":{"lat":-33.8744192197085,"lng":151.2078407302915},"southwest":{"lat":-33.87711718029149,"lng":151.2051427697085}}}},{"place_id":"ChIJ1dQmbD6uEmsR7jC030aIeoI","rating":3.8,"name":"Chemist Warehouse Sydney Pitt Street","geo":{"location":{"lat":-33.8713726,"lng":151.2078884},"viewport":{"northeast":{"lat":-33.87064045,"lng":151.2094020802915},"southwest":{"lat":-33.87356904999999,"lng":151.2067041197085}}}},{"place_id":"ChIJfSZ6kz-uEmsR7d8eFGvQyVE","rating":3.5,"name":"Soul Pattinson Chemist","geo":{"location":{"lat":-33.8694874,"lng":151.2084156},"viewport":{"northeast":{"lat":-33.86813641970851,"lng":151.2097052302915},"southwest":{"lat":-33.8708343802915,"lng":151.2070072697085}}}},{"place_id":"ChIJMfom7UCuEmsR2EXQPD6ibgU","rating":4.5,"name":"YouSave Chemist Wynyard","geo":{"location":{"lat":-33.86673,"lng":151.206433},"viewport":{"northeast":{"lat":-33.8653753197085,"lng":151.2076995302915},"southwest":{"lat":-33.8680732802915,"lng":151.2050015697085}}}},{"place_id":"ChIJhbjiwEKuEmsRs1pgaOhdOSk","rating":5,"name":"The Rocks Chemist","geo":{"location":{"lat":-33.8594634,"lng":151.2085865},"viewport":{"northeast":{"lat":-33.85812221970851,"lng":151.2100288302915},"southwest":{"lat":-33.8608201802915,"lng":151.2073308697085}}}},{"place_id":"ChIJZTnt2j2uEmsRrCeKUdIIkdY","rating":2.9,"name":"Chemist Max","geo":{"location":{"lat":-33.8742179,"lng":151.2081559},"viewport":{"northeast":{"lat":-33.8728647697085,"lng":151.2094386302915},"southwest":{"lat":-33.8755627302915,"lng":151.2067406697085}}}},{"place_id":"ChIJBa-WZT6uEmsRm3RhmaGGYok","rating":2.6,"name":"Glover Chemist","geo":{"location":{"lat":-33.8727425,"lng":151.2079106},"viewport":{"northeast":{"lat":-33.8713935197085,"lng":151.2092595802915},"southwest":{"lat":-33.8740914802915,"lng":151.2065616197085}}}},{"place_id":"ChIJHxZmhD6uEmsRREpSG5AhIbs","rating":3.7,"name":"Sydney City Pharmacy","geo":{"location":{"lat":-33.8725192,"lng":151.2067066},"viewport":{"northeast":{"lat":-33.8713621697085,"lng":151.2081278802915},"southwest":{"lat":-33.8740601302915,"lng":151.2054299197085}}}}],"dentist":[{"place_id":"ChIJu0GhCEeuEmsRfyCvY_v670c","rating":5,"name":"National Dental Care Barangaroo","geo":{"location":{"lat":-33.86508630000001,"lng":151.2022293},"viewport":{"northeast":{"lat":-33.8637517697085,"lng":151.2032967802915},"southwest":{"lat":-33.86644973029149,"lng":151.2005988197085}}}},{"place_id":"ChIJT-j880CuEmsRB9e8uqiCF0U","rating":3.9,"name":"nib Dental Care Centre Sydney CBD","geo":{"location":{"lat":-33.8659321,"lng":151.2089943},"viewport":{"northeast":{"lat":-33.8645311197085,"lng":151.2103743302915},"southwest":{"lat":-33.8672290802915,"lng":151.2076763697085}}}},{"place_id":"ChIJDw5BAUGuEmsR8Gv5BNqZy6w","rating":4,"name":"No Gaps Dental in Sydney CBD Wynyard","geo":{"location":{"lat":-33.865355,"lng":151.20704},"viewport":{"northeast":{"lat":-33.86401291970849,"lng":151.2085297802915},"southwest":{"lat":-33.86671088029149,"lng":151.2058318197085}}}},{"place_id":"ChIJpcrCSDyuEmsRZf1FKVjvEq4","rating":5,"name":"Primary Dental Sydney","geo":{"location":{"lat":-33.8748198,"lng":151.2071301},"viewport":{"northeast":{"lat":-33.8734160197085,"lng":151.2082860302915},"southwest":{"lat":-33.8761139802915,"lng":151.2055880697085}}}},{"place_id":"ChIJu7dTkz6uEmsRPUg1yJtZ1ds","rating":5,"name":"Clear Dental Sydney CBD","geo":{"location":{"lat":-33.87187,"lng":151.206269},"viewport":{"northeast":{"lat":-33.8705159697085,"lng":151.2076883302915},"southwest":{"lat":-33.87321393029149,"lng":151.2049903697085}}}},{"place_id":"ChIJOaX-pTyuEmsRvlItDJqORUo","rating":5,"name":"Lok Dentists","geo":{"location":{"lat":-33.8755378,"lng":151.204771},"viewport":{"northeast":{"lat":-33.87469119999999,"lng":151.2060541802915},"southwest":{"lat":-33.87807760000001,"lng":151.2033562197085}}}},{"place_id":"ChIJsZWJN0CuEmsRV4i9UavBQ0I","rating":5,"name":"Prudential Dental Clinic, Sydney CBD","geo":{"location":{"lat":-33.866765,"lng":151.208906},"viewport":{"northeast":{"lat":-33.8654033697085,"lng":151.2100793302915},"southwest":{"lat":-33.86810133029149,"lng":151.2073813697085}}}},{"place_id":"ChIJX-Fj4j-uEmsRiGyRFyCVkgQ","rating":4.1,"name":"Sydney Holistic Dental Centre","geo":{"location":{"lat":-33.8697398,"lng":151.2100667},"viewport":{"northeast":{"lat":-33.8684465197085,"lng":151.2115364802915},