{"1655":{"schools":[{"place_id":"ChIJe6x52Q6rEmsRu2ujTUviNu8","rating":1,"name":"Manly Village Public School","geo":{"location":{"lat":-33.7992015,"lng":151.2869546},"viewport":{"northeast":{"lat":-33.79785251970849,"lng":151.2883035802915},"southwest":{"lat":-33.80055048029149,"lng":151.2856056197085}}}},{"place_id":"ChIJWUqBDg-rEmsRLLDtcf-Et3Y","name":"Royal Far West School","geo":{"location":{"lat":-33.7984393,"lng":151.2884749},"viewport":{"northeast":{"lat":-33.79701051970851,"lng":151.2897566302915},"southwest":{"lat":-33.79970848029151,"lng":151.2870586697085}}}},{"place_id":"ChIJocIKCgarEmsR3BflWDlJ8vU","rating":3.5,"name":"St Mary’s Catholic School","geo":{"location":{"lat":-33.795496,"lng":151.286585},"viewport":{"northeast":{"lat":-33.79368626970849,"lng":151.2879994302915},"southwest":{"lat":-33.79638423029149,"lng":151.2853014697085}}}},{"place_id":"ChIJX2_oPgarEmsRVCOC38TH2yI","name":"Kangaroo Street Pre-School","geo":{"location":{"lat":-33.794605,"lng":151.284308},"viewport":{"northeast":{"lat":-33.7932417197085,"lng":151.2855461302915},"southwest":{"lat":-33.7959396802915,"lng":151.2828481697085}}}},{"place_id":"ChIJeeinYxKrEmsR0mPFwRTIG1c","rating":4.3,"name":"St Paul's Catholic College","geo":{"location":{"lat":-33.8057439,"lng":151.2924765},"viewport":{"northeast":{"lat":-33.8040127697085,"lng":151.2939555802915},"southwest":{"lat":-33.80671073029149,"lng":151.2912576197085}}}},{"place_id":"ChIJ-2_LVaarEmsR1vpC66EnQuE","rating":5,"name":"Studio Make","geo":{"location":{"lat":-33.79618179999999,"lng":151.2769994},"viewport":{"northeast":{"lat":-33.79435704999999,"lng":151.2897143},"southwest":{"lat":-33.80165605000001,"lng":151.2727611}}}}],"parks":[{"place_id":"ChIJFXeQegirEmsRUOPy-Wh9AQ8","rating":4.2,"name":"Ivanhoe Park","geo":{"location":{"lat":-33.796354,"lng":151.2819528},"viewport":{"northeast":{"lat":-33.79396550000001,"lng":151.2870972},"southwest":{"lat":-33.7976343,"lng":151.2789176}}}},{"place_id":"ChIJu6r64AirEmsRPma4XXLR_Eo","rating":3.9,"name":"Gilbert Park","geo":{"location":{"lat":-33.7980755,"lng":151.2844359},"viewport":{"northeast":{"lat":-33.7967050697085,"lng":151.2856513302915},"southwest":{"lat":-33.7994030302915,"lng":151.2829533697085}}}},{"place_id":"ChIJpRU4EqmrEmsR3u5AONd-PG4","rating":3,"name":"Dog park","geo":{"location":{"lat":-33.7900881,"lng":151.2764235},"viewport":{"northeast":{"lat":-33.7887391197085,"lng":151.2777724802915},"southwest":{"lat":-33.7914370802915,"lng":151.2750745197085}}}},{"place_id":"ChIJ5SSGjamrEmsRcODy-Wh9AQ8","rating":4.1,"name":"LM Graham Reserve","geo":{"location":{"lat":-33.78929829999999,"lng":151.2775439},"viewport":{"northeast":{"lat":-33.7875269,"lng":151.2792335802915},"southwest":{"lat":-33.7910105,"lng":151.2765356197085}}}}],"doctors":[{"place_id":"ChIJzcbeAwarEmsRM4tVjkEd4Ls","rating":5,"name":"Raglan Street Family Medical Centre - Dr. Ly Lin","geo":{"location":{"lat":-33.79572539999999,"lng":151.2855067},"viewport":{"northeast":{"lat":-33.7944177697085,"lng":151.2867212302915},"southwest":{"lat":-33.7971157302915,"lng":151.2840232697085}}}},{"place_id":"ChIJk881NQmrEmsR6VtIAtfBy9M","rating":2,"name":"Dr Bannister Mike","geo":{"location":{"lat":-33.799867,"lng":151.286011},"viewport":{"northeast":{"lat":-33.7986239697085,"lng":151.2872481802915},"southwest":{"lat":-33.8013219302915,"lng":151.2845502197085}}}},{"place_id":"ChIJe66iUqarEmsRypYTrk7_OK4","rating":5,"name":"Williams Gavin DR","geo":{"location":{"lat":-33.79584,"lng":151.277195},"viewport":{"northeast":{"lat":-33.7945571197085,"lng":151.2785363302915},"southwest":{"lat":-33.79725508029149,"lng":151.2758383697085}}}},{"place_id":"ChIJu30MrQirEmsRfKoK1Z-3pK0","name":"Dr Hon Chan","geo":{"location":{"lat":-33.79661230000001,"lng":151.2858617},"viewport":{"northeast":{"lat":-33.7952633197085,"lng":151.2872106802915},"southwest":{"lat":-33.7979612802915,"lng":151.2845127197085}}}},{"place_id":"ChIJWeXzEA-rEmsR44oNTleSrfw","name":"Dr Efstathios","geo":{"location":{"lat":-33.79838890000001,"lng":151.2879744},"viewport":{"northeast":{"lat":-33.7970754197085,"lng":151.2893511302915},"southwest":{"lat":-33.7997733802915,"lng":151.2866531697085}}}},{"place_id":"ChIJyXFfwQ6rEmsRZI9SxG07XH8","name":"Dr Paul Fowler","geo":{"location":{"lat":-33.799788,"lng":151.286846},"viewport":{"northeast":{"lat":-33.7984143697085,"lng":151.2883574302915},"southwest":{"lat":-33.8011123302915,"lng":151.2856594697085}}}},{"place_id":"ChIJcS1qxA6rEmsRCesDgrm6Mhg","name":"Dr Kate Hale","geo":{"location":{"lat":-33.7997883,"lng":151.2868458},"viewport":{"northeast":{"lat":-33.7984100197085,"lng":151.2883535802915},"southwest":{"lat":-33.8011079802915,"lng":151.2856556197085}}}},{"place_id":"ChIJu_hxfvKuEmsRjPGzJTY81nQ","rating":1,"name":"Dr Warwick Harper","geo":{"location":{"lat":-33.797253,"lng":151.28413},"viewport":{"northeast":{"lat":-33.7959207197085,"lng":151.2855843302915},"southwest":{"lat":-33.7986186802915,"lng":151.2828863697085}}}},{"place_id":"ChIJUdrOww6rEmsRjyfWY7LrDPs","rating":5,"name":"Dr James Ferry","geo":{"location":{"lat":-33.7997883,"lng":151.2868458},"viewport":{"northeast":{"lat":-33.7983676697085,"lng":151.2883174802915},"southwest":{"lat":-33.8010656302915,"lng":151.2856195197085}}}},{"place_id":"ChIJ3wMiKw-rEmsRexvzNGGISCQ","name":"Dr Nigel Ackroyd Vascular & Endovascular Surgeon","geo":{"location":{"lat":-33.79985120000001,"lng":151.2860761},"viewport":{"northeast":{"lat":-33.79842301970851,"lng":151.2873546302915},"southwest":{"lat":-33.8011209802915,"lng":151.2846566697085}}}},{"place_id":"ChIJfaDOww6rEmsRtWJG1jOF7DA","name":"Dr Sarah Woodbury","geo":{"location":{"lat":-33.7997883,"lng":151.2868458},"viewport":{"northeast":{"lat":-33.7984393197085,"lng":151.2881947802915},"southwest":{"lat":-33.8011372802915,"lng":151.2854968197085}}}},{"place_id":"ChIJWeXzEA-rEmsRvbXoHNZtuo4","name":"Dr.Jonathan Page","geo":{"location":{"lat":-33.7982431,"lng":151.2876889},"viewport":{"northeast":{"lat":-33.7970350697085,"lng":151.2891480802915},"southwest":{"lat":-33.7997330302915,"lng":151.2864501197085}}}},{"place_id":"ChIJLzxVrwirEmsRnJ6qWlpkqD0","rating":3,"name":"Dr Gabrielle Howard","geo":{"location":{"lat":-33.796349,"lng":151.28542},"viewport":{"northeast":{"lat":-33.7949791197085,"lng":151.2866313802915},"southwest":{"lat":-33.7976770802915,"lng":151.2839334197085}}}},{"place_id":"ChIJyXFfwQ6rEmsRrwp6sPI9Sa0","name":"DR RICHARD JANUSIC DR ELIZABETH GLUHIN","geo":{"location":{"lat":-33.7997883,"lng":151.2868458},"viewport":{"northeast":{"lat":-33.7983569197085,"lng":151.2883095802915},"southwest":{"lat":-33.8010548802915,"lng":151.2856116197085}}}},{"place_id":"ChIJXT8EIg-rEmsRAH-jUj1vMFo","rating":3.8,"name":"Manly Medical Centre","geo":{"location":{"lat":-33.7989666,"lng":151.2890434},"viewport":{"northeast":{"lat":-33.79758246970849,"lng":151.2904617802915},"southwest":{"lat":-33.80028043029149,"lng":151.2877638197085}}}},{"place_id":"ChIJJxNPuAirEmsR_Up5WiY-dzA","name":"Dr Alan Marel","geo":{"location":{"lat":-33.797058,"lng":151.28518},"viewport":{"northeast":{"lat":-33.7956931697085,"lng":151.2864289802915},"southwest":{"lat":-33.7983911302915,"lng":151.2837310197085}}}},{"place_id":"ChIJe66iUqarEmsRACd5U20tmM0","rating":4.1,"name":"Myora Medical General Practice PTY LTD","geo":{"location":{"lat":-33.7958423,"lng":151.2772017},"viewport":{"northeast":{"lat":-33.7945585197085,"lng":151.2785431302915},"southwest":{"lat":-33.79725648029149,"lng":151.2758451697085}}}},{"place_id":"ChIJk881NQmrEmsR5EzeAJJooUk","name":"North Shore Dermatology","geo":{"location":{"lat":-33.799867,"lng":151.286011},"viewport":{"northeast":{"lat":-33.7985180197085,"lng":151.2873599802915},"southwest":{"lat":-33.8012159802915,"lng":151.2846620197085}}}},{"place_id":"ChIJnaKQMQ-rEmsRU-2f9ei1gZY","name":"Vickers C R","geo":{"location":{"lat":-33.7980291,"lng":151.2864577},"viewport":{"northeast":{"lat":-33.7966819697085,"lng":151.2878082802915},"southwest":{"lat":-33.7993799302915,"lng":151.2851103197085}}}},{"place_id":"ChIJVVVVVQirEmsRbWT6Po8EvAk","rating":5,"name":"Nihad Jackson","geo":{"location":{"lat":-33.7969047,"lng":151.2842017},"viewport":{"northeast":{"lat":-33.7954720197085,"lng":151.2855693802915},"southwest":{"lat":-33.7981699802915,"lng":151.2828714197085}}}},{"place_id":"ChIJPZtZHw-rEmsRAp5Ntatea0c","name":"Brandson A S","geo":{"location":{"lat":-33.79923300000001,"lng":151.286559},"viewport":{"northeast":{"lat":-33.7978840197085,"lng":151.2879079802915},"southwest":{"lat":-33.8005819802915,"lng":151.2852100197085}}}},{"place_id":"ChIJLzxVrwirEmsRE4YJsMPguxc","rating":3.9,"name":"Alternative Foot Solutions","geo":{"location":{"lat":-33.796349,"lng":151.28542},"viewport":{"northeast":{"lat":-33.7949699697085,"lng":151.2866330802915},"southwest":{"lat":-33.7976679302915,"lng":151.2839351197085}}}},{"place_id":"ChIJk881NQmrEmsRBSkRvEJoF80","name":". Freny Kalapesi -","geo":{"location":{"lat":-33.799867,"lng":151.286011},"viewport":{"northeast":{"lat":-33.7986239697085,"lng":151.2872481802915},"southwest":{"lat":-33.8013219302915,"lng":151.2845502197085}}}},{"place_id":"ChIJ2w9rxA6rEmsRwqFOYl6lgoI","rating":4,"name":"Genea | Manly, Northern Beaches | IVF & Fertility Clinic","geo":{"location":{"lat":-33.79976990000001,"lng":151.2868666},"viewport":{"northeast":{"lat":-33.7984076697085,"lng":151.2883677802915},"southwest":{"lat":-33.8011056302915,"lng":151.2856698197085}}}},{"place_id":"ChIJyXFfwQ6rEmsR4weFnwtKBh8","name":"Kennedy Michael","geo":{"location":{"lat":-33.7997883,"lng":151.2868458},"viewport":{"northeast":{"lat":-33.79841451970849,"lng":151.2883573302915},"southwest":{"lat":-33.80111248029149,"lng":151.2856593697085}}}},{"place_id":"ChIJvasnog6rEmsRzn1i8Bp0LbY","name":"Eaton Warwick R","geo":{"location":{"lat":-33.801248,"lng":151.287362},"viewport":{"northeast":{"lat":-33.7999865197085,"lng":151.2887817802915},"southwest":{"lat":-33.8026844802915,"lng":151.2860838197085}}}},{"place_id":"ChIJLzxVrwirEmsR7AzjOMJfZd4","name":"Sydney Insulin Pump Clinic","geo":{"location":{"lat":-33.796349,"lng":151.28542},"viewport":{"northeast":{"lat":-33.7949791197085,"lng":151.2866313802915},"southwest":{"lat":-33.7976770802915,"lng":151.2839334197085}}}},{"place_id":"ChIJYZ6h7girEmsRlRd8zqQlLbI","name":"Peninsula Plastic Surgery","geo":{"location":{"lat":-33.7972058,"lng":151.2841628},"viewport":{"northeast":{"lat":-33.7958568197085,"lng":151.2855117802915},"southwest":{"lat":-33.7985547802915,"lng":151.2828138197085}}}},{"place_id":"ChIJvasnog6rEmsRc_ecT8JDISw","name":"Howell Lesley K V","geo":{"location":{"lat":-33.801248,"lng":151.287362},"viewport":{"northeast":{"lat":-33.7999865197085,"lng":151.2887817802915},"southwest":{"lat":-33.8026844802915,"lng":151.2860838197085}}}},{"place_id":"ChIJvYkWPAmrEmsRpKBbeWGWARs","name":"Peter Heyworth & Associates","geo":{"location":{"lat":-33.797138,"lng":151.28804},"viewport":{"northeast":{"lat":-33.7957890197085,"lng":151.2893889802915},"southwest":{"lat":-33.79848698029149,"lng":151.2866910197085}}}},{"place_id":"ChIJRdjYtA6rEmsRFhojEcJxiR8","name":"Manly Cove Podiatry","geo":{"location":{"lat":-33.8001599,"lng":151.286481},"viewport":{"northeast":{"lat":-33.7988431197085,"lng":151.2875661302915},"southwest":{"lat":-33.80154108029149,"lng":151.2848681697085}}}},{"place_id":"ChIJk881NQmrEmsR2D8VBYdwUvQ","name":"Northern Peninsula Oral and Maxillofacial Surgery Manly","geo":{"location":{"lat":-33.799867,"lng":151.2860111},"viewport":{"northeast":{"lat":-33.7986239697085,"lng":151.2872482302915},"southwest":{"lat":-33.8013219302915,"lng":151.2845502697085}}}},{"place_id":"ChIJiyK3RoSqEmsRFGXmti3bJdE","name":"Plastic Surgery Cosmetic Surgery","geo":{"location":{"lat":-33.7985209,"lng":151.2861201},"viewport":{"northeast":{"lat":-33.7971719197085,"lng":151.2874690802915},"southwest":{"lat":-33.7998698802915,"lng":151.2847711197085}}}}],"fitness":[{"place_id":"ChIJVYfQ1girEmsRnzkqp9pGyL8","rating":5,"name":"Fight Gym","geo":{"location":{"lat":-33.7988893,"lng":151.2854383},"viewport":{"northeast":{"lat":-33.79758896970851,"lng":151.2864782802915},"southwest":{"lat":-33.80028693029151,"lng":151.2837803197085}}}},{"place_id":"ChIJsW7_bAarEmsRiavIhaPgg84","rating":4.7,"name":"Plus Fitness Manly Gym","geo":{"location":{"lat":-33.794508,"lng":151.285061},"viewport":{"northeast":{"lat":-33.7931756197085,"lng":151.2865155802915},"southwest":{"lat":-33.7958735802915,"lng":151.2838176197085}}}},{"place_id":"ChIJm6HuGQarEmsRltlmeSPo-58","rating":3.8,"name":"Anytime Fitness Manly","geo":{"location":{"lat":-33.7951859,"lng":151.2849952},"viewport":{"northeast":{"lat":-33.7938330197085,"lng":151.2864235802915},"southwest":{"lat":-33.7965309802915,"lng":151.2837256197085}}}},{"place_id":"ChIJCQ7nUw-rEmsRNI_qljEUfI0","rating":4.8,"name":"F45 Training Manly","geo":{"location":{"lat":-33.7965963,"lng":151.2863635},"viewport":{"northeast":{"lat":-33.7952616197085,"lng":151.2878136302915},"southwest":{"lat":-33.7979595802915,"lng":151.2851156697085}}}},{"place_id":"ChIJo4SK7wWrEmsRE4FCG6vEjHM","rating":4.2,"name":"Manly Beach Health Club","geo":{"location":{"lat":-33.7956706,"lng":151.2868653},"viewport":{"northeast":{"lat":-33.7943696197085,"lng":151.2882045802915},"southwest":{"lat":-33.7970675802915,"lng":151.2855066197085}}}},{"place_id":"ChIJXYR6QAGrEmsRg6L-TDaBjOg","rating":5,"name":"38X Fitness","geo":{"location":{"lat":-33.78939769999999,"lng":151.2846183},"viewport":{"northeast":{"lat":-33.78807026970851,"lng":151.2861234302915},"southwest":{"lat":-33.7907682302915,"lng":151.2834254697085}}}},{"place_id":"ChIJ52eNxgOrEmsRLyhw6V4u4Dg","rating":5,"name":"Pure Fitness Manly","geo":{"location":{"lat":-33.7950037,"lng":151.2876543},"viewport":{"northeast":{"lat":-33.7936815697085,"lng":151.2888368802915},"southwest":{"lat":-33.7963795302915,"lng":151.2861389197085}}}},{"place_id":"ChIJ84JGOwmrEmsRDtEIes7f8aI","rating":5,"name":"Manly BJJ","geo":{"location":{"lat":-33.7990929,"lng":151.2851003},"viewport":{"northeast":{"lat":-33.7975815197085,"lng":151.2865066802915},"southwest":{"lat":-33.8002794802915,"lng":151.2838087197085}}}},{"place_id":"ChIJc5Kb2AmrEmsRGMWyjxAIxm0","rating":5,"name":"Manly Beach Running Club","geo":{"location":{"lat":-33.7980998,"lng":151.2802163},"viewport":{"northeast":{"lat":-33.7967508197085,"lng":151.2815652802915},"southwest":{"lat":-33.7994487802915,"lng":151.2788673197085}}}},{"place_id":"ChIJk4FO9AWrEmsRNu2PiK7q2Pk","rating":5,"name":"100Strong","geo":{"location":{"lat":-33.796246,"lng":151.287248},"viewport":{"northeast":{"lat":-33.79489701970849,"lng":151.2885969802915},"southwest":{"lat":-33.79759498029149,"lng":151.2858990197085}}}},{"place_id":"ChIJoZalyQWrEmsRs3bfgH9XSA8","name":"Pure Fitness Manly Beach Training","geo":{"location":{"lat":-33.7943238,"lng":151.2873361},"viewport":{"northeast":{"lat":-33.7929748197085,"lng":151.2886850802915},"southwest":{"lat":-33.7956727802915,"lng":151.2859871197085}}}},{"place_id":"ChIJ-W8zNwmrEmsRxlCysNyHq1A","rating":5,"name":"The Healthy Mummy","geo":{"location":{"lat":-33.7994919,"lng":151.2854185},"viewport":{"northeast":{"lat":-33.7981429197085,"lng":151.2867674802915},"southwest":{"lat":-33.8008408802915,"lng":151.2840695197085}}}},{"place_id":"ChIJ3wMiKw-rEmsRuhhmXN7MhLI","name":"flow mOcean","geo":{"location":{"lat":-33.7985209,"lng":151.2861202},"viewport":{"northeast":{"lat":-33.79750361970851,"lng":151.2870138},"southwest":{"lat":-33.80020158029151,"lng":151.2834394}}}},{"place_id":"ChIJrTL92QirEmsRF8tmKBdq5JA","rating":3.7,"name":"Qi Health & Yoga","geo":{"location":{"lat":-33.798313,"lng":151.285465},"viewport":{"northeast":{"lat":-33.7970552197085,"lng":151.2868921802915},"southwest":{"lat":-33.7997531802915,"lng":151.2841942197085}}}},{"place_id":"ChIJU4-vDQirEmsRacvoa58UYtY","name":"Manly Scout Hall","geo":{"location":{"lat":-33.7954535,"lng":151.281589},"viewport":{"northeast":{"lat":-33.7940649697085,"lng":151.2827196802915},"southwest":{"lat":-33.7967629302915,"lng":151.2800217197085}}}},{"place_id":"ChIJ3UysDwarEmsR4_gjn7Dc8UA","name":"Manly Rush","geo":{"location":{"lat":-33.795184,"lng":151.28545},"viewport":{"northeast":{"lat":-33.7938470197085,"lng":151.2866504302915},"southwest":{"lat":-33.7965449802915,"lng":151.2839524697085}}}},{"place_id":"ChIJGa-0fA-rEmsRiXKNvxmQnFM","name":"Battle at the Beaches","geo":{"location":{"lat":-33.79669619999999,"lng":151.2876022},"viewport":{"northeast":{"lat":-33.7953128197085,"lng":151.2890810302915},"southwest":{"lat":-33.79801078029149,"lng":151.2863830697085}}}},{"place_id":"ChIJbdS7kgirEmsRDeOAMwntk2U","rating":4.9,"name":"Bioathletic","geo":{"location":{"lat":-33.796811,"lng":151.283911},"viewport":{"northeast":{"lat":-33.7954014197085,"lng":151.2852740302915},"southwest":{"lat":-33.7980993802915,"lng":151.2825760697085}}}},{"place_id":"ChIJVwIIbQarEmsR2eC1A_Xx3RI","rating":5,"name":"Dynamic Pilates Manly","geo":{"location":{"lat":-33.79444550000001,"lng":151.2851048},"viewport":{"northeast":{"lat":-33.7930620697085,"lng":151.2864591302915},"southwest":{"lat":-33.7957600302915,"lng":151.2837611697085}}}},{"place_id":"ChIJC3zySgmrEmsRXqj_rCVK5fY","rating":4.8,"name":"MGS Physiotherapy","geo":{"location":{"lat":-33.7976279,"lng":151.2853007},"viewport":{"northeast":{"lat":-33.7962854197085,"lng":151.2866900302915},"southwest":{"lat":-33.7989833802915,"lng":151.2839920697085}}}}],"dentist":[{"place_id":"ChIJSbFQuAirEmsRmOUpY8uEuto","rating":5,"name":"Sydney Road Dental Care","geo":{"location":{"lat":-33.797058,"lng":151.28518},"viewport":{"northeast":{"lat":-33.79569326970851,"lng":151.2864295802915},"southwest":{"lat":-33.79839123029151,"lng":151.2837316197085}}}},{"place_id":"ChIJk881NQmrEmsRDNwJshE0iuo","name":"Geoff Thomas Dental","geo":{"location":{"lat":-33.799867,"lng":151.286011},"viewport":{"northeast":{"lat":-33.7986239697085,"lng":151.2872481802915},"southwest":{"lat":-33.8013219302915,"lng":151.2845502197085}}}},{"place_id":"ChIJHXkVPAmrEmsRjqUMp1UEBD0","rating":4,"name":"Manly Dental Care","geo":{"location":{"lat":-33.79928269999999,"lng":151.2848132},"viewport":{"northeast":{"lat":-33.7979869697085,"lng":151.2861153802915},"southwest":{"lat":-33.8006849302915,"lng":151.2834174197085}}}},{"place_id":"ChIJxY5-SAGrEmsRuPZ7tSQ6KNg","rating":5,"name":"The Friendly Dentist","geo":{"location":{"lat":-33.7900287,"lng":151.2848983},"viewport":{"northeast":{"lat":-33.7886657197085,"lng":151.2863239302915},"southwest":{"lat":-33.7913636802915,"lng":151.2836259697085}}}},{"place_id":"ChIJXxjJPQmrEmsRERzW_mYAkdM","rating":5,"name":"Manly Wharf Dental","geo":{"location":{"lat":-33.7992162,"lng":151.2847514},"viewport":{"northeast":{"lat":-33.7979634697085,"lng":151.2861265802915},"southwest":{"lat":-33.80066143029149,"lng":151.2834286197085}}}},{"place_id":"ChIJqw9xNg-rEmsR4JYjDB5QJHE","rating":4.6,"name":"Manly Dentistry","geo":{"location":{"lat":-33.79773529999999,"lng":151.2865315},"viewport":{"northeast":{"lat":-33.79645566970849,"lng":151.2879414802915},"southwest":{"lat":-33.79915363029149,"lng":151.2852435197085}}}},{"place_id":"ChIJXxjJPQmrEmsR2k1ARf_o1W4","rating":5,"name":"Manly Family & General Dental Practice","geo":{"location":{"lat":-33.7997883,"lng":151.2868458},"viewport":{"northeast":{"lat":-33.7983569197085,"lng":151.2883095802915},"southwest":{"lat":-33.8010548802915,"lng":151.2856116197085}}}},{"place_id":"ChIJRdjYtA6rEmsRQ4-f7XBm_EA","rating":3,"name":"Manly Smiles - General & Emergency 7 Day 24 Hour Dentist","geo":{"location":{"lat":-33.8001747,"lng":151.2863267},"viewport":{"northeast":{"lat":-33.79891486970851,"lng":151.2875426802915},"southwest":{"lat":-33.8016128302915,"lng":151.2848447197085}}}},{"place_id":"ChIJ2w9rxA6rEmsRxE17-dDts8s","rating":5,"name":"Dentaland - Dental Implants - All On 4 Manly","geo":{"location":{"lat":-33.7997821,"lng":151.2868924},"viewport":{"northeast":{"lat":-33.7984114197085,"lng":151.2883806302915},"southwest":{"lat":-33.8011093802915,"lng":151.2856826697085}}}},{"place_id":"ChIJvYkWPAmrEmsR5omG6k3lv90","name":"Manly Active Dental","geo":{"location":{"lat":-33.799286,"lng":151.284858},"viewport":{"northeast":{"lat":-33.7979370197085,"lng":151.2862069802915},"southwest":{"lat":-33.8006349802915,"lng":151.2835090197085}}}},{"place_id":"ChIJvYkWPAmrEmsRpKBbeWGWARs","name":"Peter Heyworth & Associates","geo":{"location":{"lat":-33.797138,"lng":151.28804},"viewport":{"northeast":{"lat":-33.7957890197085,"lng":151.2893889802915},"southwest":{"lat":-33.79848698029149,"lng":151.2866910197085}}}},{"place_id":"ChIJC3zySgmrEmsRg7n-PbpNhZw","name":"Dr Geoffrey Thomas","geo":{"location":{"lat":-33.79985120000001,"lng":151.2860761},"viewport":{"northeast":{"lat":-33.7986204197085,"lng":151.2872866802915},"southwest":{"lat":-33.8013183802915,"lng":151.2845887197085}}}},{"place_id":"ChIJC3zySgmrEmsRON7lE9FSu6I","rating":5,"name":"Exceldent","geo":{"location":{"lat":-33.7998384,"lng":151.2860246},"viewport":{"northeast":{"lat":-33.79860176970849,"lng":151.2872328802915},"southwest":{"lat":-33.80129973029149,"lng":151.2845349197085}}}},{"place_id":"ChIJAQqhxgirEmsRnVzpCMwFAKY","name":"Pilatos Dimitrios","geo":{"location":{"lat":-33.7974854,"lng":151.2851878},"viewport":{"northeast":{"lat":-33.7960203697085,"lng":151.2863998802915},"southwest":{"lat":-33.7987183302915,"lng":151.2837019197085}}}},{"place_id":"ChIJKaD2DwarEmsRRl1kcjeyE3w","rating":5,"name":"Dr Daniel Pechar","geo":{"location":{"lat":-33.7952954,"lng":151.2853694},"viewport":{"northeast":{"lat":-33.7939464197085,"lng":151.2867183802915},"southwest":{"lat":-33.7966443802915,"lng":151.2840204197085}}}},{"place_id":"ChIJyXFfwQ6rEmsRrwp6sPI9Sa0","name":"DR RICHARD JANUSIC DR ELIZABETH GLUHIN","geo":{"location":{"lat":-33.7997883,"lng":151.2868458},"viewport":{"northeast":{"lat":-33.7983569197085,"lng":151.2883095802915},"southwest":{"lat":-33.8010548802915,"lng":151.2856116197085}}}},{"place_id":"ChIJv1-1BgarEmsRqet0Ui84I80","rating":5,"name":"Dr Abraham Elbouch","geo":{"location":{"lat":-33.79572400000001,"lng":151.2857568},"viewport":{"northeast":{"lat":-33.7943953197085,"lng":151.2868479302915},"southwest":{"lat":-33.7970932802915,"lng":151.2841499697085}}}},{"place_id":"ChIJxY5-SAGrEmsRjh9jmyxvMj8","rating":5,"name":"Dr Anthony Cassimaty","geo":{"location":{"lat":-33.790046,"lng":151.2847355},"viewport":{"northeast":{"lat":-33.7886743697085,"lng":151.2862425302915},"southwest":{"lat":-33.79137233029149,"lng":151.2835445697085}}}},{"place_id":"ChIJHxJPuAirEmsRw6oVGobt7Sg","name":"Dr Ben Chuang","geo":{"location":{"lat":-33.7970569,"lng":151.2851796},"viewport":{"northeast":{"lat":-33.79569326970851,"lng":151.2864294802915},"southwest":{"lat":-33.79839123029151,"lng":151.2837315197085}}}},{"place_id":"ChIJJxNPuAirEmsRL7GgB2im3jU","name":"Dr Fay Callaghan","geo":{"location":{"lat":-33.797058,"lng":151.28518},"viewport":{"northeast":{"lat":-33.79569326970851,"lng":151.2864295802915},"southwest":{"lat":-33.79839123029151,"lng":151.2837316197085}}}},{"place_id":"ChIJC3zySgmrEmsRXshiLM9Gpl4","name":"Dr Brown, Denis","geo":{"location":{"lat":-33.7998281,"lng":151.285985},"viewport":{"northeast":{"lat":-33.7986045197085,"lng":151.2872351802915},"southwest":{"lat":-33.8013024802915,"lng":151.2845372197085}}}},{"place_id":"ChIJJxNPuAirEmsR6FPC_UckmZw","name":"Dr Jamie Jones","geo":{"location":{"lat":-33.7970569,"lng":151.2851796},"viewport":{"northeast":{"lat":-33.79569326970851,"lng":151.2864294802915},"southwest":{"lat":-33.79839123029151,"lng":151.2837315197085}}}},{"place_id":"ChIJ59bftQ6rEmsR5hJmvbho3-A","name":"Dr Steven Shi BDSc Hons (Melb)","geo":{"location":{"lat":-33.8001305,"lng":151.2863856},"viewport":{"northeast":{"lat":-33.79878151970851,"lng":151.2877345802915},"southwest":{"lat":-33.8014794802915,"lng":151.2850366197085}}}},{"place_id":"ChIJk881NQmrEmsRmfzAelmfYk0","rating":5,"name":"Manly Orthodontics","geo":{"location":{"lat":-33.7998384,"lng":151.2860246},"viewport":{"northeast":{"lat":-33.7986096697085,"lng":151.2872549802915},"southwest":{"lat":-33.8013076302915,"lng":151.2845570197085}}}},{"place_id":"ChIJC3zySgmrEmsRWE5BvrsLUmc","rating":5,"name":"Manly Orthodontics","geo":{"location":{"lat":-33.799867,"lng":151.286011},"viewport":{"northeast":{"lat":-33.7986239697085,"lng":151.2872481802915},"southwest":{"lat":-33.8013219302915,"lng":151.2845502197085}}}}],"hospitals":[{"place_id":"ChIJazVpqxOrEmsRhFrnttejQP8","rating":3.8,"name":"Manly Hospital","geo":{"location":{"lat":-33.805435,"lng":151.2948677},"viewport":{"northeast":{"lat":-33.8042088697085,"lng":151.29641475},"southwest":{"lat":-33.8069068302915,"lng":151.29275975}}}},{"place_id":"ChIJS0sQqhOrEmsR9AzjQ9fgF7A","rating":5,"name":"Maternity Unit, Manly Hospital","geo":{"location":{"lat":-33.8060477,"lng":151.295085},"viewport":{"northeast":{"lat":-33.8046987197085,"lng":151.2964339802915},"southwest":{"lat":-33.8073966802915,"lng":151.2937360197085}}}},{"place_id":"ChIJ32oCDBKrEmsRHsRS2LlSrVc","rating":4.7,"name":"Bear Cottage","geo":{"location":{"lat":-33.8036669,"lng":151.2920425},"viewport":{"northeast":{"lat":-33.8024155697085,"lng":151.2932537802915},"southwest":{"lat":-33.8051135302915,"lng":151.2905558197085}}}}],"library":[{"place_id":"ChIJ9xolywirEmsRfX3Ip2j0Pkc","rating":4.5,"name":"Manly Library","geo":{"location":{"lat":-33.79752800000001,"lng":151.2860829},"viewport":{"northeast":{"lat":-33.7962766697085,"lng":151.2874531302915},"southwest":{"lat":-33.7989746302915,"lng":151.2847551697085}}}}],"university":[],"bars":[{"place_id":"ChIJjTRMzQirEmsRM8KFSAmVvAY","rating":3.8,"name":"The Ivanhoe Hotel Manly","geo":{"location":{"lat":-33.7979838,"lng":151.2860124},"viewport":{"northeast":{"lat":-33.7967259197085,"lng":151.2874414802915},"southwest":{"lat":-33.7994238802915,"lng":151.2847435197085}}}},{"place_id":"ChIJ5_rQOQmrEmsRSAe4RJKUwh0","rating":4.5,"name":"4 Pines Brewing Company","geo":{"location":{"lat":-33.7994919,"lng":151.2854185},"viewport":{"northeast":{"lat":-33.7982426697085,"lng":151.2866567802915},"southwest":{"lat":-33.8009406302915,"lng":151.2839588197085}}}}],"alcohol":[{"place_id":"ChIJI9Bw1QirEmsRhpZU9wflW8g","rating":3.6,"name":"LiquorLand Manly Express","geo":{"location":{"lat":-33.7985953,"lng":151.2858057},"viewport":{"northeast":{"lat":-33.7971770197085,"lng":151.2870952802915},"southwest":{"lat":-33.79987498029149,"lng":151.2843973197085}}}},{"place_id":"ChIJC_X5Sg-rEmsRpofDfkLWouw","rating":4,"name":"LiquorLand Manly Sydney Rd Express","geo":{"location":{"lat":-33.7971687,"lng":151.2862767},"viewport":{"northeast":{"lat":-33.7956623197085,"lng":151.2869907802915},"southwest":{"lat":-33.7983602802915,"lng":151.2842928197085}}}},{"place_id":"ChIJqVmaQQmrEmsRZbcF2PKa9bk","rating":4.1,"name":"ALDI","geo":{"location":{"lat":-33.7997816,"lng":151.2845297},"viewport":{"northeast":{"lat":-33.7982207197085,"lng":151.2859650802915},"southwest":{"lat":-33.8009186802915,"lng":151.2832671197085}}}},{"place_id":"ChIJpU9SUKarEmsRky0cKY2jgzA","rating":3.5,"name":"Fairlight Cellars","geo":{"location":{"lat":-33.7957772,"lng":151.2767563},"viewport":{"northeast":{"lat":-33.7945100697085,"lng":151.2780970802915},"southwest":{"lat":-33.7972080302915,"lng":151.2753991197085}}}},{"place_id":"ChIJjTRMzQirEmsRM8KFSAmVvAY","rating":3.8,"name":"The Ivanhoe Hotel Manly","geo":{"location":{"lat":-33.7979838,"lng":151.2860124},"viewport":{"northeast":{"lat":-33.7967259197085,"lng":151.2874414802915},"southwest":{"lat":-33.7994238802915,"lng":151.2847435197085}}}},{"place_id":"ChIJ5_rQOQmrEmsRSAe4RJKUwh0","rating":4.5,"name":"4 Pines Brewing Company","geo":{"location":{"lat":-33.7994919,"lng":151.2854185},"viewport":{"northeast":{"lat":-33.7982426697085,"lng":151.2866567802915},"southwest":{"lat":-33.8009406302915,"lng":151.2839588197085}}}},{"place_id":"ChIJ5VOMTA-rEmsRBHEMZ04pASc","name":"Angus The Bull","geo":{"location":{"lat":-33.7970478,"lng":151.2861799},"viewport":{"northeast":{"lat":-33.7956018697085,"lng":151.2869423802915},"southwest":{"lat":-33.7982998302915,"lng":151.2842444197085}}}}],"train_station":[],"restaurants":[{"place_id":"ChIJ2VDeyRGrEmsRHgCVql5Ew2U","rating":3.6,"name":"The Bower Restaurant","geo":{"location":{"lat":-33.8008493,"lng":151.2934549},"viewport":{"northeast":{"lat":-33.7994770697085,"lng":151.2948189802915},"southwest":{"lat":-33.8021750302915,"lng":151.2921210197085}}}},{"place_id":"ChIJC3zySgmrEmsR_WTB3-zV7Ic","rating":4.1,"name":"Garfish Manly","geo":{"location":{"lat":-33.79988520000001,"lng":151.2858021},"viewport":{"northeast":{"lat":-33.79859396970851,"lng":151.2870900302915},"southwest":{"lat":-33.8012919302915,"lng":151.2843920697085}}}},{"place_id":"ChIJ2YSorg-rEmsR_FvgHNQsl3E","rating":4.2,"name":"Terracotta Ouzeria","geo":{"location":{"lat":-33.7992438,"lng":151.2892878},"viewport":{"northeast":{"lat":-33.7978471697085,"lng":151.2907013802915},"southwest":{"lat":-33.8005451302915,"lng":151.2880034197085}}}},{"place_id":"ChIJD99ePg-rEmsR66R7Dqdf93I","rating":3.6,"name":"Hungry Jack's","geo":{"location":{"lat":-33.797949,"lng":151.287318},"viewport":{"northeast":{"lat":-33.7964452697085,"lng":151.2885263802915},"southwest":{"lat":-33.7991432302915,"lng":151.2858284197085}}}},{"place_id":"ChIJARkLhwurEmsRMGcKjADphjc","rating":3.8,"name":"The Bavarian Manly Wharf","geo":{"location":{"lat":-33.799477,"lng":151.284037},"viewport":{"northeast":{"lat":-33.79798186970849,"lng":151.2855763302915},"southwest":{"lat":-33.80067983029149,"lng":151.2828783697085}}}},{"place_id":"ChIJFYDDGA-rEmsRL_TQC1iD3aw","rating":4.2,"name":"Fishmongers Manly","geo":{"location":{"lat":-33.798423,"lng":151.287468},"viewport":{"northeast":{"lat":-33.7970740197085,"lng":151.2888169802915},"southwest":{"lat":-33.7997719802915,"lng":151.2861190197085}}}},{"place_id":"ChIJ8av98gOrEmsRVU9sgv3E15g","rating":4.1,"name":"Moo Gourmet Burgers Manly","geo":{"location":{"lat":-33.797812,"lng":151.288108},"viewport":{"northeast":{"lat":-33.7963984197085,"lng":151.2896070802915},"southwest":{"lat":-33.7990963802915,"lng":151.2869091197085}}}},{"place_id":"ChIJa3Sq6wWrEmsRFMR-Cz6NJ3g","rating":3.6,"name":"Daniel San","geo":{"location":{"lat":-33.7955729,"lng":151.287273},"viewport":{"northeast":{"lat":-33.79409301970851,"lng":151.2886932802915},"southwest":{"lat":-33.7967909802915,"lng":151.2859953197085}}}},{"place_id":"ChIJE0eeggurEmsRcQ9bweykacY","rating":4.2,"name":"Hugos Manly","geo":{"location":{"lat":-33.79984719999999,"lng":151.2837793},"viewport":{"northeast":{"lat":-33.7981790697085,"lng":151.2854641302915},"southwest":{"lat":-33.8008770302915,"lng":151.2827661697085}}}},{"place_id":"ChIJT22-Yg-rEmsRQEtMZ59Mw64","rating":4.3,"name":"The Pantry Manly","geo":{"location":{"lat":-33.796696,"lng":151.288143},"viewport":{"northeast":{"lat":-33.7953778197085,"lng":151.2893756302915},"southwest":{"lat":-33.7980757802915,"lng":151.2866776697085}}}},{"place_id":"ChIJLdVotwirEmsRj810y6yCr4k","rating":3.5,"name":"Izumi Japanese Restaurant","geo":{"location":{"lat":-33.7970086,"lng":151.2853609},"viewport":{"northeast":{"lat":-33.7956114697085,"lng":151.2867217302915},"southwest":{"lat":-33.7983094302915,"lng":151.2840237697085}}}},{"place_id":"ChIJ67yuSA-rEmsRswlmfmyWKMc","rating":4.3,"name":"Benbry Burgers","geo":{"location":{"lat":-33.7972007,"lng":151.2867147},"viewport":{"northeast":{"lat":-33.7956783197085,"lng":151.2875686},"southwest":{"lat":-33.79837628029149,"lng":151.284153}}}},{"place_id":"ChIJLTiKcQ-rEmsRfVAmltj7cOs","rating":3.4,"name":"Whitewater Restaurant","geo":{"location":{"lat":-33.797724,"lng":151.288061},"viewport":{"northeast":{"lat":-33.7963119697085,"lng":151.2895572302915},"southwest":{"lat":-33.7990099302915,"lng":151.2868592697085}}}},{"place_id":"ChIJQ7qXiwWrEmsRuF0oMshVAgA","rating":4.1,"name":"Hemingway's Manly","geo":{"location":{"lat":-33.7963658,"lng":151.2876037},"viewport":{"northeast":{"lat":-33.7949981697085,"lng":151.2890248802915},"southwest":{"lat":-33.79769613029149,"lng":151.2863269197085}}}},{"place_id":"ChIJUdrOww6rEmsRn5UYhMMFKw8","rating":3.9,"name":"Beaches Pizza Bar","geo":{"location":{"lat":-33.799809,"lng":151.287048},"viewport":{"northeast":{"lat":-33.79845236970851,"lng":151.2884770302915},"southwest":{"lat":-33.80115033029151,"lng":151.2857790697085}}}},{"place_id":"ChIJ5_rQOQmrEmsRSAe4RJKUwh0","rating":4.5,"name":"4 Pines Brewing Company","geo":{"location":{"lat":-33.7994919,"lng":151.2854185},"viewport":{"northeast":{"lat":-33.7982426697085,"lng":151.2866567802915},"southwest":{"lat":-33.8009406302915,"lng":151.2839588197085}}}},{"place_id":"ChIJe06Frg-rEmsRe_SHvnV6FwY","rating":3.9,"name":"Manly Wine","geo":{"location":{"lat":-33.7992557,"lng":151.2892858},"viewport":{"northeast":{"lat":-33.7978389697085,"lng":151.2905734802915},"southwest":{"lat":-33.8005369302915,"lng":151.2878755197085}}}},{"place_id":"ChIJC3JAMwmrEmsRLaUilYpNY5E","rating":3.9,"name":"Fusion Point","geo":{"location":{"lat":-33.7985163,"lng":151.2878028},"viewport":{"northeast":{"lat":-33.7971874697085,"lng":151.2891675302915},"southwest":{"lat":-33.7998854302915,"lng":151.2864695697085}}}},{"place_id":"ChIJhR2GnQurEmsR429xXp0u2u8","rating":4.5,"name":"Manly 16ft Skiff Sailing Club","geo":{"location":{"lat":-33.803542,"lng":151.285074},"viewport":{"northeast":{"lat":-33.8022377197085,"lng":151.2864980802915},"southwest":{"lat":-33.8049356802915,"lng":151.2838001197085}}}},{"place_id":"ChIJN73E9AWrEmsRsvSKgzDCh8M","rating":4,"name":"Pizza Capanna","geo":{"location":{"lat":-33.7960739,"lng":151.2873876},"viewport":{"northeast":{"lat":-33.7946953197085,"lng":151.2888577802915},"southwest":{"lat":-33.7973932802915,"lng":151.2861598197085}}}},{"place_id":"ChIJByMEEAmrEmsR2afV4UfJb24","rating":3.1,"name":"Criniti's Manly","geo":{"location":{"lat":-33.7989709,"lng":151.2843251},"viewport":{"northeast":{"lat":-33.7976867697085,"lng":151.2856324302915},"southwest":{"lat":-33.8003847302915,"lng":151.2829344697085}}}},{"place_id":"ChIJ_1rKDAyrEmsRA2rzr8Jks5k","rating":3.6,"name":"Chat Thai","geo":{"location":{"lat":-33.799923,"lng":151.2840343},"viewport":{"northeast":{"lat":-33.7985740197085,"lng":151.2853832802915},"southwest":{"lat":-33.8012719802915,"lng":151.2826853197085}}}},{"place_id":"ChIJi3M1Cw-rEmsR5dttOWXEC2o","rating":3.9,"name":"Manly Fish Cafe","geo":{"location":{"lat":-33.79814200000001,"lng":151.288399},"viewport":{"northeast":{"lat":-33.79674816970851,"lng":151.2898637802915},"southwest":{"lat":-33.79944613029151,"lng":151.2871658197085}}}},{"place_id":"ChIJmWtC1QirEmsRVXlBwIyeDgk","rating":3.3,"name":"Mortar & Pestle Thai","geo":{"location":{"lat":-33.798793,"lng":151.286183},"viewport":{"northeast":{"lat":-33.7973902697085,"lng":151.2875889802915},"southwest":{"lat":-33.8000882302915,"lng":151.2848910197085}}}},{"place_id":"ChIJly-SYA-rEmsR2306789bl2o","rating":3.6,"name":"Sugar Lounge","geo":{"location":{"lat":-33.7966949,"lng":151.2877568},"viewport":{"northeast":{"lat":-33.7953301697085,"lng":151.2891652802915},"southwest":{"lat":-33.7980281302915,"lng":151.2864673197085}}}},{"place_id":"ChIJ3TkSbQ-rEmsRKZ9m77k15AA","rating":3.6,"name":"Mex and Co","geo":{"location":{"lat":-33.7977315,"lng":151.2882798},"viewport":{"northeast":{"lat":-33.79638251970849,"lng":151.2896287802915},"southwest":{"lat":-33.79908048029149,"lng":151.2869308197085}}}},{"place_id":"ChIJP9rNPQmrEmsRX0ZgU__fa8Y","rating":3.9,"name":"Manly Italian Restaurant","geo":{"location":{"lat":-33.7991716,"lng":151.2847819},"viewport":{"northeast":{"lat":-33.79761541970849,"lng":151.2863354302915},"southwest":{"lat":-33.80031338029149,"lng":151.2836374697085}}}},{"place_id":"ChIJa3Sq6wWrEmsRv0Z7pwJjtG8","rating":3.2,"name":"Zalis","geo":{"location":{"lat":-33.7952638,"lng":151.2870148},"viewport":{"northeast":{"lat":-33.79394921970851,"lng":151.2885651302915},"southwest":{"lat":-33.79664718029151,"lng":151.2858671697085}}}},{"place_id":"ChIJOSYFcw-rEmsRQMN0M8wbspI","rating":3.8,"name":"Bluewater Cafe","geo":{"location":{"lat":-33.797861,"lng":151.2884016},"viewport":{"northeast":{"lat":-33.7965313697085,"lng":151.2898125302915},"southwest":{"lat":-33.7992293302915,"lng":151.2871145697085}}}},{"place_id":"ChIJZ0Hb6gWrEmsRKlKtTdEmT0A","name":"Wi Marn Thai Restaurant","geo":{"location":{"lat":-33.7964045,"lng":151.2875567},"viewport":{"northeast":{"lat":-33.7950303197085,"lng":151.2890062302915},"southwest":{"lat":-33.79772828029149,"lng":151.2863082697085}}}},{"place_id":"ChIJGcFaEA-rEmsRn6ZYtUGtMpY","rating":4.2,"name":"Yok Thai Restaurant","geo":{"location":{"lat":-33.7986457,"lng":151.2874542},"viewport":{"northeast":{"lat":-33.7972967197085,"lng":151.2888031802915},"southwest":{"lat":-33.7999946802915,"lng":151.2861052197085}}}},{"place_id":"ChIJiZOK7JuqEmsRtStuBHf3dk0","rating":3.7,"name":"Wockbar Manly, Asian Street Food","geo":{"location":{"lat":-33.79630999999999,"lng":151.2852927},"viewport":{"northeast":{"lat":-33.7949730697085,"lng":151.2865667302915},"southwest":{"lat":-33.7976710302915,"lng":151.2838687697085}}}},{"place_id":"ChIJCecqXQ-rEmsREFFrtqrjbBs","rating":4,"name":"Ashiana Indian Restaurant","geo":{"location":{"lat":-33.797079,"lng":151.287321},"viewport":{"northeast":{"lat":-33.7957215197085,"lng":151.2887230802915},"southwest":{"lat":-33.79841948029149,"lng":151.2860251197085}}}},{"place_id":"ChIJSdIQWQ-rEmsRLq935df8Ah8","rating":4.3,"name":"Jah Bar","geo":{"location":{"lat":-33.796736,"lng":151.286617},"viewport":{"northeast":{"lat":-33.7953821197085,"lng":151.2879314802915},"southwest":{"lat":-33.7980800802915,"lng":151.2852335197085}}}},{"place_id":"ChIJ3TkSbQ-rEmsR7VZfNam2128","name":"Classic China Chinese Restaurant","geo":{"location":{"lat":-33.797812,"lng":151.288108},"viewport":{"northeast":{"lat":-33.7963984197085,"lng":151.2896070802915},"southwest":{"lat":-33.7990963802915,"lng":151.2869091197085}}}},{"place_id":"ChIJlTVbtAirEmsR9szY1zC6BRw","rating":4,"name":"Domino's Pizza Manly","geo":{"location":{"lat":-33.79713,"lng":151.285801},"viewport":{"northeast":{"lat":-33.7956429697085,"lng":151.2867529302915},"southwest":{"lat":-33.79834093029149,"lng":151.2840549697085}}}},{"place_id":"ChIJxX4tbg-rEmsRNEPLbzexmy4","rating":3,"name":"Manly Salt House","geo":{"location":{"lat":-33.79746999999999,"lng":151.288176},"viewport":{"northeast":{"lat":-33.7961043697085,"lng":151.2895651802915},"southwest":{"lat":-33.7988023302915,"lng":151.2868672197085}}}},{"place_id":"ChIJzw_HXA-rEmsRRGQrR7DH-NY","rating":4.2,"name":"Manly Pizza & Wine","geo":{"location":{"lat":-33.7970072,"lng":151.2872282},"viewport":{"northeast":{"lat":-33.79564196970851,"lng":151.2886676802915},"southwest":{"lat":-33.7983399302915,"lng":151.2859697197085}}}},{"place_id":"ChIJh_zWFAmrEmsRJWCrbqkvQxU","rating":3.1,"name":"McDonald's Manly Wharf","geo":{"location":{"lat":-33.79964219999999,"lng":151.2844054},"viewport":{"northeast":{"lat":-33.7981603697085,"lng":151.2859180302915},"southwest":{"lat":-33.80085833029149,"lng":151.2832200697085}}}},{"place_id":"ChIJzw_HXA-rEmsRX5fpvUcQrjQ","rating":4.5,"name":"Manly Thai Gourmet","geo":{"location":{"lat":-33.7968961,"lng":151.2872378},"viewport":{"northeast":{"lat":-33.7956042197085,"lng":151.2886682802915},"southwest":{"lat":-33.7983021802915,"lng":151.2859703197085}}}},{"place_id":"ChIJudeRqAirEmsRTDyEWUqsu5M","rating":4.3,"name":"Jerry's Pizza Pasta Restaurant","geo":{"location":{"lat":-33.79608270000001,"lng":151.2853461},"viewport":{"northeast":{"lat":-33.7947132197085,"lng":151.2866191302915},"southwest":{"lat":-33.7974111802915,"lng":151.2839211697085}}}},{"place_id":"ChIJ0Up_1Q6rEmsRrheIo47GjVI","rating":4.4,"name":"DeVita","geo":{"location":{"lat":-33.798881,"lng":151.28638},"viewport":{"northeast":{"lat":-33.79751891970849,"lng":151.2877512302915},"southwest":{"lat":-33.80021688029149,"lng":151.2850532697085}}}},{"place_id":"ChIJD99ePg-rEmsRXnvF_NaTRKc","rating":3.8,"name":"MOMO sushi train","geo":{"location":{"lat":-33.797949,"lng":151.287318},"viewport":{"northeast":{"lat":-33.7964452697085,"lng":151.2885263802915},"southwest":{"lat":-33.7991432302915,"lng":151.2858284197085}}}},{"place_id":"ChIJidmjaw-rEmsRRB8QKgV-hCs","rating":1.3,"name":"Watervue Restaurant","geo":{"location":{"lat":-33.7972286,"lng":151.2874826},"viewport":{"northeast":{"lat":-33.79598676970851,"lng":151.2888552802915},"southwest":{"lat":-33.79868473029151,"lng":151.2861573197085}}}},{"place_id":"ChIJ3QMiKw-rEmsRxoEkCHeQCG4","rating":4.1,"name":"Nando's Manly","geo":{"location":{"lat":-33.7995872,"lng":151.284156},"viewport":{"northeast":{"lat":-33.7980636197085,"lng":151.2856729302915},"southwest":{"lat":-33.8007615802915,"lng":151.2829749697085}}}},{"place_id":"ChIJmdlAlQ6rEmsRISMNUmrJjzY","rating":4.3,"name":"Patploy Thai","geo":{"location":{"lat":-33.8004331,"lng":151.2875503},"viewport":{"northeast":{"lat":-33.7990523197085,"lng":151.2889700802915},"southwest":{"lat":-33.8017502802915,"lng":151.2862721197085}}}},{"place_id":"ChIJFYq6qAmrEmsRCblWgMRkgt0","rating":4.1,"name":"Manly Pavilion","geo":{"location":{"lat":-33.799399,"lng":151.280953},"viewport":{"northeast":{"lat":-33.7974311197085,"lng":151.2823295802915},"southwest":{"lat":-33.8001290802915,"lng":151.2796316197085}}}},{"place_id":"ChIJixX3cQ-rEmsRiVtec7Tfyn4","rating":3.2,"name":"Fish Shack","geo":{"location":{"lat":-33.7976305,"lng":151.2882695},"viewport":{"northeast":{"lat":-33.7962635697085,"lng":151.2896604302915},"southwest":{"lat":-33.7989615302915,"lng":151.2869624697085}}}},{"place_id":"ChIJYViUZQ-rEmsRRh5LJJeYbtk","rating":4.4,"name":"Oceanfoods (Manly)","geo":{"location":{"lat":-33.7973745,"lng":151.2879892},"viewport":{"northeast":{"lat":-33.7959196197085,"lng":151.2892494802915},"southwest":{"lat":-33.7986175802915,"lng":151.2865515197085}}}},{"place_id":"ChIJicEWawmrEmsRfMc8yo_XDN4","rating":4,"name":"Guzman Y Gomez Mexican Taqueria Manly","geo":{"location":{"lat":-33.799624,"lng":151.284328},"viewport":{"northeast":{"lat":-33.7981543197085,"lng":151.2858841802915},"southwest":{"lat":-33.8008522802915,"lng":151.2831862197085}}}},{"place_id":"ChIJD99ePg-rEmsRNEUKL6taaWY","name":"Palace of North India","geo":{"location":{"lat":-33.797949,"lng":151.287318},"viewport":{"northeast":{"lat":-33.7964452697085,"lng":151.2885263802915},"southwest":{"lat":-33.7991432302915,"lng":151.2858284197085}}}},{"place_id":"ChIJ0SobZw-rEmsRDJLsCed-GUg","rating":4.1,"name":"The Rope & Anchor Cafe","geo":{"location":{"lat":-33.7967599,"lng":151.2877128},"viewport":{"northeast":{"lat":-33.7955658697085,"lng":151.2891915802915},"southwest":{"lat":-33.7982638302915,"lng":151.2864936197085}}}},{"place_id":"ChIJt1w6RQ-rEmsRtYZ4HF_Vnag","rating":4,"name":"In Situ","geo":{"location":{"lat":-33.7970474,"lng":151.2868817},"viewport":{"northeast":{"lat":-33.7957570197085,"lng":151.2882151302915},"southwest":{"lat":-33.7984549802915,"lng":151.2855171697085}}}},{"place_id":"ChIJqx0BDQ-rEmsRh5LmorOTl9g","rating":3.4,"name":"Fiasco Modern Italian","geo":{"location":{"lat":-33.798095,"lng":151.2883825},"viewport":{"northeast":{"lat":-33.7967027197085,"lng":151.2898432302915},"southwest":{"lat":-33.7994006802915,"lng":151.2871452697085}}}},{"place_id":"ChIJBQBccg-rEmsRF5IjqO9b4fo","rating":3.9,"name":"Manly Grill","geo":{"location":{"lat":-33.7978095,"lng":151.288374},"viewport":{"northeast":{"lat":-33.7964408697085,"lng":151.2897675802915},"southwest":{"lat":-33.7991388302915,"lng":151.2870696197085}}}},{"place_id":"ChIJzdlHGA-rEmsRBv4C4w-mZCU","rating":4.6,"name":"The Lumberjack Trading Co.","geo":{"location":{"lat":-33.7985298,"lng":151.2876243},"viewport":{"northeast":{"lat":-33.7972315197085,"lng":151.2890176302915},"southwest":{"lat":-33.7999294802915,"lng":151.2863196697085}}}},{"place_id":"ChIJT2SyaQ-rEmsRsvUOnzm79aA","rating":3.6,"name":"New Brighton Hotel","geo":{"location":{"lat":-33.79732499999999,"lng":151.287225},"viewport":{"northeast":{"lat":-33.7960385697085,"lng":151.2886307802915},"southwest":{"lat":-33.79873653029149,"lng":151.2859328197085}}}},{"place_id":"ChIJZ72VRg-rEmsRXQQ9qgCcDFU","rating":4.6,"name":"SALADBOWL EATERY","geo":{"location":{"lat":-33.79727959999999,"lng":151.2869825},"viewport":{"northeast":{"lat":-33.79606866970849,"lng":151.2884253802915},"southwest":{"lat":-33.79876663029149,"lng":151.2857274197085}}}},{"place_id":"ChIJAzqSYA-rEmsREpDQHKl2wlE","rating":4.2,"name":"BRAZA Manly","geo":{"location":{"lat":-33.7967131,"lng":151.2875609},"viewport":{"northeast":{"lat":-33.79532396970849,"lng":151.2890614302915},"southwest":{"lat":-33.79802193029149,"lng":151.2863634697085}}}},{"place_id":"ChIJCwmkFg-rEmsR5Uhwxr2q16w","rating":4.5,"name":"Momo Bar. Dumplings & Poké Bowls","geo":{"location":{"lat":-33.797573,"lng":151.286404},"viewport":{"northeast":{"lat":-33.7962384697085,"lng":151.2877656302915},"southwest":{"lat":-33.7989364302915,"lng":151.2850676697085}}}}]},"2000":{"train_station":[{"place_id":"ChIJOWBULGiuEmsRoSJ5WA2U2hY","rating":4.4,"name":"Circular Quay","geo":{"location":{"lat":-33.86130560000001,"lng":151.2108216},"viewport":{"northeast":{"lat":-33.86008511970851,"lng":151.2122572302915},"southwest":{"lat":-33.86278308029151,"lng":151.2095592697085}}}},{"place_id":"ChIJRddlKTyuEmsRjNjH0KjZHwY","rating":3.7,"name":"Town Hall","geo":{"location":{"lat":-33.87356559999999,"lng":151.2070838},"viewport":{"northeast":{"lat":-33.8723270197085,"lng":151.2083481802915},"southwest":{"lat":-33.8750249802915,"lng":151.2056502197085}}}},{"place_id":"ChIJo2ODlmquEmsRnMfTFeHQcvs","rating":4.2,"name":"Martin Place Station","geo":{"location":{"lat":-33.867969,"lng":151.211503},"viewport":{"northeast":{"lat":-33.8664984697085,"lng":151.21222475},"southwest":{"lat":-33.8691964302915,"lng":151.20941455}}}},{"place_id":"ChIJEX9pKTyuEmsRymiRKpjAeh0","rating":3,"name":"Town Hall Train Station","geo":{"location":{"lat":-33.8732664,"lng":151.2062183},"viewport":{"northeast":{"lat":-33.8717880197085,"lng":151.2078786302915},"southwest":{"lat":-33.8744859802915,"lng":151.2051806697085}}}},{"place_id":"ChIJ6_n85kCuEmsR0eBW__dFWAQ","rating":3.9,"name":"Wynyard Station","geo":{"location":{"lat":-33.8657423,"lng":151.2061878},"viewport":{"northeast":{"lat":-33.8641216197085,"lng":151.20959245},"southwest":{"lat":-33.8668195802915,"lng":151.20226065}}}},{"place_id":"ChIJ7fCTiz2uEmsRdIF8_ONh0yM","rating":4.1,"name":"Museum Station","geo":{"location":{"lat":-33.8766329,"lng":151.2098155},"viewport":{"northeast":{"lat":-33.8754363697085,"lng":151.2111254802915},"southwest":{"lat":-33.8781343302915,"lng":151.2084275197085}}}},{"place_id":"ChIJcexqOBWuEmsRK1a72WYib80","rating":3.9,"name":"St James Station","geo":{"location":{"lat":-33.87073569999999,"lng":151.2105613},"viewport":{"northeast":{"lat":-33.86893316970849,"lng":151.2123110302915},"southwest":{"lat":-33.87163113029149,"lng":151.2096130697085}}}}],"parks":[{"place_id":"ChIJDflB7BWuEmsRYPbx-Wh9AQ8","rating":4.5,"name":"Hyde Park","geo":{"location":{"lat":-33.8731383,"lng":151.2112757},"viewport":{"northeast":{"lat":-33.86633475,"lng":151.21383735},"southwest":{"lat":-33.88032175,"lng":151.20861235}}}},{"place_id":"ChIJDRF76ECuEmsREAnz-Wh9AQ8","rating":3.7,"name":"Wynyard Park","geo":{"location":{"lat":-33.8663648,"lng":151.2060209},"viewport":{"northeast":{"lat":-33.86414814999999,"lng":151.2073741802915},"southwest":{"lat":-33.86789195000001,"lng":151.2046762197085}}}},{"place_id":"ChIJaZrLHzuuEmsRYPzx-Wh9AQ8","rating":4.3,"name":"Tumbalong Park","geo":{"location":{"lat":-33.8756305,"lng":151.2018474},"viewport":{"northeast":{"lat":-33.8742815197085,"lng":151.2031963802915},"southwest":{"lat":-33.8769794802915,"lng":151.2004984197085}}}},{"place_id":"ChIJGc4QODauEmsRPyDYYycA4Yg","rating":4.3,"name":"Pyrmont Bay Park","geo":{"location":{"lat":-33.86812,"lng":151.1969113},"viewport":{"northeast":{"lat":-33.86677101970849,"lng":151.1982602802915},"southwest":{"lat":-33.86946898029149,"lng":151.1955623197085}}}},{"place_id":"ChIJmdH3lkKuEmsRkAfz-Wh9AQ8","rating":4.2,"name":"First Fleet Park","geo":{"location":{"lat":-33.860781,"lng":151.2090992},"viewport":{"northeast":{"lat":-33.8595652697085,"lng":151.2105115302915},"southwest":{"lat":-33.8622632302915,"lng":151.2078135697085}}}},{"place_id":"ChIJTxfjQUGuEmsRgCDx-Wh9AQ8","rating":4,"name":"Lang Park","geo":{"location":{"lat":-33.8636582,"lng":151.2057819},"viewport":{"northeast":{"lat":-33.8624113697085,"lng":151.2071237302915},"southwest":{"lat":-33.8651093302915,"lng":151.2044257697085}}}},{"place_id":"ChIJCz9SQkiuEmsRsPTy-Wh9AQ8","rating":4.3,"name":"Ballaarat Park","geo":{"location":{"lat":-33.8639378,"lng":151.1970414},"viewport":{"northeast":{"lat":-33.8625073697085,"lng":151.1982796302915},"southwest":{"lat":-33.8652053302915,"lng":151.1955816697085}}}}],"library":[{"place_id":"ChIJ-zNYUWquEmsRMaHK_PnWcxE","rating":4.4,"name":"State Library of New South Wales","geo":{"location":{"lat":-33.86686749999999,"lng":151.2128511},"viewport":{"northeast":{"lat":-33.8653814697085,"lng":151.2139856302915},"southwest":{"lat":-33.86807943029149,"lng":151.2112876697085}}}},{"place_id":"ChIJ6VOq0GquEmsR7MS8_BLv5jg","rating":4.2,"name":"Caroline Simpson Library & Research Collection","geo":{"location":{"lat":-33.8689869,"lng":151.2127485},"viewport":{"northeast":{"lat":-33.8676052697085,"lng":151.2137757802915},"southwest":{"lat":-33.8703032302915,"lng":151.2110778197085}}}},{"place_id":"ChIJ90XGMGauEmsRx3_piT0QSws","name":"Conservatorium Library - The University of Sydney Library","geo":{"location":{"lat":-33.8634417,"lng":151.213636},"viewport":{"northeast":{"lat":-33.8619360197085,"lng":151.2153491802915},"southwest":{"lat":-33.8646339802915,"lng":151.2126512197085}}}},{"place_id":"ChIJCZ5rATyuEmsRODtVekV-KYc","rating":4.4,"name":"Customs House Library","geo":{"location":{"lat":-33.8622091,"lng":151.2108596},"viewport":{"northeast":{"lat":-33.8605724697085,"lng":151.2124426302915},"southwest":{"lat":-33.8632704302915,"lng":151.2097446697085}}}},{"place_id":"ChIJncbhbSOuEmsRMUXksbF59j0","rating":3.6,"name":"Library Express","geo":{"location":{"lat":-33.8730127,"lng":151.2054393},"viewport":{"northeast":{"lat":-33.8716682197085,"lng":151.2066219802915},"southwest":{"lat":-33.8743661802915,"lng":151.2039240197085}}}},{"place_id":"ChIJEbnHkD2uEmsRbSxs4yfjeWo","name":"Navitas Library","geo":{"location":{"lat":-33.87571239999999,"lng":151.2092035},"viewport":{"northeast":{"lat":-33.87438066970849,"lng":151.2107505802915},"southwest":{"lat":-33.87707863029149,"lng":151.2080526197085}}}},{"place_id":"ChIJA_UUhzuuEmsRuI_GPMHs1lg","name":"Gabriela Mistral Library","geo":{"location":{"lat":-33.8746056,"lng":151.204061},"viewport":{"northeast":{"lat":-33.8732449197085,"lng":151.2055411802915},"southwest":{"lat":-33.8759428802915,"lng":151.2028432197085}}}},{"place_id":"ChIJJbaa2CmuEmsRZOQr3cMEGHM","rating":4.4,"name":"Instituto Cervantes Sydney","geo":{"location":{"lat":-33.874641,"lng":151.204095},"viewport":{"northeast":{"lat":-33.8732816197085,"lng":151.2055606302915},"southwest":{"lat":-33.8759795802915,"lng":151.2028626697085}}}},{"place_id":"ChIJvVaKgT6uEmsRnM6VopUH0JE","rating":4,"name":"City of Sydney","geo":{"location":{"lat":-33.87317480000001,"lng":151.2061605},"viewport":{"northeast":{"lat":-33.8718549697085,"lng":151.2079415802915},"southwest":{"lat":-33.8745529302915,"lng":151.2052436197085}}}},{"place_id":"ChIJXWpy2z2uEmsRLSvHKBErBY4","name":"Sydney Mechanics’ School of Arts","geo":{"location":{"lat":-33.874151,"lng":151.208264},"viewport":{"northeast":{"lat":-33.8727947197085,"lng":151.2094959802915},"southwest":{"lat":-33.87549268029149,"lng":151.2067980197085}}}},{"place_id":"ChIJ0_liA0SuEmsRSWCtG2Svhb0","rating":5,"name":"Society of Australian Genealogists","geo":{"location":{"lat":-33.861277,"lng":151.203976},"viewport":{"northeast":{"lat":-33.86027306970851,"lng":151.2052353302915},"southwest":{"lat":-33.8629710302915,"lng":151.2025373697085}}}},{"place_id":"ChIJBc2S2j2uEmsRD4geuAykijg","rating":5,"name":"Sydney Mechanics' School of Arts","geo":{"location":{"lat":-33.87418199999999,"lng":151.208183},"viewport":{"northeast":{"lat":-33.8728281697085,"lng":151.2094538802915},"southwest":{"lat":-33.8755261302915,"lng":151.2067559197085}}}}],"university":[{"place_id":"ChIJWYaJ3T6uEmsR4LMfpFrYp4I","rating":4.3,"name":"La Trobe University Sydney Campus","geo":{"location":{"lat":-33.875641,"lng":151.209343},"viewport":{"northeast":{"lat":-33.8743036697085,"lng":151.2108255302915},"southwest":{"lat":-33.8770016302915,"lng":151.2081275697085}}}},{"place_id":"ChIJtf9d2ECuEmsR9ZHYETjQ9ao","rating":5,"name":"Western Sydney University Sydney City Campus","geo":{"location":{"lat":-33.87571239999999,"lng":151.2092036},"viewport":{"northeast":{"lat":-33.87438066970849,"lng":151.2107506302915},"southwest":{"lat":-33.87707863029149,"lng":151.2080526697085}}}},{"place_id":"ChIJ50QsiTyuEmsRs7IAnjUz4Qg","rating":3.3,"name":"Victoria University, VU Sydney Campus","geo":{"location":{"lat":-33.8697767,"lng":151.2040035},"viewport":{"northeast":{"lat":-33.8684371697085,"lng":151.2052158302915},"southwest":{"lat":-33.87113513029149,"lng":151.2025178697085}}}},{"place_id":"ChIJPdMIND6uEmsRnt9cUwCabdY","rating":3,"name":"The University of Sydney","geo":{"location":{"lat":-33.8715262,"lng":151.2090603},"viewport":{"northeast":{"lat":-33.8701908697085,"lng":151.2105700802915},"southwest":{"lat":-33.87288883029149,"lng":151.2078721197085}}}},{"place_id":"ChIJEbnHkD2uEmsRI_j-lau-Ep4","name":"Western Sydney University, Sydney City Campus","geo":{"location":{"lat":-33.87571239999999,"lng":151.2092035},"viewport":{"northeast":{"lat":-33.87438066970849,"lng":151.2107505802915},"southwest":{"lat":-33.87707863029149,"lng":151.2080526197085}}}},{"place_id":"ChIJx65FIkCuEmsR9rtPPPApEdg","rating":3,"name":"Western Sydney University","geo":{"location":{"lat":-33.867374,"lng":151.2103352},"viewport":{"northeast":{"lat":-33.86618671970849,"lng":151.2113779802915},"southwest":{"lat":-33.86888468029149,"lng":151.2086800197085}}}},{"place_id":"ChIJ76iu3GmuEmsR9o2E7Pf0JqE","rating":4.7,"name":"Southern Cross University, Sydney Campus","geo":{"location":{"lat":-33.8624857,"lng":151.211001},"viewport":{"northeast":{"lat":-33.8611665197085,"lng":151.2124395802915},"southwest":{"lat":-33.8638644802915,"lng":151.2097416197085}}}},{"place_id":"ChIJw1l7rDiuEmsR21vQrBQkGv4","rating":4.1,"name":"CQUniversity Sydney","geo":{"location":{"lat":-33.871517,"lng":151.2049777},"viewport":{"northeast":{"lat":-33.87016971970849,"lng":151.20710445},"southwest":{"lat":-33.87286768029149,"lng":151.20416545}}}},{"place_id":"ChIJzTF2CjyuEmsRUqpHpt14FDM","rating":4.2,"name":"The University of Newcastle, Sydney Campus","geo":{"location":{"lat":-33.868338,"lng":151.210336},"viewport":{"northeast":{"lat":-33.8669954697085,"lng":151.2117750302915},"southwest":{"lat":-33.8696934302915,"lng":151.2090770697085}}}},{"place_id":"ChIJV2sXvWmuEmsR7qqSWcLbYKA","rating":5,"name":"Southern Cross University","geo":{"location":{"lat":-33.863048,"lng":151.212323},"viewport":{"northeast":{"lat":-33.8617198197085,"lng":151.2139621802915},"southwest":{"lat":-33.8644177802915,"lng":151.2112642197085}}}},{"place_id":"ChIJQ8NR1BeuEmsRAXBc4bSsJck","rating":4.2,"name":"Sydney Business School","geo":{"location":{"lat":-33.86192629999999,"lng":151.2097777},"viewport":{"northeast":{"lat":-33.8606603697085,"lng":151.2109970802915},"southwest":{"lat":-33.8633583302915,"lng":151.2082991197085}}}},{"place_id":"ChIJlWgSXzCuEmsRnox66i6yMQ8","name":"Torrens University Sydney, Pyrmont Campus","geo":{"location":{"lat":-33.8733476,"lng":151.1969254},"viewport":{"northeast":{"lat":-33.8720020697085,"lng":151.1982791802915},"southwest":{"lat":-33.8747000302915,"lng":151.1955812197085}}}},{"place_id":"ChIJq9YnFkKuEmsRkavGib488uQ","name":"MGSM CBD Campus","geo":{"location":{"lat":-33.8662815,"lng":151.2089465},"viewport":{"northeast":{"lat":-33.8651520697085,"lng":151.2100627802915},"southwest":{"lat":-33.8678500302915,"lng":151.2073648197085}}}},{"place_id":"ChIJAQAAAEGuEmsRbjBsiNO21fE","name":"Macquarie Graduate School of Management","geo":{"location":{"lat":-33.86670540000001,"lng":151.208328},"viewport":{"northeast":{"lat":-33.86536461970851,"lng":151.2097912302915},"southwest":{"lat":-33.8680625802915,"lng":151.2070932697085}}}},{"place_id":"ChIJo0bQtMKuEmsRw3Shbr3Spio","rating":4.6,"name":"Blue Mountains International Hotel Management School","geo":{"location":{"lat":-33.873285,"lng":151.207397},"viewport":{"northeast":{"lat":-33.8719206197085,"lng":151.2085587802915},"southwest":{"lat":-33.8746185802915,"lng":151.2058608197085}}}},{"place_id":"ChIJkWHTIWquEmsRPPqDxIjQ0GQ","rating":4.5,"name":"The Hotel School Sydney","geo":{"location":{"lat":-33.864359,"lng":151.21199},"viewport":{"northeast":{"lat":-33.8629123197085,"lng":151.2132055802915},"southwest":{"lat":-33.8656102802915,"lng":151.2105076197085}}}},{"place_id":"ChIJOXb02ECuEmsRataHQ5pJNTk","rating":5,"name":"Macquarie City Campus","geo":{"location":{"lat":-33.8662815,"lng":151.2089465},"viewport":{"northeast":{"lat":-33.8649325197085,"lng":151.2102954802915},"southwest":{"lat":-33.8676304802915,"lng":151.2075975197085}}}},{"place_id":"ChIJU-PL6UGuEmsRQtl9xbIcLuQ","name":"Macquarie Applied Finance Centre","geo":{"location":{"lat":-33.8666126,"lng":151.2083917},"viewport":{"northeast":{"lat":-33.8652699197085,"lng":151.2098281302915},"southwest":{"lat":-33.8679678802915,"lng":151.2071301697085}}}},{"place_id":"ChIJK85o70CuEmsRVR_4lfBGNRE","name":"Sydney U3A","geo":{"location":{"lat":-33.8661158,"lng":151.2066122},"viewport":{"northeast":{"lat":-33.8647570697085,"lng":151.2078204302915},"southwest":{"lat":-33.8674550302915,"lng":151.2051224697085}}}}],"doctors":[{"place_id":"ChIJK4PYNECuEmsRr_H_CXPrnzM","rating":4.5,"name":"Sydney Doctors","geo":{"location":{"lat":-33.866142,"lng":151.208792},"viewport":{"northeast":{"lat":-33.86478676970851,"lng":151.2100541302915},"southwest":{"lat":-33.8674847302915,"lng":151.2073561697085}}}},{"place_id":"ChIJB4v2hWmuEmsRuqc4XdFKzV0","rating":4.4,"name":"Dr Morris","geo":{"location":{"lat":-33.8642583,"lng":151.2124146},"viewport":{"northeast":{"lat":-33.8629047197085,"lng":151.2139339302915},"southwest":{"lat":-33.8656026802915,"lng":151.2112359697085}}}},{"place_id":"ChIJ64mlpj2uEmsRulhMLEJxa5Q","rating":3.4,"name":"City Doctors","geo":{"location":{"lat":-33.87591430000001,"lng":151.2084051},"viewport":{"northeast":{"lat":-33.87455986970851,"lng":151.2095013302915},"southwest":{"lat":-33.87725783029151,"lng":151.2068033697085}}}},{"place_id":"ChIJ6492oECuEmsR_Jk80OIlnIk","rating":4,"name":"Dr. Angelo Lazaris - Sydney Cosmetic Dentist","geo":{"location":{"lat":-33.867747,"lng":151.205667},"viewport":{"northeast":{"lat":-33.8664907697085,"lng":151.2071544302915},"southwest":{"lat":-33.8691887302915,"lng":151.2044564697085}}}},{"place_id":"ChIJq0jcJ2quEmsR7zQ2RvO-72k","name":"Dr Frank Martin","geo":{"location":{"lat":-33.86449410000001,"lng":151.2124016},"viewport":{"northeast":{"lat":-33.8631895197085,"lng":151.2139045302915},"southwest":{"lat":-33.8658874802915,"lng":151.2112065697085}}}},{"place_id":"ChIJhbtnqjiuEmsRuj5hpLOTLME","rating":5,"name":"Dr Mark Bowman","geo":{"location":{"lat":-33.86765409999999,"lng":151.2039547},"viewport":{"northeast":{"lat":-33.86630511970849,"lng":151.2053036802915},"southwest":{"lat":-33.86900308029148,"lng":151.2026057197085}}}},{"place_id":"ChIJzWGyLGauEmsRkwmOihDIEjs","rating":5,"name":"Maroun Paulette Dr","geo":{"location":{"lat":-33.8670835,"lng":151.2120446},"viewport":{"northeast":{"lat":-33.8657457697085,"lng":151.2135426802915},"southwest":{"lat":-33.8684437302915,"lng":151.2108447197085}}}},{"place_id":"ChIJRSFIVUCuEmsRXoQK8aMRuYE","name":"Dr Rosemary Aldous","geo":{"location":{"lat":-33.8652314,"lng":151.2099254},"viewport":{"northeast":{"lat":-33.8637909197085,"lng":151.2111699302915},"southwest":{"lat":-33.8664888802915,"lng":151.2084719697085}}}},{"place_id":"ChIJVdTm9WquEmsRkE6zNAZSjfw","rating":5,"name":"Dr Chang Andrew","geo":{"location":{"lat":-33.866998,"lng":151.212042},"viewport":{"northeast":{"lat":-33.8656607197085,"lng":151.2135459802915},"southwest":{"lat":-33.8683586802915,"lng":151.2108480197085}}}},{"place_id":"ChIJVdTm9WquEmsRVUInLQCci6c","name":"Dr. Ameer Ibrahim","geo":{"location":{"lat":-33.866998,"lng":151.212042},"viewport":{"northeast":{"lat":-33.8656607197085,"lng":151.2135459802915},"southwest":{"lat":-33.8683586802915,"lng":151.2108480197085}}}},{"place_id":"ChIJGVqFYkCuEmsRE_FFdUvk1eE","rating":1,"name":"Dr Derek Lok","geo":{"location":{"lat":-33.8672209,"lng":151.2073756},"viewport":{"northeast":{"lat":-33.8659922197085,"lng":151.2087059302915},"southwest":{"lat":-33.8686901802915,"lng":151.2060079697085}}}},{"place_id":"ChIJ74qT9mquEmsRBkVZdAll9ho","rating":4,"name":"Dr Gareth Owen","geo":{"location":{"lat":-33.8670835,"lng":151.2120446},"viewport":{"northeast":{"lat":-33.8657457697085,"lng":151.2135426802915},"southwest":{"lat":-33.8684437302915,"lng":151.2108447197085}}}},{"place_id":"ChIJpW8u9GquEmsR8xlkKH9XlT8","rating":5,"name":"Dr Darren Gold","geo":{"location":{"lat":-33.867092,"lng":151.212071},"viewport":{"northeast":{"lat":-33.8657532197085,"lng":151.2135555302915},"southwest":{"lat":-33.86845118029149,"lng":151.2108575697085}}}},{"place_id":"ChIJW3LzovCtEmsRUYOD_Ae1Xyc","rating":2.6,"name":"Dr Angelo Tsirbas","geo":{"location":{"lat":-33.8642907,"lng":151.2125275},"viewport":{"northeast":{"lat":-33.8629559697085,"lng":151.2140056802915},"southwest":{"lat":-33.8656539302915,"lng":151.2113077197085}}}},{"place_id":"ChIJB4v2hWmuEmsRjZuG7u6xyh0","rating":5,"name":"Dr. John Garvey","geo":{"location":{"lat":-33.86426240000001,"lng":151.2124134},"viewport":{"northeast":{"lat":-33.86298041970851,"lng":151.2139234302915},"southwest":{"lat":-33.86567838029151,"lng":151.2112254697085}}}},{"place_id":"ChIJxYJeOj6uEmsRJhuagalxZtM","name":"Dr Anthony Yap","geo":{"location":{"lat":-33.86506019999999,"lng":151.2019024},"viewport":{"northeast":{"lat":-33.8637112197085,"lng":151.2032513802915},"southwest":{"lat":-33.8664091802915,"lng":151.2005534197085}}}},{"place_id":"ChIJmWaTSkCuEmsRqQe3aKqaKiM","name":"Dr Anup Desai","geo":{"location":{"lat":-33.864459,"lng":151.212386},"viewport":{"northeast":{"lat":-33.8631264197085,"lng":151.2139029802915},"southwest":{"lat":-33.8658243802915,"lng":151.2112050197085}}}},{"place_id":"ChIJC_EfC0GuEmsR4YGYBe9Y8GU","rating":5,"name":"Dr Rob King","geo":{"location":{"lat":-33.86845499999999,"lng":151.211896},"viewport":{"northeast":{"lat":-33.86711991970849,"lng":151.2133818302915},"southwest":{"lat":-33.86981788029149,"lng":151.2106838697085}}}},{"place_id":"ChIJ74qT9mquEmsRA2_bFcgJHRU","name":"Dr Alina Stoita Gastroenterologist","geo":{"location":{"lat":-33.8670835,"lng":151.2120445},"viewport":{"northeast":{"lat":-33.8657457697085,"lng":151.2135426302915},"southwest":{"lat":-33.8684437302915,"lng":151.2108446697085}}}},{"place_id":"ChIJ7TLPJ2quEmsRn-x5IJauAOY","rating":5,"name":"Dr Michael Jones","geo":{"location":{"lat":-33.86449410000001,"lng":151.2124016},"viewport":{"northeast":{"lat":-33.8632036197085,"lng":151.2139026302915},"southwest":{"lat":-33.8659015802915,"lng":151.2112046697085}}}},{"place_id":"ChIJK4PYNECuEmsRoy5VwNY4YyA","name":"Sydney, Medical, Dental and Cosmetic Centre - Dr. Daniela Bitlan","geo":{"location":{"lat":-33.866131,"lng":151.2087178},"viewport":{"northeast":{"lat":-33.8647784697085,"lng":151.2100173302915},"southwest":{"lat":-33.86747643029149,"lng":151.2073193697085}}}},{"place_id":"ChIJJZwMxECuEmsRTqu5NKdT3tc","name":"Dr Jeffrey Persson","geo":{"location":{"lat":-33.8665519,"lng":151.2057468},"viewport":{"northeast":{"lat":-33.86521056970851,"lng":151.2070960302915},"southwest":{"lat":-33.86790853029151,"lng":151.2043980697085}}}},{"place_id":"ChIJGzISx2quEmsR1WMwTDMpyLs","rating":5,"name":"Allergy Testing Laboratory - Dr Richard Stephen Baker","geo":{"location":{"lat":-33.86858,"lng":151.211812},"viewport":{"northeast":{"lat":-33.86723101970851,"lng":151.2131609802915},"southwest":{"lat":-33.8699289802915,"lng":151.2104630197085}}}},{"place_id":"ChIJhbtnqjiuEmsRg-JEcBkuzAU","name":"Dr Alison Gee","geo":{"location":{"lat":-33.8676229,"lng":151.2038282},"viewport":{"northeast":{"lat":-33.8662357197085,"lng":151.2054880802915},"southwest":{"lat":-33.8689336802915,"lng":151.2027901197085}}}},{"place_id":"ChIJJZwMxECuEmsRFrXiOYEkK24","name":"Dr Gavin Kemball","geo":{"location":{"lat":-33.8635856,"lng":151.2050884},"viewport":{"northeast":{"lat":-33.8621851697085,"lng":151.2065011802915},"southwest":{"lat":-33.8648831302915,"lng":151.2038032197085}}}},{"place_id":"ChIJgdF3KGquEmsRrqWv_JFH23o","rating":5,"name":"Dr Clare Fraser","geo":{"location":{"lat":-33.86449410000001,"lng":151.2124016},"viewport":{"northeast":{"lat":-33.8632014197085,"lng":151.2139029302915},"southwest":{"lat":-33.86589938029149,"lng":151.2112049697085}}}},{"place_id":"ChIJ5yZZWWquEmsRjR9TA19tzuo","name":"Tan Patrick Dr","geo":{"location":{"lat":-33.866642,"lng":151.21213},"viewport":{"northeast":{"lat":-33.8653107197085,"lng":151.2136150802915},"southwest":{"lat":-33.8680086802915,"lng":151.2109171197085}}}},{"place_id":"ChIJpcrCSDyuEmsR0mfNG8fpIuE","name":"Reid Michael DR","geo":{"location":{"lat":-33.8747966,"lng":151.2071479},"viewport":{"northeast":{"lat":-33.8733917697085,"lng":151.2083001302915},"southwest":{"lat":-33.8760897302915,"lng":151.2056021697085}}}},{"place_id":"ChIJx_H_YmiuEmsR0xRYOGZB-oM","name":"Centre for Hand Surgery - Dr Wheen Douglass","geo":{"location":{"lat":-33.866998,"lng":151.212042},"viewport":{"northeast":{"lat":-33.8656607197085,"lng":151.2135459802915},"southwest":{"lat":-33.8683586802915,"lng":151.2108480197085}}}},{"place_id":"ChIJGzISx2quEmsRHdx7GcWiU9c","name":"Dr Zion Chan Expert Cosmetic Surgeon Sydney","geo":{"location":{"lat":-33.868592,"lng":151.211939},"viewport":{"northeast":{"lat":-33.8672537697085,"lng":151.2133937302915},"southwest":{"lat":-33.8699517302915,"lng":151.2106957697085}}}},{"place_id":"ChIJVdTm9WquEmsRoZ9mVdBamGc","rating":5,"name":"Dr David Kowalski","geo":{"location":{"lat":-33.866998,"lng":151.212042},"viewport":{"northeast":{"lat":-33.8656607197085,"lng":151.2135459802915},"southwest":{"lat":-33.8683586802915,"lng":151.2108480197085}}}},{"place_id":"ChIJ0zrqqkGuEmsRCBdOAtDUnuQ","rating":5,"name":"City Feet Clinic Podiatry and Foot Doctor Sydney","geo":{"location":{"lat":-33.865715,"lng":151.2074495},"viewport":{"northeast":{"lat":-33.8643604197085,"lng":151.2087195302915},"southwest":{"lat":-33.8670583802915,"lng":151.2060215697085}}}},{"place_id":"ChIJH3vzeBOuEmsRckfzCaT3vzs","rating":5,"name":"Jenny Bromberger - Integrative Doctor, Sydney","geo":{"location":{"lat":-33.87361499999999,"lng":151.216335},"viewport":{"northeast":{"lat":-33.87223506970849,"lng":151.2176912302915},"southwest":{"lat":-33.87493303029149,"lng":151.2149932697085}}}},{"place_id":"ChIJRSFIVUCuEmsRR6MYoK86138","name":"Dr Lurie Edward","geo":{"location":{"lat":-33.8657882,"lng":151.2074364},"viewport":{"northeast":{"lat":-33.8644340697085,"lng":151.2087091802915},"southwest":{"lat":-33.8671320302915,"lng":151.2060112197085}}}},{"place_id":"ChIJVdTm9WquEmsRUuUaZWCgHBY","name":"Dr John Tawfik - Hand and Wrist Surgeon Sydney CBD, Potts Point and Wollongong.","geo":{"location":{"lat":-33.8669645,"lng":151.212056},"viewport":{"northeast":{"lat":-33.8656268197085,"lng":151.2135548802915},"southwest":{"lat":-33.86832478029149,"lng":151.2108569197085}}}},{"place_id":"ChIJB3IOh6qYEmsR00IgpF0MHw0","rating":5,"name":"Dr. Pouria Moradi","geo":{"location":{"lat":-33.8737172,"lng":151.2161722},"viewport":{"northeast":{"lat":-33.8723837697085,"lng":151.2176597802915},"southwest":{"lat":-33.8750817302915,"lng":151.2149618197085}}}},{"place_id":"ChIJtzYjiEGuEmsR_pyHuSB_Y7A","rating":5,"name":"Dr Juman Farjo","geo":{"location":{"lat":-33.863423,"lng":151.208165},"viewport":{"northeast":{"lat":-33.8621845197085,"lng":151.2095253302915},"southwest":{"lat":-33.8648824802915,"lng":151.2068273697085}}}},{"place_id":"ChIJk2Taji2wEmsRFyrfwy0KPAY","rating":5,"name":"Dr. Alex Phoon","geo":{"location":{"lat":-33.873746,"lng":151.2159531},"viewport":{"northeast":{"lat":-33.87243176970849,"lng":151.2175433802915},"southwest":{"lat":-33.87512973029149,"lng":151.2148454197085}}}},{"place_id":"ChIJi9xziGmuEmsR6zEJG44Hgj8","rating":5,"name":"Dr Jason Roth Ear, Nose Throat and Facial Plastic Surgeon Sydney CBD","geo":{"location":{"lat":-33.8644177,"lng":151.2123843},"viewport":{"northeast":{"lat":-33.8630544197085,"lng":151.2139088802915},"southwest":{"lat":-33.8657523802915,"lng":151.2112109197085}}}},{"place_id":"ChIJVdMTYkCuEmsRqjHZ1sPU_4w","name":"Benchmark Medical - Dr. Campion Ellen","geo":{"location":{"lat":-33.8672209,"lng":151.2073756},"viewport":{"northeast":{"lat":-33.8659922197085,"lng":151.2087059302915},"southwest":{"lat":-33.8686901802915,"lng":151.2060079697085}}}},{"place_id":"ChIJ8wngx2quEmsRkUWYukFNSVk","rating":2.3,"name":"Dr Toohey Patrick","geo":{"location":{"lat":-33.86878000000001,"lng":151.211792},"viewport":{"northeast":{"lat":-33.86744771970851,"lng":151.2133055302915},"southwest":{"lat":-33.87014568029151,"lng":151.2106075697085}}}},{"place_id":"ChIJi9xziGmuEmsRTeZMVP0px7E","rating":1.8,"name":"Dr Nesrin Varol","geo":{"location":{"lat":-33.8643182,"lng":151.2125239},"viewport":{"northeast":{"lat":-33.8629801197085,"lng":151.2139827302915},"southwest":{"lat":-33.8656780802915,"lng":151.2112847697085}}}},{"place_id":"ChIJRSFIVUCuEmsRZdrqJaAqPXQ","name":"Dr Singer Hilary Anne","geo":{"location":{"lat":-33.8657972,"lng":151.2074096},"viewport":{"northeast":{"lat":-33.86444391970851,"lng":151.2086952802915},"southwest":{"lat":-33.86714188029151,"lng":151.2059973197085}}}},{"place_id":"ChIJGbvxw0GuEmsRapCEBo3IgbM","rating":3.4,"name":"Dr Mark Livingstone","geo":{"location":{"lat":-33.8652735,"lng":151.2093007},"viewport":{"northeast":{"lat":-33.8639245197085,"lng":151.2106496802915},"southwest":{"lat":-33.8666224802915,"lng":151.2079517197085}}}},{"place_id":"ChIJmzHn9WquEmsRo_9EiPe6lVY","rating":5,"name":"Dr Michael Delaney","geo":{"location":{"lat":-33.8670014,"lng":151.2120411},"viewport":{"northeast":{"lat":-33.8656641197085,"lng":151.2135453302915},"southwest":{"lat":-33.8683620802915,"lng":151.2108473697085}}}},{"place_id":"ChIJe2ivRPOuEmsRbDqZzzRu8Oc","rating":5,"name":"Dr Jonathan Phillips","geo":{"location":{"lat":-33.8679468,"lng":151.2057323},"viewport":{"northeast":{"lat":-33.8665978197085,"lng":151.2070812802915},"southwest":{"lat":-33.86929578029149,"lng":151.2043833197085}}}},{"place_id":"ChIJvf3d9WquEmsRSxe1-ASBA7s","name":"Dr John Tawfik - Hand and Wrist Surgeon","geo":{"location":{"lat":-33.8670104,"lng":151.2120424},"viewport":{"northeast":{"lat":-33.8656730197085,"lng":151.2135455302915},"southwest":{"lat":-33.86837098029149,"lng":151.2108475697085}}}},{"place_id":"ChIJ8wy__RauEmsRM3O3SU1FQxk","name":"Dr Jane Hunt","geo":{"location":{"lat":-33.8762019,"lng":151.2125549},"viewport":{"northeast":{"lat":-33.8748405197085,"lng":151.2137677802915},"southwest":{"lat":-33.8775384802915,"lng":151.2110698197085}}}},{"place_id":"ChIJVdTm9WquEmsRXAENVd8_c3E","name":"Dr Colin I Clement - Eye Associates","geo":{"location":{"lat":-33.866998,"lng":151.212042},"viewport":{"northeast":{"lat":-33.8656607197085,"lng":151.2135459802915},"southwest":{"lat":-33.8683586802915,"lng":151.2108480197085}}}},{"place_id":"ChIJw1btqDiuEmsRnhR5GwNdZyU","name":"Dr Robert Woolcott","geo":{"location":{"lat":-33.86758650000001,"lng":151.2037804},"viewport":{"northeast":{"lat":-33.86621321970851,"lng":151.2054637302915},"southwest":{"lat":-33.86891118029151,"lng":151.2027657697085}}}},{"place_id":"ChIJG05x_0CuEmsRFMqET4ywLcI","name":"Dr Alan Skapinker","geo":{"location":{"lat":-33.8747305,"lng":151.2064335},"viewport":{"northeast":{"lat":-33.8734199197085,"lng":151.2079177302915},"southwest":{"lat":-33.8761178802915,"lng":151.2052197697085}}}},{"place_id":"ChIJCy5N30GuEmsROiymozsIylE","name":"Dr Jason Kaplan","geo":{"location":{"lat":-33.8672485,"lng":151.2069473},"viewport":{"northeast":{"lat":-33.8659070697085,"lng":151.2083722302915},"southwest":{"lat":-33.8686050302915,"lng":151.2056742697085}}}},{"place_id":"ChIJHVqyC0GuEmsRmY8kJnHhOds","rating":5,"name":"Dr Nadya Chami","geo":{"location":{"lat":-33.8646119,"lng":151.2071394},"viewport":{"northeast":{"lat":-33.86327121970849,"lng":151.2086078802915},"southwest":{"lat":-33.86596918029149,"lng":151.2059099197085}}}},{"place_id":"ChIJLXP_hmmuEmsR9zK2h1s7PVI","name":"Dr. Peter Kim","geo":{"location":{"lat":-33.8642583,"lng":151.2124146},"viewport":{"northeast":{"lat":-33.86296171970851,"lng":151.2139456802915},"southwest":{"lat":-33.8656596802915,"lng":151.2112477197085}}}},{"place_id":"ChIJ1QkzaUCuEmsRBv1FRA5m86o","name":"Dr Katrina Rowan","geo":{"location":{"lat":-33.86738100000001,"lng":151.20826},"viewport":{"northeast":{"lat":-33.8661200197085,"lng":151.2095953802915},"southwest":{"lat":-33.8688179802915,"lng":151.2068974197085}}}},{"place_id":"ChIJJZwMxECuEmsRZRaQCTmhp9A","name":"Dr David Golovsky","geo":{"location":{"lat":-33.8635856,"lng":151.2050884},"viewport":{"northeast":{"lat":-33.8621851697085,"lng":151.2065011802915},"southwest":{"lat":-33.8648831302915,"lng":151.2038032197085}}}},{"place_id":"ChIJb5keKGquEmsRTHDCNnNPfaU","rating":5,"name":"Dr Caroline Catt","geo":{"location":{"lat":-33.864501,"lng":151.2125},"viewport":{"northeast":{"lat":-33.8631626197085,"lng":151.2139578302915},"southwest":{"lat":-33.8658605802915,"lng":151.2112598697085}}}},{"place_id":"ChIJ8wy__RauEmsRqZJ-ECFBZyM","name":"Dr Andrew Gowers","geo":{"location":{"lat":-33.8762019,"lng":151.2125549},"viewport":{"northeast":{"lat":-33.8748405197085,"lng":151.2137677802915},"southwest":{"lat":-33.8775384802915,"lng":151.2110698197085}}}},{"place_id":"ChIJ8wy__RauEmsRcKl_lHCLO8Q","name":"Dr Timothy Barnes","geo":{"location":{"lat":-33.8762019,"lng":151.2125549},"viewport":{"northeast":{"lat":-33.8748405197085,"lng":151.2137677802915},"southwest":{"lat":-33.8775384802915,"lng":151.2110698197085}}}},{"place_id":"ChIJHVqyC0GuEmsROnAZFBWhD7I","rating":5,"name":"Dr Stanley Green","geo":{"location":{"lat":-33.866221,"lng":151.2082461},"viewport":{"northeast":{"lat":-33.8648849697085,"lng":151.2097750802915},"southwest":{"lat":-33.8675829302915,"lng":151.2070771197085}}}}],"schools":[{"place_id":"ChIJPRtybxauEmsR0tsOqj8fST0","rating":3.8,"name":"Sydney Grammar School","geo":{"location":{"lat":-33.8749641,"lng":151.2133071},"viewport":{"northeast":{"lat":-33.8736151197085,"lng":151.2146560802915},"southwest":{"lat":-33.8763130802915,"lng":151.2119581197085}}}},{"place_id":"ChIJ7xObFjyuEmsRbOco8y-YxaM","rating":4.1,"name":"St Andrew's Cathedral School","geo":{"location":{"lat":-33.8738398,"lng":151.205699},"viewport":{"northeast":{"lat":-33.87254601970851,"lng":151.2071508302915},"southwest":{"lat":-33.87524398029151,"lng":151.2044528697085}}}},{"place_id":"ChIJFVDVMWquEmsRC93D6ynxzvE","rating":4.4,"name":"Conservatorium High School","geo":{"location":{"lat":-33.8634829,"lng":151.2143572},"viewport":{"northeast":{"lat":-33.8620390197085,"lng":151.2155363302915},"southwest":{"lat":-33.8647369802915,"lng":151.2128383697085}}}},{"place_id":"ChIJPwiLX9yxEmsRyZnOgW-PRxw","rating":4.2,"name":"Fort Street Public School","geo":{"location":{"lat":-33.8604618,"lng":151.2049161},"viewport":{"northeast":{"lat":-33.8591703197085,"lng":151.2062490302915},"southwest":{"lat":-33.8618682802915,"lng":151.2035510697085}}}},{"place_id":"ChIJxUgzo0CuEmsR5VjUp6pKyFY","name":"Sydney School for Self Knowledge","geo":{"location":{"lat":-33.8671309,"lng":151.2056547},"viewport":{"northeast":{"lat":-33.8657751197085,"lng":151.2070977802915},"southwest":{"lat":-33.86847308029149,"lng":151.2043998197085}}}},{"place_id":"ChIJC0nCCz-uEmsRBnF75E3NUho","rating":3.5,"name":"Australian Barista School - Sydney","geo":{"location":{"lat":-33.8698849,"lng":151.207526},"viewport":{"northeast":{"lat":-33.8685360197085,"lng":151.2085840302915},"southwest":{"lat":-33.8712339802915,"lng":151.2058860697085}}}},{"place_id":"ChIJPdM6LTyuEmsRwdmbpY3pCj8","rating":4,"name":"Macquarie English School","geo":{"location":{"lat":-33.87390999999999,"lng":151.207275},"viewport":{"northeast":{"lat":-33.87254621970849,"lng":151.2084562302915},"southwest":{"lat":-33.87524418029149,"lng":151.2057582697085}}}},{"place_id":"ChIJ48rlWjyuEmsRl6U0pdWTvf0","rating":5,"name":"Australian International High School","geo":{"location":{"lat":-33.8749,"lng":151.205827},"viewport":{"northeast":{"lat":-33.8736374197085,"lng":151.2075688302915},"southwest":{"lat":-33.8763353802915,"lng":151.2048708697085}}}},{"place_id":"ChIJAQAAAEGuEmsRbjBsiNO21fE","name":"Macquarie Graduate School of Management","geo":{"location":{"lat":-33.86670540000001,"lng":151.208328},"viewport":{"northeast":{"lat":-33.86536461970851,"lng":151.2097912302915},"southwest":{"lat":-33.8680625802915,"lng":151.2070932697085}}}},{"place_id":"ChIJ53fNpj2uEmsRHIqGsjiTQi8","name":"Australasia International School (AIS)","geo":{"location":{"lat":-33.8760344,"lng":151.2084116},"viewport":{"northeast":{"lat":-33.8746854197085,"lng":151.2097605802915},"southwest":{"lat":-33.8773833802915,"lng":151.2070626197085}}}},{"place_id":"ChIJ3_X_BPOtEmsRFM6h8qX0YhE","name":"ultimo public school","geo":{"location":{"lat":-33.8762012,"lng":151.1947965},"viewport":{"northeast":{"lat":-33.8747579197085,"lng":151.1963883302915},"southwest":{"lat":-33.8774558802915,"lng":151.1936903697085}}}},{"place_id":"ChIJlTrB1xOuEmsRPmf2quXd0xY","rating":4.7,"name":"Sceggs Darlinghurst","geo":{"location":{"lat":-33.87642770000001,"lng":151.2187158},"viewport":{"northeast":{"lat":-33.87508751970851,"lng":151.2201273302915},"southwest":{"lat":-33.8777854802915,"lng":151.2174293697085}}}},{"place_id":"ChIJ3_eJlD6uEmsRkHpetc_reJ0","rating":5,"name":"KU Children's Services - Central Office","geo":{"location":{"lat":-33.871987,"lng":151.206169},"viewport":{"northeast":{"lat":-33.8706307697085,"lng":151.2076419802915},"southwest":{"lat":-33.8733287302915,"lng":151.2049440197085}}}}],"dentist":[{"place_id":"ChIJu0GhCEeuEmsRfyCvY_v670c","rating":5,"name":"National Dental Care Barangaroo","geo":{"location":{"lat":-33.86508630000001,"lng":151.2022293},"viewport":{"northeast":{"lat":-33.8637517697085,"lng":151.2032967802915},"southwest":{"lat":-33.86644973029149,"lng":151.2005988197085}}}},{"place_id":"ChIJpcrCSDyuEmsRZf1FKVjvEq4","rating":5,"name":"Primary Dental Sydney","geo":{"location":{"lat":-33.8748198,"lng":151.2071301},"viewport":{"northeast":{"lat":-33.8734160197085,"lng":151.2082860302915},"southwest":{"lat":-33.8761139802915,"lng":151.2055880697085}}}},{"place_id":"ChIJT-j880CuEmsRB9e8uqiCF0U","rating":3.9,"name":"nib Dental Care Centre Sydney CBD","geo":{"location":{"lat":-33.8659321,"lng":151.2089943},"viewport":{"northeast":{"lat":-33.8645311197085,"lng":151.2103743302915},"southwest":{"lat":-33.8672290802915,"lng":151.2076763697085}}}},{"place_id":"ChIJDw5BAUGuEmsR8Gv5BNqZy6w","rating":4,"name":"No Gaps Dental in Sydney CBD Wynyard","geo":{"location":{"lat":-33.865355,"lng":151.20704},"viewport":{"northeast":{"lat":-33.86401291970849,"lng":151.2085297802915},"southwest":{"lat":-33.86671088029149,"lng":151.2058318197085}}}},{"place_id":"ChIJu7dTkz6uEmsRPUg1yJtZ1ds","rating":5,"name":"Clear Dental Sydney CBD","geo":{"location":{"lat":-33.87187,"lng":151.206269},"viewport":{"northeast":{"lat":-33.8705159697085,"lng":151.2076883302915},"southwest":{"lat":-33.87321393029149,"lng":151.2049903697085}}}},{"place_id":"ChIJsZWJN0CuEmsRV4i9UavBQ0I","rating":5,"name":"Prudential Dental Clinic, Sydney CBD","geo":{"location":{"lat":-33.866765,"lng":151.208906},"viewport":{"northeast":{"lat":-33.8654033697085,"lng":151.2100793302915},"southwest":{"lat":-33.86810133029149,"lng":151.2073813697085}}}},{"place_id":"ChIJeUAY4GmuEmsR6aT8UHsQiUI","rating":5,"name":"Quay Dental | Sydney CBD Dentists","geo":{"location":{"lat":-33.86340899999999,"lng":151.208165},"viewport":{"northeast":{"lat":-33.86196081970849,"lng":151.2094940802915},"southwest":{"lat":-33.86465878029149,"lng":151.2067961197085}}}},{"place_id":"ChIJX-Fj4j-uEmsRiGyRFyCVkgQ","rating":4.1,"name":"Sydney Holistic Dental Centre","geo":{"location":{"lat":-33.8697398,"lng":151.2100667},"viewport":{"northeast":{"lat":-33.8684465197085,"lng":151.2115364802915},"southwest":{"lat":-33.8711444802915,"lng":151.2088385197085}}}},{"place_id":"ChIJK4PYNECuEmsRvWcPDRM6bOI","rating":4.7,"name":"Pitt St Dental Centre","geo":{"location":{"lat":-33.86616,"lng":151.208949},"viewport":{"northeast":{"lat":-33.86482111970849,"lng":151.2101302802915},"southwest":{"lat":-33.86751908029149,"lng":151.2074323197085}}}},{"place_id":"ChIJGbvxw0GuEmsRy6uQ05YSfEE","name":"O'Connell Street Dentists - Dr Robin Turner and Dr Greg McKew","geo":{"location":{"lat":-33.865217,"lng":151.209212},"viewport":{"northeast":{"lat":-33.86393451970851,"lng":151.2106417802915},"southwest":{"lat":-33.86663248029151,"lng":151.2079438197085}}}},{"place_id":"ChIJOaX-pTyuEmsRvlItDJqORUo","rating":5,"name":"Lok Dentists","geo":{"location":{"lat":-33.8755378,"lng":151.204771},"viewport":{"northeast":{"lat":-33.87469119999999,"lng":151.2060541802915},"southwest":{"lat":-33.87807760000001,"lng":151.2033562197085}}}},{"place_id":"ChIJHbmoaUCuEmsR2VQhQjx88ng","rating":5,"name":"Premier Dental Sydney","geo":{"location":{"lat":-33.8673734,"lng":151.2082209},"viewport":{"northeast":{"lat":-33.86602441970849,"lng":151.2095698802915},"southwest":{"lat":-33.86872238029149,"lng":151.2068719197085}}}},{"place_id":"ChIJGWU5Yj6uEmsRt8kdNOw-UYs","rating":4.6,"name":"Pacific Smiles Dental Town Hall","geo":{"location":{"lat":-33.87238179999999,"lng":151.2076167},"viewport":{"northeast":{"lat":-33.8710328197085,"lng":151.2089656802915},"southwest":{"lat":-33.8737307802915,"lng":151.2062677197085}}}},{"place_id":"ChIJE4-sEUCuEmsR-baNg6GmQJA","rating":4.8,"name":"Martin Place Dental Health","geo":{"location":{"lat":-33.8682185,"lng":151.2093206},"viewport":{"northeast":{"lat":-33.8665938197085,"lng":151.2107064302915},"southwest":{"lat":-33.8692917802915,"lng":151.2080084697085}}}},{"place_id":"ChIJvx-eJTeuEmsRaY49LIQcJrY","rating":4.9,"name":"STAR dentistry","geo":{"location":{"lat":-33.8688677,"lng":151.1968153},"viewport":{"northeast":{"lat":-33.8673660697085,"lng":151.1982504802915},"southwest":{"lat":-33.8700640302915,"lng":151.1955525197085}}}},{"place_id":"ChIJ0zrqqkGuEmsRg4_yPjsOCoI","rating":4.5,"name":"Sydney CBD Dental","geo":{"location":{"lat":-33.865672,"lng":151.207484},"viewport":{"northeast":{"lat":-33.8643163697085,"lng":151.2087390802915},"southwest":{"lat":-33.8670143302915,"lng":151.2060411197085}}}},{"place_id":"ChIJK4PYNECuEmsRXcuM_Bx4_20","rating":5,"name":"The Dentist at 70 Pitt Street","geo":{"location":{"lat":-33.8662,"lng":151.20897},"viewport":{"northeast":{"lat":-33.8648396697085,"lng":151.2101319302915},"southwest":{"lat":-33.8675376302915,"lng":151.2074339697085}}}},{"place_id":"ChIJ6492oECuEmsR_Jk80OIlnIk","rating":4,"name":"Dr. Angelo Lazaris - Sydney Cosmetic Dentist","geo":{"location":{"lat":-33.867747,"lng":151.205667},"viewport":{"northeast":{"lat":-33.8664907697085,"lng":151.2071544302915},"southwest":{"lat":-33.8691887302915,"lng":151.2044564697085}}}},{"place_id":"ChIJDVSs5D-uEmsRCFlJwaXun9Y","name":"CDK Dental","geo":{"location":{"lat":-33.8695791,"lng":151.2098469},"viewport":{"northeast":{"lat":-33.8682208197085,"lng":151.2110753802915},"southwest":{"lat":-33.8709187802915,"lng":151.2083774197085}}}},{"place_id":"ChIJRSFIVUCuEmsR_S-7Y7rU5Bc","rating":4.9,"name":"TLC Dental","geo":{"location":{"lat":-33.8658337,"lng":151.2075127},"viewport":{"northeast":{"lat":-33.8644768197085,"lng":151.2087453802915},"southwest":{"lat":-33.8671747802915,"lng":151.2060474197085}}}},{"place_id":"ChIJ6RvjamquEmsRnqmDE5IkFow","rating":5,"name":"CDC Dental","geo":{"location":{"lat":-33.8652419,"lng":151.2099559},"viewport":{"northeast":{"lat":-33.8637995197085,"lng":151.2111811802915},"southwest":{"lat":-33.8664974802915,"lng":151.2084832197085}}}},{"place_id":"ChIJGzISx2quEmsRp9GQzbZU2hs","rating":4.3,"name":"Macquarie Dental","geo":{"location":{"lat":-33.86862499999999,"lng":151.211978},"viewport":{"northeast":{"lat":-33.8672845697085,"lng":151.2134111302915},"southwest":{"lat":-33.86998253029149,"lng":151.2107131697085}}}},{"place_id":"ChIJmZMvY0euEmsReS5m4l_Skr4","rating":4.8,"name":"Sydney Dental Health","geo":{"location":{"lat":-33.8667779,"lng":151.2022728},"viewport":{"northeast":{"lat":-33.8654365697085,"lng":151.2037707302915},"southwest":{"lat":-33.8681345302915,"lng":151.2010727697085}}}},{"place_id":"ChIJZ2ChJWquEmsRFNLiXJP3ItA","rating":4.7,"name":"Dental Lounge","geo":{"location":{"lat":-33.8648653,"lng":151.2123513},"viewport":{"northeast":{"lat":-33.8635301197085,"lng":151.2138577802915},"southwest":{"lat":-33.8662280802915,"lng":151.2111598197085}}}},{"place_id":"ChIJ4RVpf_GtEmsRYw8WWzSlu30","rating":4.2,"name":"ABC Dental Sydney CBD","geo":{"location":{"lat":-33.8699262,"lng":151.2093417},"viewport":{"northeast":{"lat":-33.8685772197085,"lng":151.2106906802915},"southwest":{"lat":-33.8712751802915,"lng":151.2079927197085}}}},{"place_id":"ChIJqROEBT-uEmsRQBw91kv8_IE","rating":3.3,"name":"HCF Dental Centre Sydney","geo":{"location":{"lat":-33.87053,"lng":151.206837},"viewport":{"northeast":{"lat":-33.8691810197085,"lng":151.2081859802915},"southwest":{"lat":-33.87187898029149,"lng":151.2054880197085}}}},{"place_id":"ChIJi9xziGmuEmsRTyohSSlubg8","name":"Sydney Dental Surgeons","geo":{"location":{"lat":-33.86426240000001,"lng":151.2124134},"viewport":{"northeast":{"lat":-33.8629805697085,"lng":151.2139234302915},"southwest":{"lat":-33.8656785302915,"lng":151.2112254697085}}}},{"place_id":"ChIJsUnl5D2uEmsRpV3l2LVwtpg","rating":4.6,"name":"Hyde Park Dental Care","geo":{"location":{"lat":-33.87426300000001,"lng":151.209586},"viewport":{"northeast":{"lat":-33.8729226697085,"lng":151.2110340302915},"southwest":{"lat":-33.8756206302915,"lng":151.2083360697085}}}},{"place_id":"ChIJmWaTSkCuEmsRSiCmxHpHiL4","rating":4.6,"name":"Sydney CBD Dentistry","geo":{"location":{"lat":-33.866149,"lng":151.208791},"viewport":{"northeast":{"lat":-33.8648000197085,"lng":151.2101399802915},"southwest":{"lat":-33.8674979802915,"lng":151.2074420197085}}}},{"place_id":"ChIJqyVNu3WLtAERidk0R7w9kbY","name":"Wynyard Dental Clinic","geo":{"location":{"lat":-33.8668724,"lng":151.2048677},"viewport":{"northeast":{"lat":-33.8655234197085,"lng":151.2062166802915},"southwest":{"lat":-33.8682213802915,"lng":151.2035187197085}}}},{"place_id":"ChIJI_ga4T6uEmsRjvE5Sz_7gZE","rating":5,"name":"City Dental","geo":{"location":{"lat":-33.8705581,"lng":151.2059605},"viewport":{"northeast":{"lat":-33.8693536697085,"lng":151.2073252302915},"southwest":{"lat":-33.8720516302915,"lng":151.2046272697085}}}},{"place_id":"ChIJWWoDRT6uEmsRx7W8ONnfL8c","rating":4.7,"name":"Bio Compatible Dentistry","geo":{"location":{"lat":-33.871781,"lng":151.208471},"viewport":{"northeast":{"lat":-33.8704279697085,"lng":151.2096800302915},"southwest":{"lat":-33.87312593029149,"lng":151.2069820697085}}}},{"place_id":"ChIJhzPrBkCuEmsRxEy2Yn8-Hkg","rating":5,"name":"Diamond Care Dental","geo":{"location":{"lat":-33.86879,"lng":151.209942},"viewport":{"northeast":{"lat":-33.8673787197085,"lng":151.2111783802915},"southwest":{"lat":-33.8700766802915,"lng":151.2084804197085}}}},{"place_id":"ChIJH6Ef6jyuEmsR61wHMcH-z2w","rating":5,"name":"Our Dentist @ World Square","geo":{"location":{"lat":-33.876706,"lng":151.206198},"viewport":{"northeast":{"lat":-33.8753408697085,"lng":151.2074788302915},"southwest":{"lat":-33.87803883029149,"lng":151.2047808697085}}}},{"place_id":"ChIJr2bBBkCuEmsRDZ08YKom8qA","rating":4,"name":"Dentistry @ Castlereagh St","geo":{"location":{"lat":-33.8686799,"lng":151.2099032},"viewport":{"northeast":{"lat":-33.8673236697085,"lng":151.2111589802915},"southwest":{"lat":-33.8700216302915,"lng":151.2084610197085}}}},{"place_id":"ChIJuSKc-j-uEmsRKx6jZXkka24","name":"CBD Dental","geo":{"location":{"lat":-33.8695714,"lng":151.2098553},"viewport":{"northeast":{"lat":-33.8682128197085,"lng":151.2110801802915},"southwest":{"lat":-33.8709107802915,"lng":151.2083822197085}}}},{"place_id":"ChIJLWgKeD6uEmsREB2qZopPfJA","rating":4.8,"name":"Emergency Dentist Sydney","geo":{"location":{"lat":-33.872358,"lng":151.209631},"viewport":{"northeast":{"lat":-33.8710090197085,"lng":151.2109799802915},"southwest":{"lat":-33.87370698029149,"lng":151.2082820197085}}}},{"place_id":"ChIJ_5rvjDuuEmsRvDrJrdLU6AU","name":"Ironside Advanced Dental","geo":{"location":{"lat":-33.8739272,"lng":151.2039186},"viewport":{"northeast":{"lat":-33.8725603697085,"lng":151.2054189302915},"southwest":{"lat":-33.8752583302915,"lng":151.2027209697085}}}},{"place_id":"ChIJFde1bkCuEmsRXu3t06J-JxI","name":"Peter Anderson Dental","geo":{"location":{"lat":-33.8673946,"lng":151.2082813},"viewport":{"northeast":{"lat":-33.8661280697085,"lng":151.2096175302915},"southwest":{"lat":-33.8688260302915,"lng":151.2069195697085}}}},{"place_id":"ChIJtRo7LkKuEmsRomfYlOPdLDI","rating":5,"name":"Sublime Dental","geo":{"location":{"lat":-33.869232,"lng":151.206719},"viewport":{"northeast":{"lat":-33.8678777197085,"lng":151.2081726302915},"southwest":{"lat":-33.8705756802915,"lng":151.2054746697085}}}},{"place_id":"ChIJFWC9xmquEmsRL2CK5f8VWGQ","rating":5,"name":"Sydney City Dentist","geo":{"location":{"lat":-33.8684356,"lng":151.2118379},"viewport":{"northeast":{"lat":-33.8671035697085,"lng":151.2133537802915},"southwest":{"lat":-33.8698015302915,"lng":151.2106558197085}}}},{"place_id":"ChIJ9Z1e5TyuEmsRsPMMvi96Bp0","rating":4.7,"name":"Dental Clinic @ World Tower","geo":{"location":{"lat":-33.8764805,"lng":151.2066268},"viewport":{"northeast":{"lat":-33.8751351697085,"lng":151.2079749302915},"southwest":{"lat":-33.8778331302915,"lng":151.2052769697085}}}},{"place_id":"ChIJ5yZZWWquEmsRlkw7mPgRGWg","name":"John Crawford Dental Surgery","geo":{"location":{"lat":-33.866642,"lng":151.21213},"viewport":{"northeast":{"lat":-33.8653107197085,"lng":151.2136150802915},"southwest":{"lat":-33.8680086802915,"lng":151.2109171197085}}}},{"place_id":"ChIJpceleTiuEmsR69k6t0Lj0nA","rating":5,"name":"Sydney Harbour Dental at King Street Wharf","geo":{"location":{"lat":-33.866022,"lng":151.201411},"viewport":{"northeast":{"lat":-33.86466066970851,"lng":151.2029226802915},"southwest":{"lat":-33.86735863029151,"lng":151.2002247197085}}}},{"place_id":"ChIJWSvVGz6uEmsRdiGV_rwyZXY","name":"She's Apples Dentistry","geo":{"location":{"lat":-33.873056,"lng":151.209698},"viewport":{"northeast":{"lat":-33.8718087697085,"lng":151.2110310802915},"southwest":{"lat":-33.87450673029149,"lng":151.2083331197085}}}},{"place_id":"ChIJ526g-j-uEmsRQ8b4Afksulg","name":"Today's Dental Sydney","geo":{"location":{"lat":-33.8689627,"lng":151.2099027},"viewport":{"northeast":{"lat":-33.8676736697085,"lng":151.2112381302915},"southwest":{"lat":-33.87037163029149,"lng":151.2085401697085}}}},{"place_id":"ChIJC1pngUGuEmsRxEbSPrgxEY0","rating":5,"name":"Bridge Street Dental Clinic","geo":{"location":{"lat":-33.86343069999999,"lng":151.207859},"viewport":{"northeast":{"lat":-33.8620817197085,"lng":151.2092079802915},"southwest":{"lat":-33.8647796802915,"lng":151.2065100197085}}}},{"place_id":"ChIJWSvVGz6uEmsR0HnuB3KiLSw","rating":5,"name":"Lumiere Dental Centre","geo":{"location":{"lat":-33.87317000000001,"lng":151.209799},"viewport":{"northeast":{"lat":-33.8718584697085,"lng":151.2110140802915},"southwest":{"lat":-33.8745564302915,"lng":151.2083161197085}}}},{"place_id":"ChIJmeZQK0KuEmsRVhI6vJQ2WoA","rating":5,"name":"Dr John Michalopoulos Dental","geo":{"location":{"lat":-33.86343069999999,"lng":151.207859},"viewport":{"northeast":{"lat":-33.8621991697085,"lng":151.2092200302915},"southwest":{"lat":-33.8648971302915,"lng":151.2065220697085}}}},{"place_id":"ChIJibLKbkCuEmsRDlbKM6fRo_k","rating":5,"name":"Sydney Dental Aesthetics and Implants","geo":{"location":{"lat":-33.8672145,"lng":151.2082333},"viewport":{"northeast":{"lat":-33.86603401970849,"lng":151.2095561802915},"southwest":{"lat":-33.86873198029149,"lng":151.2068582197085}}}},{"place_id":"ChIJF_bnFjyuEmsRxxd5h1LUeWk","rating":5,"name":"The City Dentist, Dr Andrew Gorog","geo":{"location":{"lat":-33.873502,"lng":151.204907},"viewport":{"northeast":{"lat":-33.8721039197085,"lng":151.2063708802915},"southwest":{"lat":-33.8748018802915,"lng":151.2036729197085}}}},{"place_id":"ChIJw2PFAxeuEmsRcVta9VmAaC4","rating":3.5,"name":"Holdsworth House Dental Centre","geo":{"location":{"lat":-33.87621670000001,"lng":151.2124891},"viewport":{"northeast":{"lat":-33.87482211970851,"lng":151.2137389802915},"southwest":{"lat":-33.87752008029151,"lng":151.2110410197085}}}},{"place_id":"ChIJ6UJv3kGuEmsRg7U8FlyM-94","rating":5,"name":"D & S Dental","geo":{"location":{"lat":-33.865233,"lng":151.209943},"viewport":{"northeast":{"lat":-33.86379116970851,"lng":151.2111793302915},"southwest":{"lat":-33.8664891302915,"lng":151.2084813697085}}}},{"place_id":"ChIJgd0lOTeuEmsRv-mXM5u3FfU","name":"Sydney Laser Dental Care","geo":{"location":{"lat":-33.869387,"lng":151.196679},"viewport":{"northeast":{"lat":-33.8680072697085,"lng":151.1977903302915},"southwest":{"lat":-33.8707052302915,"lng":151.1950923697085}}}},{"place_id":"ChIJLWgKeD6uEmsRSJuLb4Q29ng","name":"Sydney childrens dentistry","geo":{"location":{"lat":-33.8736108,"lng":151.2077649},"viewport":{"northeast":{"lat":-33.87227151970851,"lng":151.2092693802915},"southwest":{"lat":-33.8749694802915,"lng":151.2065714197085}}}},{"place_id":"ChIJ0dlH2T6uEmsRFqNfwTUrsQo","name":"MC Dental Care","geo":{"location":{"lat":-33.8706028,"lng":151.2052961},"viewport":{"northeast":{"lat":-33.86926346970851,"lng":151.2067420802915},"southwest":{"lat":-33.87196143029151,"lng":151.2040441197085}}}},{"place_id":"ChIJJ5XczT6uEmsRrR4yUknPYso","rating":4,"name":"Sydney City Dental","geo":{"location":{"lat":-33.8706954,"lng":151.2050079},"viewport":{"northeast":{"lat":-33.8693538697085,"lng":151.2062651302915},"southwest":{"lat":-33.8720518302915,"lng":151.2035671697085}}}},{"place_id":"ChIJWSvVGz6uEmsR6EqKX-IiYt4","name":"City Smile Dental Centre","geo":{"location":{"lat":-33.873056,"lng":151.209698},"viewport":{"northeast":{"lat":-33.8718087697085,"lng":151.2110310802915},"southwest":{"lat":-33.87450673029149,"lng":151.2083331197085}}}},{"place_id":"ChIJH6Ef6jyuEmsRSgV9cbz2WPY","rating":5,"name":"Haymarket Medical-Dental Clinic","geo":{"location":{"lat":-33.8765996,"lng":151.2061661},"viewport":{"northeast":{"lat":-33.87524196970849,"lng":151.2074785802915},"southwest":{"lat":-33.87793993029149,"lng":151.2047806197085}}}},{"place_id":"ChIJ6_heq0GuEmsRQ8qXYmf4Xek","rating":5,"name":"Sydney Pros Dental","geo":{"location":{"lat":-33.8657528,"lng":151.2076023},"viewport":{"northeast":{"lat":-33.86430031970851,"lng":151.2089696802915},"southwest":{"lat":-33.8669982802915,"lng":151.2062717197085}}}}],"alcohol":[{"place_id":"ChIJNZMNJz2uEmsRR1OnAbbqX84","rating":4.5,"name":"Red Bottle Pitt St","geo":{"location":{"lat":-33.8753839,"lng":151.2078984},"viewport":{"northeast":{"lat":-33.87403491970851,"lng":151.2092473802915},"southwest":{"lat":-33.87673288029151,"lng":151.2065494197085}}}},{"place_id":"ChIJdT4Bgj6uEmsR8lp-rnhNBus","rating":3.2,"name":"LiquorLand Sydney George St Express","geo":{"location":{"lat":-33.8685272,"lng":151.2073175},"viewport":{"northeast":{"lat":-33.86721336970851,"lng":151.2084728802915},"southwest":{"lat":-33.8699113302915,"lng":151.2057749197085}}}},{"place_id":"ChIJgdyBV0CuEmsRbPfBKcO7jr4","rating":2.8,"name":"The Bottle Shop","geo":{"location":{"lat":-33.8663179,"lng":151.2076574},"viewport":{"northeast":{"lat":-33.8649946197085,"lng":151.2087893802915},"southwest":{"lat":-33.8676925802915,"lng":151.2060914197085}}}},{"place_id":"ChIJWY_VA0SuEmsRHdM-UOE4jV0","rating":4.5,"name":"Kent Street Cellars - Alcohol Delivery Sydney","geo":{"location":{"lat":-33.8622228,"lng":151.2039932},"viewport":{"northeast":{"lat":-33.86087956970849,"lng":151.2052558302915},"southwest":{"lat":-33.86357753029149,"lng":151.2025578697085}}}},{"place_id":"ChIJr9ZMJD6uEmsR1n_OYQWXx54","rating":3,"name":"Red Bottle","geo":{"location":{"lat":-33.8720875,"lng":151.2098346},"viewport":{"northeast":{"lat":-33.8707063197085,"lng":151.2109270302915},"southwest":{"lat":-33.8734042802915,"lng":151.2082290697085}}}},{"place_id":"ChIJtUp_70CuEmsRUzXnhbv2esY","rating":4.1,"name":"Vintage Cellars Wynyard Square","geo":{"location":{"lat":-33.8661271,"lng":151.2064936},"viewport":{"northeast":{"lat":-33.8647724197085,"lng":151.2077601302915},"southwest":{"lat":-33.8674703802915,"lng":151.2050621697085}}}},{"place_id":"ChIJpcrCSDyuEmsR9DWN22Ql53o","rating":2.3,"name":"Gifts Of Liquor","geo":{"location":{"lat":-33.8747966,"lng":151.2071479},"viewport":{"northeast":{"lat":-33.87343521970849,"lng":151.2082804802915},"southwest":{"lat":-33.87613318029149,"lng":151.2055825197085}}}},{"place_id":"ChIJb-BWW0KuEmsRIgCD2LXFb_E","rating":4.2,"name":"Australian Wine Centre","geo":{"location":{"lat":-33.8630226,"lng":151.2092604},"viewport":{"northeast":{"lat":-33.8616633697085,"lng":151.2105035802915},"southwest":{"lat":-33.8643613302915,"lng":151.2078056197085}}}},{"place_id":"ChIJhWvMJTeuEmsRMJ9KkYw1p8A","rating":3,"name":"LiquorLand Pyrmont","geo":{"location":{"lat":-33.8695618,"lng":151.1964511},"viewport":{"northeast":{"lat":-33.8683216197085,"lng":151.1978263802915},"southwest":{"lat":-33.8710195802915,"lng":151.1951284197085}}}},{"place_id":"ChIJE-nxymmuEmsRWWcNcpOwFCU","rating":2.4,"name":"Circular Quay Precinct","geo":{"location":{"lat":-33.8614078,"lng":151.2113886},"viewport":{"northeast":{"lat":-33.86005881970851,"lng":151.2127375802915},"southwest":{"lat":-33.86275678029151,"lng":151.2100396197085}}}},{"place_id":"ChIJW5RS_DmuEmsR56hjlq87Th0","rating":4.5,"name":"Harbourside Cellars","geo":{"location":{"lat":-33.870769,"lng":151.198771},"viewport":{"northeast":{"lat":-33.8694200197085,"lng":151.2001199802915},"southwest":{"lat":-33.8721179802915,"lng":151.1974220197085}}}},{"place_id":"ChIJyYjptjCuEmsRAdxqBQlY__s","rating":4.3,"name":"IGA X-press Pyrmont","geo":{"location":{"lat":-33.8717729,"lng":151.1972863},"viewport":{"northeast":{"lat":-33.8704374197085,"lng":151.1987283302915},"southwest":{"lat":-33.87313538029149,"lng":151.1960303697085}}}},{"place_id":"ChIJl6jH3hKuEmsRHoj_Fhq9e7I","rating":5,"name":"Friendly Grocer","geo":{"location":{"lat":-33.872417,"lng":151.219119},"viewport":{"northeast":{"lat":-33.8710371197085,"lng":151.2205551302915},"southwest":{"lat":-33.8737350802915,"lng":151.2178571697085}}}},{"place_id":"ChIJTY2G4j6uEmsRk_MuPYfiJVw","name":"Wood Street Wines","geo":{"location":{"lat":-33.87064679999999,"lng":151.2064365},"viewport":{"northeast":{"lat":-33.8693816697085,"lng":151.2077941302915},"southwest":{"lat":-33.87207963029149,"lng":151.2050961697085}}}},{"place_id":"ChIJpehiDUKuEmsRo3yyrVhGsPo","name":"Barrica Wines","geo":{"location":{"lat":-33.8625652,"lng":151.209524},"viewport":{"northeast":{"lat":-33.86114886970849,"lng":151.2108074302915},"southwest":{"lat":-33.86384683029149,"lng":151.2081094697085}}}},{"place_id":"ChIJF-0z3GmuEmsR-B30wP_LQ78","name":"Australian Whisky Holdings Limited","geo":{"location":{"lat":-33.86256840000001,"lng":151.2106734},"viewport":{"northeast":{"lat":-33.8612114197085,"lng":151.2119252302915},"southwest":{"lat":-33.8639093802915,"lng":151.2092272697085}}}},{"place_id":"ChIJYZuwsD6uEmsRQcyqd7YfylU","rating":4.6,"name":"Vintage Blue Wine","geo":{"location":{"lat":-33.8716846,"lng":151.2051435},"viewport":{"northeast":{"lat":-33.8703445197085,"lng":151.2063994302915},"southwest":{"lat":-33.8730424802915,"lng":151.2037014697085}}}},{"place_id":"ChIJN981BG2uEmsRNv0vKChfCas","rating":4.5,"name":"BWS Bourke Street Woolloomooloo","geo":{"location":{"lat":-33.869221,"lng":151.219511},"viewport":{"northeast":{"lat":-33.86785276970851,"lng":151.2207441302915},"southwest":{"lat":-33.87055073029151,"lng":151.2180461697085}}}},{"place_id":"ChIJnb1t8TiuEmsRBnfranuP_f0","rating":1,"name":"City Cellars","geo":{"location":{"lat":-33.8685224,"lng":151.2021148},"viewport":{"northeast":{"lat":-33.86717666970851,"lng":151.2034137302915},"southwest":{"lat":-33.86987463029151,"lng":151.2007157697085}}}},